$PYRTM,2024,124.083333399097,15.192980809236
$GNGGA,020000.00,3459.33132748,N,12130.14915559,W,2,10,1.0,7.883,M,-37.805,M,5.0,0135*6D
$PYRTM,2024,124.083333399097,15.192980809236
$GNHDT,345.692,T*24
$PYRTM,2024,124.083339128125,15.192986538264
$GNGGA,020000.50,3459.33199244,N,12130.14905925,W,2,10,1.0,8.200,M,-37.805,M,5.4,0135*6C
$PYRTM,2024,124.083339128125,15.192986538264
$GNHDT,345.721,T*2D
$PYRTM,2024,124.083344966759,15.192992376898
$GNGGA,020001.00,3459.33266393,N,12130.14894845,W,2,10,1.0,8.372,M,-37.805,M,6.0,0135*6D
$PYRTM,2024,124.083344966759,15.192992376898
$GNHDT,345.985,T*2D
$PYRTM,2024,124.083350709178,15.192998119317
$GNGGA,020001.50,3459.33333387,N,12130.14889425,W,2,10,1.0,8.427,M,-37.805,M,6.4,0135*69
$PYRTM,2024,124.083350709178,15.192998119317
$GNHDT,346.667,T*2D
$PYRTM,2024,124.083356538380,15.193003948519
$GNGGA,020002.00,3459.33402473,N,12130.14895285,W,2,10,1.0,8.286,M,-37.805,M,7.0,0135*6F
$PYRTM,2024,124.083356538380,15.193003948519
$GNHDT,346.778,T*22
$PYRTM,2024,124.083362281586,15.193009691725
$GNGGA,020002.50,3459.33475797,N,12130.14916693,W,2,10,1.0,7.897,M,-37.805,M,7.4,0135*6B
$PYRTM,2024,124.083362281586,15.193009691725
$GNHDT,346.452,T*29
$PYRTM,2024,124.083368115613,15.193015525752
$GNGGA,020003.00,3459.33551524,N,12130.14949711,W,2,10,1.0,7.333,M,-37.805,M,7.0,0135*62
$PYRTM,2024,124.083368115613,15.193015525752
$GNHDT,345.888,T*21
$PYRTM,2024,124.083373848576,15.193021258715
$GNGGA,020003.50,3459.33624852,N,12130.14988080,W,2,10,1.0,6.826,M,-37.805,M,7.4,0135*62
$PYRTM,2024,124.083373848576,15.193021258715
$GNHDT,345.512,T*2F
$PYRTM,2024,124.083379694769,15.193027104907
$GNGGA,020004.00,3459.33690553,N,12130.15023577,W,2,10,1.0,6.651,M,-37.805,M,7.0,0135*6D
$PYRTM,2024,124.083379694769,15.193027104907
$GNHDT,345.424,T*2B
$PYRTM,2024,124.083385435336,15.193032845475
$GNGGA,020004.50,3459.33750102,N,12130.15045073,W,2,10,1.0,6.810,M,-37.805,M,7.4,0135*6B
$PYRTM,2024,124.083385435336,15.193032845475
$GNHDT,345.706,T*28
$PYRTM,2024,124.083391266690,15.193038676829
$GNGGA,020005.00,3459.33808826,N,12130.15046775,W,2,10,1.0,7.206,M,-37.805,M,4.0,0135*6B
$PYRTM,2024,124.083391266690,15.193038676829
$GNHDT,346.389,T*28
$PYRTM,2024,124.083397007211,15.193044417350
$GNGGA,020005.50,3459.33872250,N,12130.15035855,W,2,10,1.0,7.602,M,-37.805,M,4.4,0135*65
$PYRTM,2024,124.083397007211,15.193044417350
$GNHDT,346.074,T*29
$PYRTM,2024,124.083402840671,15.193050250810
$GNGGA,020006.00,3459.33938504,N,12130.15016652,W,2,10,1.0,7.973,M,-37.805,M,5.0,0135*6E
$PYRTM,2024,124.083402840671,15.193050250810
$GNHDT,346.042,T*2C
$PYRTM,2024,124.083408573137,15.193055983275
$GNGGA,020006.50,3459.34009740,N,12130.15005652,W,2,10,1.0,8.162,M,-37.805,M,5.4,0135*64
$PYRTM,2024,124.083408573137,15.193055983275
$GNHDT,346.126,T*2F
$PYRTM,2024,124.083414410046,15.193061820197
$GNGGA,020007.00,3459.34083085,N,12130.15009512,W,2,10,1.0,8.078,M,-37.805,M,6.0,0135*6A
$PYRTM,2024,124.083414410046,15.193061820197
$GNHDT,346.113,T*29
$PYRTM,2024,124.083420146343,15.193067556481
$GNGGA,020007.50,3459.34155553,N,12130.15030563,W,2,10,1.0,7.808,M,-37.805,M,6.4,0135*63
$PYRTM,2024,124.083420146343,15.193067556481
$GNHDT,345.956,T*23
$PYRTM,2024,124.083425991111,15.193073401250
$GNGGA,020008.00,3459.34224617,N,12130.15062166,W,2,10,1.0,7.487,M,-37.805,M,7.0,0135*67
$PYRTM,2024,124.083425991111,15.193073401250
$GNHDT,345.792,T*25
$PYRTM,2024,124.083431729282,15.193079139421
$GNGGA,020008.50,3459.34289950,N,12130.15095349,W,2,10,1.0,7.164,M,-37.805,M,7.4,0135*62
$PYRTM,2024,124.083431729282,15.193079139421
$GNHDT,345.655,T*2F
$PYRTM,2024,124.083437561539,15.193084971678
$GNGGA,020009.00,3459.34352064,N,12130.15120674,W,2,10,1.0,7.062,M,-37.805,M,7.0,0135*68
$PYRTM,2024,124.083437561539,15.193084971678
$GNHDT,345.953,T*26
$PYRTM,2024,124.083443297141,15.193090707280
$GNGGA,020009.50,3459.34412134,N,12130.15130268,W,2,10,1.0,7.099,M,-37.805,M,7.4,0135*62
$PYRTM,2024,124.083443297141,15.193090707280
$GNHDT,345.985,T*2D
$PYRTM,2024,124.083449137581,15.193096547731
$GNGGA,020010.00,3459.34470966,N,12130.15132321,W,2,10,1.0,7.344,M,-37.805,M,7.0,0135*6D
$PYRTM,2024,124.083449137581,15.193096547731
$GNHDT,346.161,T*2C
$PYRTM,2024,124.083454875127,15.193102285266
$GNGGA,020010.50,3459.34531675,N,12130.15131097,W,2,10,1.0,7.599,M,-37.805,M,7.4,0135*6E
$PYRTM,2024,124.083454875127,15.193102285266
$GNHDT,345.441,T*28
$PYRTM,2024,124.083460705266,15.193108115405
$GNGGA,020011.00,3459.34595487,N,12130.15136117,W,2,10,1.0,7.789,M,-37.805,M,4.0,0135*61
$PYRTM,2024,124.083460705266,15.193108115405
$GNHDT,344.944,T*21
$PYRTM,2024,124.083466440926,15.193113851065
$GNGGA,020011.50,3459.34662799,N,12130.15148931,W,2,10,1.0,7.870,M,-37.805,M,4.4,0135*6B
$PYRTM,2024,124.083466440926,15.193113851065
$GNHDT,344.803,T*23
$PYRTM,2024,124.083472282431,15.193119692569
$GNGGA,020012.00,3459.34734202,N,12130.15166406,W,2,10,1.0,7.788,M,-37.805,M,5.0,0135*60
$PYRTM,2024,124.083472282431,15.193119692569
$GNHDT,344.593,T*27
$PYRTM,2024,124.083478017141,15.193125427280
$GNGGA,020012.50,3459.34810266,N,12130.15185590,W,2,10,1.0,7.534,M,-37.805,M,5.4,0135*6C
$PYRTM,2024,124.083478017141,15.193125427280
$GNHDT,344.418,T*25
$PYRTM,2024,124.083483854294,15.193131264433
$GNGGA,020013.00,3459.34890319,N,12130.15203564,W,2,10,1.0,7.141,M,-37.805,M,6.0,0135*6E
$PYRTM,2024,124.083483854294,15.193131264433
$GNHDT,344.762,T*2B
$PYRTM,2024,124.083489593738,15.193137003877
$GNGGA,020013.50,3459.34970479,N,12130.15220045,W,2,10,1.0,6.784,M,-37.805,M,6.4,0135*68
$PYRTM,2024,124.083489593738,15.193137003877
$GNHDT,344.657,T*2C
$PYRTM,2024,124.083495429502,15.193142839641
$GNGGA,020014.00,3459.35046177,N,12130.15235115,W,2,10,1.0,6.632,M,-37.805,M,7.0,0135*65
$PYRTM,2024,124.083495429502,15.193142839641
$GNHDT,344.395,T*27
$PYRTM,2024,124.083501170243,15.193148580394
$GNGGA,020014.50,3459.35111571,N,12130.15252955,W,2,10,1.0,6.876,M,-37.805,M,7.4,0135*66
$PYRTM,2024,124.083501170243,15.193148580394
$GNHDT,343.942,T*20
$PYRTM,2024,124.083507009549,15.193154419688
$GNGGA,020015.00,3459.35165979,N,12130.15272048,W,2,10,1.0,7.450,M,-37.805,M,7.0,0135*6F
$PYRTM,2024,124.083507009549,15.193154419688
$GNHDT,343.564,T*28
$PYRTM,2024,124.083512739201,15.193160149340
$GNGGA,020015.50,3459.35214520,N,12130.15288647,W,2,10,1.0,8.117,M,-37.805,M,7.4,0135*6E
$PYRTM,2024,124.083512739201,15.193160149340
$GNHDT,344.052,T*2F
$PYRTM,2024,124.083518584826,15.193165994965
$GNGGA,020016.00,3459.35266080,N,12130.15299650,W,2,10,1.0,8.688,M,-37.805,M,7.0,0135*61
$PYRTM,2024,124.083518584826,15.193165994965
$GNHDT,344.160,T*2F
$PYRTM,2024,124.083524318970,15.193171729109
$GNGGA,020016.50,3459.35327825,N,12130.15303771,W,2,10,1.0,8.950,M,-37.805,M,7.4,0135*69
$PYRTM,2024,124.083524318970,15.193171729109
$GNHDT,344.543,T*2A
$PYRTM,2024,124.083530152870,15.193177563009
$GNGGA,020017.00,3459.35400787,N,12130.15299685,W,2,10,1.0,8.790,M,-37.805,M,4.0,0135*65
$PYRTM,2024,124.083530152870,15.193177563009
$GNHDT,344.815,T*24
$PYRTM,2024,124.083535896435,15.193183306574
$GNGGA,020017.50,3459.35481460,N,12130.15296281,W,2,10,1.0,8.215,M,-37.805,M,4.4,0135*60
$PYRTM,2024,124.083535896435,15.193183306574
$GNHDT,344.871,T*26
$PYRTM,2024,124.083541727153,15.193189137292
$GNGGA,020018.00,3459.35561683,N,12130.15302106,W,2,10,1.0,7.412,M,-37.805,M,5.0,0135*61
$PYRTM,2024,124.083541727153,15.193189137292
$GNHDT,344.240,T*2E
$PYRTM,2024,124.083547459734,15.193194869873
$GNGGA,020018.50,3459.35636511,N,12130.15326732,W,2,10,1.0,6.639,M,-37.805,M,5.4,0135*64
$PYRTM,2024,124.083547459734,15.193194869873
$GNHDT,343.400,T*2B
$PYRTM,2024,124.083553301759,15.193200711910
$GNGGA,020019.00,3459.35704613,N,12130.15365590,W,2,10,1.0,6.212,M,-37.804,M,6.0,0135*67
$PYRTM,2024,124.083553301759,15.193200711910
$GNHDT,342.802,T*24
$PYRTM,2024,124.083559032836,15.193206442975
$GNGGA,020019.50,3459.35763612,N,12130.15405784,W,2,10,1.0,6.281,M,-37.804,M,6.4,0135*6A
$PYRTM,2024,124.083559032836,15.193206442975
$GNHDT,341.878,T*2A
$PYRTM,2024,124.083564880359,15.193212290498
$GNGGA,020020.00,3459.35815026,N,12130.15434087,W,2,10,1.0,6.847,M,-37.804,M,7.0,0135*69
$PYRTM,2024,124.083564880359,15.193212290498
$GNHDT,341.701,T*2B
$PYRTM,2024,124.083570615405,15.193218025544
$GNGGA,020020.50,3459.35864446,N,12130.15445500,W,2,10,1.0,7.629,M,-37.804,M,7.4,0135*67
$PYRTM,2024,124.083570615405,15.193218025544
$GNHDT,341.838,T*2E
$PYRTM,2024,124.083576452789,15.193223862928
$GNGGA,020021.00,3459.35920181,N,12130.15439693,W,2,10,1.0,8.335,M,-37.804,M,7.0,0135*6D
$PYRTM,2024,124.083576452789,15.193223862928
$GNHDT,342.357,T*2F
$PYRTM,2024,124.083582184942,15.193229595081
$GNGGA,020021.50,3459.35987583,N,12130.15430759,W,2,10,1.0,8.815,M,-37.804,M,7.4,0135*60
$PYRTM,2024,124.083582184942,15.193229595081
$GNHDT,342.260,T*2A
$PYRTM,2024,124.083588024155,15.193235434294
$GNGGA,020022.00,3459.36066644,N,12130.15427770,W,2,10,1.0,8.722,M,-37.804,M,7.0,0135*69
$PYRTM,2024,124.083588024155,15.193235434294
$GNHDT,342.403,T*29
$PYRTM,2024,124.083593765637,15.193241175775
$GNGGA,020022.50,3459.36149755,N,12130.15433153,W,2,10,1.0,8.287,M,-37.804,M,7.4,0135*6D
$PYRTM,2024,124.083593765637,15.193241175775
$GNHDT,342.731,T*2B
$PYRTM,2024,124.083599599757,15.193247009896
$GNGGA,020023.00,3459.36224860,N,12130.15450881,W,2,10,1.0,7.713,M,-37.804,M,4.0,0135*6B
$PYRTM,2024,124.083599599757,15.193247009896
$GNHDT,342.589,T*2A
$PYRTM,2024,124.083605337951,15.193252748090
$GNGGA,020023.50,3459.36289127,N,12130.15475397,W,2,10,1.0,7.310,M,-37.804,M,4.4,0135*6B
$PYRTM,2024,124.083605337951,15.193252748090
$GNHDT,342.126,T*2B
$PYRTM,2024,124.083611172014,15.193258582153
$GNGGA,020024.00,3459.36341342,N,12130.15503722,W,2,10,1.0,7.291,M,-37.804,M,5.0,0135*6A
$PYRTM,2024,124.083611172014,15.193258582153
$GNHDT,342.158,T*22
$PYRTM,2024,124.083616903646,15.193264313796
$GNGGA,020024.50,3459.36386851,N,12130.15531079,W,2,10,1.0,7.574,M,-37.804,M,5.4,0135*6D
$PYRTM,2024,124.083616903646,15.193264313796
$GNHDT,341.723,T*2B
$PYRTM,2024,124.083622747801,15.193270157940
$GNGGA,020025.00,3459.36433261,N,12130.15554094,W,2,10,1.0,7.988,M,-37.804,M,6.0,0135*61
$PYRTM,2024,124.083622747801,15.193270157940
$GNHDT,341.633,T*2B
$PYRTM,2024,124.083628478449,15.193275888588
$GNGGA,020025.50,3459.36488356,N,12130.15572153,W,2,10,1.0,8.250,M,-37.804,M,6.4,0135*6A
$PYRTM,2024,124.083628478449,15.193275888588
$GNHDT,341.665,T*28
$PYRTM,2024,124.083634317882,15.193281728021
$GNGGA,020026.00,3459.36557772,N,12130.15584030,W,2,10,1.0,8.181,M,-37.804,M,7.0,0135*6A
$PYRTM,2024,124.083634317882,15.193281728021
$GNHDT,341.721,T*29
$PYRTM,2024,124.083640057014,15.193287467164
$GNGGA,020026.50,3459.36636699,N,12130.15594759,W,2,10,1.0,7.748,M,-37.804,M,7.4,0135*6E
$PYRTM,2024,124.083640057014,15.193287467164
$GNHDT,341.227,T*2A
$PYRTM,2024,124.083645894988,15.193293305127
$GNGGA,020027.00,3459.36715759,N,12130.15608446,W,2,10,1.0,7.222,M,-37.804,M,7.0,0135*61
$PYRTM,2024,124.083645894988,15.193293305127
$GNHDT,340.980,T*2D
$PYRTM,2024,124.083651628368,15.193299038507
$GNGGA,020027.50,3459.36789883,N,12130.15628845,W,2,10,1.0,6.802,M,-37.804,M,7.4,0135*69
$PYRTM,2024,124.083651628368,15.193299038507
$GNHDT,340.689,T*2B
$PYRTM,2024,124.083657468715,15.193304878854
$GNGGA,020028.00,3459.36854663,N,12130.15653103,W,2,10,1.0,6.684,M,-37.804,M,7.0,0135*6F
$PYRTM,2024,124.083657468715,15.193304878854
$GNHDT,340.679,T*24
$PYRTM,2024,124.083663209190,15.193310619329
$GNGGA,020028.50,3459.36912993,N,12130.15676143,W,2,10,1.0,6.911,M,-37.804,M,7.4,0135*6D
$PYRTM,2024,124.083663209190,15.193310619329
$GNHDT,341.193,T*26
$PYRTM,2024,124.083669042986,15.193316453125
$GNGGA,020029.00,3459.36967320,N,12130.15695055,W,2,10,1.0,7.382,M,-37.804,M,4.0,0135*64
$PYRTM,2024,124.083669042986,15.193316453125
$GNHDT,341.408,T*21
$PYRTM,2024,124.083674776505,15.193322186644
$GNGGA,020029.50,3459.37018724,N,12130.15706965,W,2,10,1.0,8.034,M,-37.804,M,4.4,0135*65
$PYRTM,2024,124.083674776505,15.193322186644
$GNHDT,341.438,T*22
$PYRTM,2024,124.083680616215,15.193328026354
$GNGGA,020030.00,3459.37071501,N,12130.15713206,W,2,10,1.0,8.651,M,-37.804,M,5.0,0135*68
$PYRTM,2024,124.083680616215,15.193328026354
$GNHDT,341.580,T*20
$PYRTM,2024,124.083686349838,15.193333759977
$GNGGA,020030.50,3459.37131108,N,12130.15716992,W,2,10,1.0,9.005,M,-37.804,M,5.4,0135*64
$PYRTM,2024,124.083686349838,15.193333759977
$GNHDT,341.453,T*2F
$PYRTM,2024,124.083692190706,15.193339600845
$GNGGA,020031.00,3459.37198602,N,12130.15726179,W,2,10,1.0,8.894,M,-37.804,M,6.0,0135*66
$PYRTM,2024,124.083692190706,15.193339600845
$GNHDT,341.420,T*2B
$PYRTM,2024,124.083697924120,15.193345334259
$GNGGA,020031.50,3459.37270214,N,12130.15745444,W,2,10,1.0,8.367,M,-37.804,M,6.4,0135*68
$PYRTM,2024,124.083697924120,15.193345334259
$GNHDT,341.430,T*2A
$PYRTM,2024,124.083703774167,15.193351184306
$GNGGA,020032.00,3459.37341012,N,12130.15772869,W,2,10,1.0,7.656,M,-37.804,M,7.0,0135*63
$PYRTM,2024,124.083703774167,15.193351184306
$GNHDT,341.120,T*2E
$PYRTM,2024,124.083709498299,15.193356908438
$GNGGA,020032.50,3459.37410842,N,12130.15808991,W,2,10,1.0,7.011,M,-37.804,M,7.4,0135*6D
$PYRTM,2024,124.083709498299,15.193356908438
$GNHDT,341.043,T*2A
$PYRTM,2024,124.083715339988,15.193362750127
$GNGGA,020033.00,3459.37476069,N,12130.15843759,W,2,10,1.0,6.717,M,-37.804,M,7.0,0135*69
$PYRTM,2024,124.083715339988,15.193362750127
$GNHDT,340.706,T*2D
$PYRTM,2024,124.083721074051,15.193368484190
$GNGGA,020033.50,3459.37532971,N,12130.15864904,W,2,10,1.0,6.890,M,-37.804,M,7.4,0135*6A
$PYRTM,2024,124.083721074051,15.193368484190
$GNHDT,340.437,T*2C
$PYRTM,2024,124.083726914236,15.193374324375
$GNGGA,020034.00,3459.37584185,N,12130.15874634,W,2,10,1.0,7.434,M,-37.804,M,7.0,0135*6C
$PYRTM,2024,124.083726914236,15.193374324375
$GNHDT,340.765,T*28
$PYRTM,2024,124.083732656285,15.193380066424
$GNGGA,020034.50,3459.37632298,N,12130.15875430,W,2,10,1.0,8.117,M,-37.804,M,7.4,0135*60
$PYRTM,2024,124.083732656285,15.193380066424
$GNHDT,341.041,T*28
$PYRTM,2024,124.083738486331,15.193385896470
$GNGGA,020035.00,3459.37684634,N,12130.15873611,W,2,10,1.0,8.724,M,-37.804,M,4.0,0135*6D
$PYRTM,2024,124.083738486331,15.193385896470
$GNHDT,341.759,T*26
$PYRTM,2024,124.083744221238,15.193391631377
$GNGGA,020035.50,3459.37747067,N,12130.15873567,W,2,10,1.0,8.949,M,-37.804,M,4.4,0135*65
$PYRTM,2024,124.083744221238,15.193391631377
$GNHDT,342.047,T*2D
$PYRTM,2024,124.083750060046,15.193397470185
$GNGGA,020036.00,3459.37822540,N,12130.15877254,W,2,10,1.0,8.637,M,-37.804,M,5.0,0135*6F
$PYRTM,2024,124.083750060046,15.193397470185
$GNHDT,342.250,T*29
$PYRTM,2024,124.083755795266,15.193403205405
$GNGGA,020036.50,3459.37902740,N,12130.15891593,W,2,10,1.0,7.924,M,-37.804,M,5.4,0135*69
$PYRTM,2024,124.083755795266,15.193403205405
$GNHDT,341.981,T*2D
$PYRTM,2024,124.083761642269,15.193409052419
$GNGGA,020037.00,3459.37977304,N,12130.15919859,W,2,10,1.0,7.098,M,-37.804,M,6.0,0135*68
$PYRTM,2024,124.083761642269,15.193409052419
$GNHDT,341.581,T*21
$PYRTM,2024,124.083767371076,15.193414781215
$GNGGA,020037.50,3459.38037598,N,12130.15956155,W,2,10,1.0,6.671,M,-37.804,M,6.4,0135*66
$PYRTM,2024,124.083767371076,15.193414781215
$GNHDT,341.858,T*28
$PYRTM,2024,124.083773208333,15.193420618472
$GNGGA,020038.00,3459.38082307,N,12130.15988571,W,2,10,1.0,6.779,M,-37.804,M,7.0,0135*6F
$PYRTM,2024,124.083773208333,15.193420618472
$GNHDT,341.581,T*21
$PYRTM,2024,124.083778943600,15.193426353750
$GNGGA,020038.50,3459.38118161,N,12130.16007223,W,2,10,1.0,7.424,M,-37.804,M,7.4,0135*69
$PYRTM,2024,124.083778943600,15.193426353750
$GNHDT,341.780,T*22
$PYRTM,2024,124.083784783877,15.193432194016
$GNGGA,020039.00,3459.38154309,N,12130.16012196,W,2,10,1.0,8.214,M,-37.804,M,7.0,0135*6E
$PYRTM,2024,124.083784783877,15.193432194016
$GNHDT,342.230,T*2F
$PYRTM,2024,124.083790517442,15.193437927581
$GNGGA,020039.50,3459.38201346,N,12130.16008364,W,2,10,1.0,8.806,M,-37.804,M,7.4,0135*6A
$PYRTM,2024,124.083790517442,15.193437927581
$GNHDT,342.427,T*2F
$PYRTM,2024,124.083796359086,15.193443769225
$GNGGA,020040.00,3459.38264749,N,12130.16000786,W,2,10,1.0,8.996,M,-37.804,M,7.0,0135*65
$PYRTM,2024,124.083796359086,15.193443769225
$GNHDT,342.679,T*26
$PYRTM,2024,124.083802096632,15.193449506771
$GNGGA,020040.50,3459.38340197,N,12130.15996629,W,2,10,1.0,8.652,M,-37.804,M,7.4,0135*60
$PYRTM,2024,124.083802096632,15.193449506771
$GNHDT,342.597,T*25
$PYRTM,2024,124.083807929676,15.193455339815
$GNGGA,020041.00,3459.38418375,N,12130.16000549,W,2,10,1.0,7.955,M,-37.804,M,4.0,0135*60
$PYRTM,2024,124.083807929676,15.193455339815
$GNHDT,342.858,T*2B
$PYRTM,2024,124.083813670301,15.193461080440
$GNGGA,020041.50,3459.38489396,N,12130.16015959,W,2,10,1.0,7.291,M,-37.804,M,4.4,0135*6E
$PYRTM,2024,124.083813670301,15.193461080440
$GNHDT,341.980,T*2C
$PYRTM,2024,124.083819504606,15.193466914745
$GNGGA,020042.00,3459.38549597,N,12130.16040806,W,2,10,1.0,6.965,M,-37.804,M,5.0,0135*6D
$PYRTM,2024,124.083819504606,15.193466914745
$GNHDT,341.594,T*25
$PYRTM,2024,124.083825240926,15.193472651065
$GNGGA,020042.50,3459.38599159,N,12130.16070008,W,2,10,1.0,7.102,M,-37.804,M,5.4,0135*6A
$PYRTM,2024,124.083825240926,15.193472651065
$GNHDT,341.599,T*28
$PYRTM,2024,124.083831080278,15.193478490417
$GNGGA,020043.00,3459.38642922,N,12130.16098621,W,2,10,1.0,7.584,M,-37.804,M,6.0,0135*69
$PYRTM,2024,124.083831080278,15.193478490417
$GNHDT,341.655,T*2B
$PYRTM,2024,124.083836813403,15.193484223542
$GNGGA,020043.50,3459.38688142,N,12130.16124019,W,2,10,1.0,8.125,M,-37.804,M,6.4,0135*6B
$PYRTM,2024,124.083836813403,15.193484223542
$GNHDT,341.708,T*22
$PYRTM,2024,124.083842655961,15.193490066100
$GNGGA,020044.00,3459.38741899,N,12130.16145466,W,2,10,1.0,8.477,M,-37.804,M,7.0,0135*6E
$PYRTM,2024,124.083842655961,15.193490066100
$GNHDT,341.799,T*2A
$PYRTM,2024,124.083848384525,15.193495794664
$GNGGA,020044.50,3459.38806286,N,12130.16160749,W,2,10,1.0,8.450,M,-37.804,M,7.4,0135*6B
$PYRTM,2024,124.083848384525,15.193495794664
$GNHDT,341.825,T*22
$PYRTM,2024,124.083854227025,15.193501637164
$GNGGA,020045.00,3459.38877099,N,12130.16171375,W,2,10,1.0,8.124,M,-37.804,M,7.0,0135*6C
$PYRTM,2024,124.083854227025,15.193501637164
$GNHDT,341.895,T*29
$PYRTM,2024,124.083859959201,15.193507369340
$GNGGA,020045.50,3459.38945865,N,12130.16179845,W,2,10,1.0,7.720,M,-37.804,M,7.4,0135*6B
$PYRTM,2024,124.083859959201,15.193507369340
$GNHDT,342.007,T*29
$PYRTM,2024,124.083865804988,15.193513215127
$GNGGA,020046.00,3459.39009186,N,12130.16189465,W,2,10,1.0,7.387,M,-37.804,M,7.0,0135*65
$PYRTM,2024,124.083865804988,15.193513215127
$GNHDT,341.871,T*23
$PYRTM,2024,124.083871541794,15.193518951944
$GNGGA,020046.50,3459.39065869,N,12130.16201321,W,2,10,1.0,7.293,M,-37.804,M,7.4,0135*66
$PYRTM,2024,124.083871541794,15.193518951944
$GNHDT,341.645,T*2A
$PYRTM,2024,124.083877375602,15.193524785741
$GNGGA,020047.00,3459.39119155,N,12130.16216841,W,2,10,1.0,7.403,M,-37.804,M,4.0,0135*6D
$PYRTM,2024,124.083877375602,15.193524785741
$GNHDT,341.552,T*2F
$PYRTM,2024,124.083883110903,15.193530521042
$GNGGA,020047.50,3459.39171933,N,12130.16235221,W,2,10,1.0,7.613,M,-37.804,M,4.4,0135*64
$PYRTM,2024,124.083883110903,15.193530521042
$GNHDT,341.531,T*2A
$PYRTM,2024,124.083888946458,15.193536356609
$GNGGA,020048.00,3459.39227522,N,12130.16256800,W,2,10,1.0,7.759,M,-37.804,M,5.0,0135*64
$PYRTM,2024,124.083888946458,15.193536356609
$GNHDT,341.696,T*24
$PYRTM,2024,124.083894681944,15.193542092083
$GNGGA,020048.50,3459.39290028,N,12130.16282347,W,2,10,1.0,7.712,M,-37.804,M,5.4,0135*68
$PYRTM,2024,124.083894681944,15.193542092083
$GNHDT,341.627,T*2E
$PYRTM,2024,124.083900524896,15.193547935035
$GNGGA,020049.00,3459.39355264,N,12130.16306071,W,2,10,1.0,7.533,M,-37.804,M,6.0,0135*63
$PYRTM,2024,124.083900524896,15.193547935035
$GNHDT,341.395,T*22
$PYRTM,2024,124.083906259074,15.193553669225
$GNGGA,020049.50,3459.39420185,N,12130.16327492,W,2,10,1.0,7.326,M,-37.804,M,6.4,0135*63
$PYRTM,2024,124.083906259074,15.193553669225
$GNHDT,341.371,T*28
$PYRTM,2024,124.083912096655,15.193559506794
$GNGGA,020050.00,3459.39481546,N,12130.16346197,W,2,10,1.0,7.273,M,-37.804,M,7.0,0135*6D
$PYRTM,2024,124.083912096655,15.193559506794
$GNHDT,341.398,T*2F
$PYRTM,2024,124.083917829410,15.193565239549
$GNGGA,020050.50,3459.39538289,N,12130.16361163,W,2,10,1.0,7.407,M,-37.804,M,7.4,0135*60
$PYRTM,2024,124.083917829410,15.193565239549
$GNHDT,341.511,T*28
$PYRTM,2024,124.083923670440,15.193571080579
$GNGGA,020051.00,3459.39592466,N,12130.16371814,W,2,10,1.0,7.692,M,-37.804,M,7.0,0135*61
$PYRTM,2024,124.083923670440,15.193571080579
$GNHDT,341.795,T*26
$PYRTM,2024,124.083929408542,15.193576818681
$GNGGA,020051.50,3459.39650033,N,12130.16381244,W,2,10,1.0,7.922,M,-37.804,M,7.4,0135*6D
$PYRTM,2024,124.083929408542,15.193576818681
$GNHDT,341.687,T*24
$PYRTM,2024,124.083935244051,15.193582654190
$GNGGA,020052.00,3459.39714831,N,12130.16393194,W,2,10,1.0,7.968,M,-37.804,M,7.0,0135*67
$PYRTM,2024,124.083935244051,15.193582654190
$GNHDT,341.886,T*2B
$PYRTM,2024,124.083940976898,15.193588387037
$GNGGA,020052.50,3459.39784038,N,12130.16408627,W,2,10,1.0,7.900,M,-37.804,M,7.4,0135*6A
$PYRTM,2024,124.083940976898,15.193588387037
$GNHDT,341.975,T*26
$PYRTM,2024,124.083946820162,15.193594230301
$GNGGA,020053.00,3459.39852265,N,12130.16427212,W,2,10,1.0,7.751,M,-37.804,M,4.0,0135*62
$PYRTM,2024,124.083946820162,15.193594230301
$GNHDT,342.128,T*25
$PYRTM,2024,124.083952560799,15.193599970938
$GNGGA,020053.50,3459.39916310,N,12130.16446918,W,2,10,1.0,7.645,M,-37.804,M,4.4,0135*63
$PYRTM,2024,124.083952560799,15.193599970938
$GNHDT,342.006,T*28
$PYRTM,2024,124.083958393785,15.193605803924
$GNGGA,020054.00,3459.39977004,N,12130.16468329,W,2,10,1.0,7.638,M,-37.804,M,5.0,0135*6B
$PYRTM,2024,124.083958393785,15.193605803924
$GNHDT,341.950,T*21
$PYRTM,2024,124.083964125174,15.193611535312
$GNGGA,020054.50,3459.40036764,N,12130.16491386,W,2,10,1.0,7.729,M,-37.804,M,5.4,0135*6B
$PYRTM,2024,124.083964125174,15.193611535312
$GNHDT,341.951,T*20
$PYRTM,2024,124.083969964954,15.193617375104
$GNGGA,020055.00,3459.40096968,N,12130.16514748,W,2,10,1.0,7.885,M,-37.804,M,6.0,0135*63
$PYRTM,2024,124.083969964954,15.193617375104
$GNHDT,341.774,T*29
$PYRTM,2024,124.083975707095,15.193623117234
$GNGGA,020055.50,3459.40160113,N,12130.16536702,W,2,10,1.0,7.987,M,-37.804,M,6.4,0135*63
$PYRTM,2024,124.083975707095,15.193623117234
$GNHDT,341.615,T*2F
$PYRTM,2024,124.083981541250,15.193628951389
$GNGGA,020056.00,3459.40227748,N,12130.16557902,W,2,10,1.0,7.957,M,-37.804,M,7.0,0135*6C
$PYRTM,2024,124.083981541250,15.193628951389
$GNHDT,341.684,T*27
$PYRTM,2024,124.083987275440,15.193634685579
$GNGGA,020056.50,3459.40296482,N,12130.16577352,W,2,10,1.0,7.836,M,-37.804,M,7.4,0135*69
$PYRTM,2024,124.083987275440,15.193634685579
$GNHDT,341.705,T*2F
$PYRTM,2024,124.083993114363,15.193640524502
$GNGGA,020057.00,3459.40360733,N,12130.16592538,W,2,10,1.0,7.768,M,-37.804,M,7.0,0135*6D
$PYRTM,2024,124.083993114363,15.193640524502
$GNHDT,341.756,T*29
$PYRTM,2024,124.083998851447,15.193646261586
$GNGGA,020057.50,3459.40421730,N,12130.16607127,W,2,10,1.0,7.836,M,-37.804,M,7.4,0135*6C
$PYRTM,2024,124.083998851447,15.193646261586
$GNHDT,341.698,T*2A
$PYRTM,2024,124.084004687234,15.193652097373
$GNGGA,020058.00,3459.40478890,N,12130.16618081,W,2,10,1.0,8.049,M,-37.804,M,7.0,0135*67
$PYRTM,2024,124.084004687234,15.193652097373
$GNHDT,341.687,T*24
$PYRTM,2024,124.084010426609,15.193657836748
$GNGGA,020058.50,3459.40538052,N,12130.16629886,W,2,10,1.0,8.231,M,-37.804,M,7.4,0135*65
$PYRTM,2024,124.084010426609,15.193657836748
$GNHDT,341.607,T*2C
$PYRTM,2024,124.084016265093,15.193663675231
$GNGGA,020059.00,3459.40603778,N,12130.16648565,W,2,10,1.0,8.274,M,-37.804,M,4.0,0135*64
$PYRTM,2024,124.084016265093,15.193663675231
$GNHDT,341.462,T*2D
$PYRTM,2024,124.084021997315,15.193669407454
$GNGGA,020059.50,3459.40675951,N,12130.16672496,W,2,10,1.0,8.050,M,-37.804,M,4.4,0135*61
$PYRTM,2024,124.084021997315,15.193669407454
$GNHDT,341.469,T*26
$PYRTM,2024,124.084027839514,15.193675249664
$GNGGA,020100.00,3459.40754800,N,12130.16703487,W,2,10,1.0,7.598,M,-37.804,M,5.0,0135*62
$PYRTM,2024,124.084027839514,15.193675249664
$GNHDT,341.403,T*2A
$PYRTM,2024,124.084033572951,15.193680983090
$GNGGA,020100.50,3459.40831382,N,12130.16737332,W,2,10,1.0,7.180,M,-37.804,M,5.4,0135*6D
$PYRTM,2024,124.084033572951,15.193680983090
$GNHDT,341.380,T*26
$PYRTM,2024,124.084039410197,15.193686820336
$GNGGA,020101.00,3459.40897491,N,12130.16770818,W,2,10,1.0,7.065,M,-37.804,M,6.0,0135*6D
$PYRTM,2024,124.084039410197,15.193686820336
$GNHDT,341.434,T*2E
$PYRTM,2024,124.084045154317,15.193692564456
$GNGGA,020101.50,3459.40949921,N,12130.16796737,W,2,10,1.0,7.421,M,-37.804,M,6.4,0135*66
$PYRTM,2024,124.084045154317,15.193692564456
$GNHDT,341.480,T*21
$PYRTM,2024,124.084050989687,15.193698399826
$GNGGA,020102.00,3459.40996276,N,12130.16817112,W,2,10,1.0,8.007,M,-37.804,M,7.0,0135*66
$PYRTM,2024,124.084050989687,15.193698399826
$GNHDT,341.658,T*26
$PYRTM,2024,124.084056719549,15.193704129687
$GNGGA,020102.50,3459.41041831,N,12130.16827882,W,2,10,1.0,8.621,M,-37.804,M,7.4,0135*6D
$PYRTM,2024,124.084056719549,15.193704129687
$GNHDT,341.613,T*29
$PYRTM,2024,124.084062560382,15.193709970521
$GNGGA,020103.00,3459.41098954,N,12130.16839293,W,2,10,1.0,8.957,M,-37.804,M,7.0,0135*60
$PYRTM,2024,124.084062560382,15.193709970521
$GNHDT,341.635,T*2D
$PYRTM,2024,124.084068302789,15.193715712928
$GNGGA,020103.50,3459.41170734,N,12130.16854473,W,2,10,1.0,8.782,M,-37.804,M,7.4,0135*6B
$PYRTM,2024,124.084068302789,15.193715712928
$GNHDT,341.709,T*23
$PYRTM,2024,124.084074145764,15.193721555903
$GNGGA,020104.00,3459.41253253,N,12130.16875053,W,2,10,1.0,8.038,M,-37.804,M,7.0,0135*68
$PYRTM,2024,124.084074145764,15.193721555903
$GNHDT,341.736,T*2F
$PYRTM,2024,124.084079867627,15.193727277766
$GNGGA,020104.50,3459.41331554,N,12130.16897264,W,2,10,1.0,7.212,M,-37.804,M,7.4,0135*63
$PYRTM,2024,124.084079867627,15.193727277766
$GNHDT,341.447,T*2A
$PYRTM,2024,124.084085705926,15.193733116065
$GNGGA,020105.00,3459.41401834,N,12130.16927689,W,2,10,1.0,6.606,M,-37.804,M,4.0,0135*62
$PYRTM,2024,124.084085705926,15.193733116065
$GNHDT,341.467,T*28
$PYRTM,2024,124.084091446539,15.193738856678
$GNGGA,020105.50,3459.41455263,N,12130.16952288,W,2,10,1.0,6.580,M,-37.803,M,4.4,0135*67
$PYRTM,2024,124.084091446539,15.193738856678
$GNHDT,341.615,T*2F
$PYRTM,2024,124.084097283588,15.193744693750
$GNGGA,020106.00,3459.41498139,N,12130.16970927,W,2,10,1.0,7.133,M,-37.803,M,5.0,0135*6A
$PYRTM,2024,124.084097283588,15.193744693750
$GNHDT,341.909,T*2D
$PYRTM,2024,124.084103024676,15.193750434815
$GNGGA,020106.50,3459.41535796,N,12130.16983271,W,2,10,1.0,7.875,M,-37.803,M,5.4,0135*61
$PYRTM,2024,124.084103024676,15.193750434815
$GNHDT,341.928,T*2E
$PYRTM,2024,124.084108858391,15.193756268530
$GNGGA,020107.00,3459.41580247,N,12130.16991361,W,2,10,1.0,8.531,M,-37.803,M,6.0,0135*64
$PYRTM,2024,124.084108858391,15.193756268530
$GNHDT,342.124,T*29
$PYRTM,2024,124.084114591493,15.193762001632
$GNGGA,020107.50,3459.41638204,N,12130.17001037,W,2,10,1.0,8.801,M,-37.803,M,6.4,0135*6D
$PYRTM,2024,124.084114591493,15.193762001632
$GNHDT,341.688,T*2B
$PYRTM,2024,124.084120431586,15.193767841725
$GNGGA,020108.00,3459.41708077,N,12130.17015083,W,2,10,1.0,8.531,M,-37.803,M,7.0,0135*62
$PYRTM,2024,124.084120431586,15.193767841725
$GNHDT,341.602,T*29
$PYRTM,2024,124.084126177789,15.193773587928
$GNGGA,020108.50,3459.41782759,N,12130.17035342,W,2,10,1.0,7.861,M,-37.803,M,7.4,0135*61
$PYRTM,2024,124.084126177789,15.193773587928
$GNHDT,341.635,T*2D
$PYRTM,2024,124.084132004514,15.193779414653
$GNGGA,020109.00,3459.41854203,N,12130.17061518,W,2,10,1.0,7.142,M,-37.803,M,7.0,0135*6F
$PYRTM,2024,124.084132004514,15.193779414653
$GNHDT,341.566,T*28
$PYRTM,2024,124.084137743368,15.193785153507
$GNGGA,020109.50,3459.41915456,N,12130.17093730,W,2,10,1.0,6.719,M,-37.803,M,7.4,0135*60
$PYRTM,2024,124.084137743368,15.193785153507
$GNHDT,341.123,T*2D
$PYRTM,2024,124.084143578542,15.193790988681
$GNGGA,020110.00,3459.41965550,N,12130.17121373,W,2,10,1.0,6.769,M,-37.803,M,7.0,0135*65
$PYRTM,2024,124.084143578542,15.193790988681
$GNHDT,340.721,T*28
$PYRTM,2024,124.084149314792,15.193796724931
$GNGGA,020110.50,3459.42008210,N,12130.17141817,W,2,10,1.0,7.301,M,-37.803,M,7.4,0135*62
$PYRTM,2024,124.084149314792,15.193796724931
$GNHDT,340.659,T*26
$PYRTM,2024,124.084155156725,15.193802566863
$GNGGA,020111.00,3459.42050729,N,12130.17152913,W,2,10,1.0,7.958,M,-37.803,M,4.0,0135*62
$PYRTM,2024,124.084155156725,15.193802566863
$GNHDT,340.530,T*2A
$PYRTM,2024,124.084160890729,15.193808300868
$GNGGA,020111.50,3459.42103277,N,12130.17158339,W,2,10,1.0,8.409,M,-37.803,M,4.4,0135*64
$PYRTM,2024,124.084160890729,15.193808300868
$GNHDT,340.519,T*21
$PYRTM,2024,124.084166729514,15.193814139653
$GNGGA,020112.00,3459.42168221,N,12130.17165638,W,2,10,1.0,8.408,M,-37.803,M,5.0,0135*62
$PYRTM,2024,124.084166729514,15.193814139653
$GNHDT,340.619,T*22
$PYRTM,2024,124.084172468426,15.193819878565
$GNGGA,020112.50,3459.42238743,N,12130.17181806,W,2,10,1.0,8.134,M,-37.803,M,5.4,0135*67
$PYRTM,2024,124.084172468426,15.193819878565
$GNHDT,341.081,T*24
$PYRTM,2024,124.084178299838,15.193825709977
$GNGGA,020113.00,3459.42306683,N,12130.17208372,W,2,10,1.0,7.687,M,-37.803,M,6.0,0135*6F
$PYRTM,2024,124.084178299838,15.193825709977
$GNHDT,340.728,T*21
$PYRTM,2024,124.084184033345,15.193831443484
$GNGGA,020113.50,3459.42365290,N,12130.17236632,W,2,10,1.0,7.406,M,-37.803,M,6.4,0135*6A
$PYRTM,2024,124.084184033345,15.193831443484
$GNHDT,340.319,T*27
$PYRTM,2024,124.084189875683,15.193837285822
$GNGGA,020114.00,3459.42411020,N,12130.17257234,W,2,10,1.0,7.394,M,-37.803,M,7.0,0135*69
$PYRTM,2024,124.084189875683,15.193837285822
$GNHDT,340.146,T*2F
$PYRTM,2024,124.084195611771,15.193843021910
$GNGGA,020114.50,3459.42453682,N,12130.17272700,W,2,10,1.0,7.596,M,-37.803,M,7.4,0135*61
$PYRTM,2024,124.084195611771,15.193843021910
$GNHDT,340.341,T*2A
$PYRTM,2024,124.084201447199,15.193848857338
$GNGGA,020115.00,3459.42498376,N,12130.17282115,W,2,10,1.0,7.914,M,-37.803,M,7.0,0135*63
$PYRTM,2024,124.084201447199,15.193848857338
$GNHDT,340.576,T*28
$PYRTM,2024,124.084207185706,15.193854595845
$GNGGA,020115.50,3459.42550946,N,12130.17290617,W,2,10,1.0,8.145,M,-37.803,M,7.4,0135*6B
$PYRTM,2024,124.084207185706,15.193854595845
$GNHDT,340.891,T*2C
$PYRTM,2024,124.084213028692,15.193860438831
$GNGGA,020116.00,3459.42613354,N,12130.17301105,W,2,10,1.0,8.133,M,-37.803,M,7.0,0135*68
$PYRTM,2024,124.084213028692,15.193860438831
$GNHDT,340.851,T*20
$PYRTM,2024,124.084218760417,15.193866170556
$GNGGA,020116.50,3459.42681192,N,12130.17318100,W,2,10,1.0,7.895,M,-37.803,M,7.4,0135*6D
$PYRTM,2024,124.084218760417,15.193866170556
$GNHDT,340.654,T*2B
$PYRTM,2024,124.084224595278,15.193872005428
$GNGGA,020117.00,3459.42750357,N,12130.17339728,W,2,10,1.0,7.604,M,-37.803,M,4.0,0135*61
$PYRTM,2024,124.084224595278,15.193872005428
$GNHDT,340.463,T*2D
$PYRTM,2024,124.084230333438,15.193877743576
$GNGGA,020117.50,3459.42815548,N,12130.17365290,W,2,10,1.0,7.381,M,-37.803,M,4.4,0135*61
$PYRTM,2024,124.084230333438,15.193877743576
$GNHDT,340.605,T*2F
$PYRTM,2024,124.084236179097,15.193883589236
$GNGGA,020118.00,3459.42872599,N,12130.17390665,W,2,10,1.0,7.448,M,-37.803,M,5.0,0135*65
$PYRTM,2024,124.084236179097,15.193883589236
$GNHDT,340.554,T*28
$PYRTM,2024,124.084241903727,15.193889313866
$GNGGA,020118.50,3459.42921393,N,12130.17411644,W,2,10,1.0,7.841,M,-37.803,M,5.4,0135*67
$PYRTM,2024,124.084241903727,15.193889313866
$GNHDT,340.876,T*25
$PYRTM,2024,124.084247745613,15.193895155764
$GNGGA,020119.00,3459.42966945,N,12130.17430081,W,2,10,1.0,8.389,M,-37.803,M,6.0,0135*6A
$PYRTM,2024,124.084247745613,15.193895155764
$GNHDT,340.869,T*2B
$PYRTM,2024,124.084253482014,15.193900892153
$GNGGA,020119.50,3459.43016396,N,12130.17447230,W,2,10,1.0,8.844,M,-37.803,M,6.4,0135*62
$PYRTM,2024,124.084253482014,15.193900892153
$GNHDT,341.386,T*20
$PYRTM,2024,124.084259320081,15.193906730220
$GNGGA,020120.00,3459.43077845,N,12130.17462427,W,2,10,1.0,8.931,M,-37.803,M,7.0,0135*6E
$PYRTM,2024,124.084259320081,15.193906730220
$GNHDT,341.490,T*20
$PYRTM,2024,124.084265059873,15.193912470012
$GNGGA,020120.50,3459.43149896,N,12130.17476655,W,2,10,1.0,8.573,M,-37.803,M,7.4,0135*65
$PYRTM,2024,124.084265059873,15.193912470012
$GNHDT,341.743,T*2D
$PYRTM,2024,124.084270894595,15.193918304734
$GNGGA,020121.00,3459.43222326,N,12130.17490901,W,2,10,1.0,8.090,M,-37.803,M,7.0,0135*65
$PYRTM,2024,124.084270894595,15.193918304734
$GNHDT,341.431,T*2B
$PYRTM,2024,124.084276625752,15.193924035903
$GNGGA,020121.50,3459.43286983,N,12130.17505958,W,2,10,1.0,7.724,M,-37.803,M,7.4,0135*69
$PYRTM,2024,124.084276625752,15.193924035903
$GNHDT,341.671,T*2D
$PYRTM,2024,124.084282469340,15.193929879479
$GNGGA,020122.00,3459.43336748,N,12130.17522124,W,2,10,1.0,7.736,M,-37.803,M,7.0,0135*6D
$PYRTM,2024,124.084282469340,15.193929879479
$GNHDT,342.035,T*28
$PYRTM,2024,124.084288204780,15.193935614919
$GNGGA,020122.50,3459.43377225,N,12130.17537585,W,2,10,1.0,8.144,M,-37.803,M,7.4,0135*60
$PYRTM,2024,124.084288204780,15.193935614919
$GNHDT,342.532,T*2A
$PYRTM,2024,124.084294045718,15.193941455856
$GNGGA,020123.00,3459.43417851,N,12130.17550698,W,2,10,1.0,8.583,M,-37.803,M,4.0,0135*6A
$PYRTM,2024,124.084294045718,15.193941455856
$GNHDT,342.829,T*2D
$PYRTM,2024,124.084299774630,15.193947184780
$GNGGA,020123.50,3459.43469480,N,12130.17559114,W,2,10,1.0,8.837,M,-37.803,M,4.4,0135*6A
$PYRTM,2024,124.084299774630,15.193947184780
$GNHDT,342.915,T*23
$PYRTM,2024,124.084305615706,15.193953025856
$GNGGA,020124.00,3459.43536075,N,12130.17564627,W,2,10,1.0,8.658,M,-37.803,M,5.0,0135*66
$PYRTM,2024,124.084305615706,15.193953025856
$GNHDT,342.774,T*2A
$PYRTM,2024,124.084311352685,15.193958762824
$GNGGA,020124.50,3459.43610092,N,12130.17578144,W,2,10,1.0,8.189,M,-37.803,M,5.4,0135*6D
$PYRTM,2024,124.084311352685,15.193958762824
$GNHDT,342.618,T*21
$PYRTM,2024,124.084317190741,15.193964600880
$GNGGA,020125.00,3459.43680078,N,12130.17601401,W,2,10,1.0,7.711,M,-37.803,M,6.0,0135*62
$PYRTM,2024,124.084317190741,15.193964600880
$GNHDT,342.055,T*2E
$PYRTM,2024,124.084322932442,15.193970342581
$GNGGA,020125.50,3459.43739065,N,12130.17632703,W,2,10,1.0,7.489,M,-37.803,M,6.4,0135*6F
$PYRTM,2024,124.084322932442,15.193970342581
$GNHDT,341.664,T*29
$PYRTM,2024,124.084328767095,15.193976177234
$GNGGA,020126.00,3459.43786735,N,12130.17663145,W,2,10,1.0,7.739,M,-37.803,M,7.0,0135*62
$PYRTM,2024,124.084328767095,15.193976177234
$GNHDT,341.409,T*20
$PYRTM,2024,124.084334509201,15.193981919340
$GNGGA,020126.50,3459.43829896,N,12130.17685233,W,2,10,1.0,8.226,M,-37.803,M,7.4,0135*61
$PYRTM,2024,124.084334509201,15.193981919340
$GNHDT,341.847,T*26
$PYRTM,2024,124.084340343993,15.193987754132
$GNGGA,020127.00,3459.43875176,N,12130.17693598,W,2,10,1.0,8.895,M,-37.803,M,7.0,0135*6C
$PYRTM,2024,124.084340343993,15.193987754132
$GNHDT,342.479,T*24
$PYRTM,2024,124.084346074178,15.193993484317
$GNGGA,020127.50,3459.43931308,N,12130.17694901,W,2,10,1.0,9.415,M,-37.803,M,7.4,0135*69
$PYRTM,2024,124.084346074178,15.193993484317
$GNHDT,342.783,T*22
$PYRTM,2024,124.084351915602,15.193999325741
$GNGGA,020128.00,3459.43998122,N,12130.17691544,W,2,10,1.0,9.596,M,-37.803,M,7.0,0135*6C
$PYRTM,2024,124.084351915602,15.193999325741
$GNHDT,343.096,T*20
$PYRTM,2024,124.084357650683,15.194005060822
$GNGGA,020128.50,3459.44069743,N,12130.17691170,W,2,10,1.0,9.458,M,-37.803,M,7.4,0135*6C
$PYRTM,2024,124.084357650683,15.194005060822
$GNHDT,342.853,T*20
$PYRTM,2024,124.084363485521,15.194010895660
$GNGGA,020129.00,3459.44142975,N,12130.17699748,W,2,10,1.0,9.051,M,-37.803,M,4.0,0135*64
$PYRTM,2024,124.084363485521,15.194010895660
$GNHDT,342.533,T*2B
$PYRTM,2024,124.084369223576,15.194016633715
$GNGGA,020129.50,3459.44211288,N,12130.17721400,W,2,10,1.0,8.582,M,-37.803,M,4.4,0135*6E
$PYRTM,2024,124.084369223576,15.194016633715
$GNHDT,342.071,T*28
$PYRTM,2024,124.084375062141,15.194022472280
$GNGGA,020130.00,3459.44270243,N,12130.17754630,W,2,10,1.0,8.302,M,-37.803,M,5.0,0135*6B
$PYRTM,2024,124.084375062141,15.194022472280
$GNHDT,342.097,T*20
$PYRTM,2024,124.084380793715,15.194028203854
$GNGGA,020130.50,3459.44317808,N,12130.17792664,W,2,10,1.0,8.358,M,-37.803,M,5.4,0135*6B
$PYRTM,2024,124.084380793715,15.194028203854
$GNHDT,341.846,T*27
$PYRTM,2024,124.084386633391,15.194034043530
$GNGGA,020131.00,3459.44361898,N,12130.17828127,W,2,10,1.0,8.661,M,-37.803,M,6.0,0135*61
$PYRTM,2024,124.084386633391,15.194034043530
$GNHDT,341.873,T*21
$PYRTM,2024,124.084392373137,15.194039783275
$GNGGA,020131.50,3459.44408993,N,12130.17854348,W,2,10,1.0,8.990,M,-37.803,M,6.4,0135*63
$PYRTM,2024,124.084392373137,15.194039783275
$GNHDT,341.990,T*2D
$PYRTM,2024,124.084398207662,15.194045617801
$GNGGA,020132.00,3459.44469588,N,12130.17870820,W,2,10,1.0,9.092,M,-37.803,M,7.0,0135*68
$PYRTM,2024,124.084398207662,15.194045617801
$GNHDT,341.683,T*20
$PYRTM,2024,124.084403952280,15.194051362419
$GNGGA,020132.50,3459.44545198,N,12130.17878749,W,2,10,1.0,8.819,M,-37.803,M,7.4,0135*61
$PYRTM,2024,124.084403952280,15.194051362419
$GNHDT,341.197,T*22
$PYRTM,2024,124.084409784861,15.194057195000
$GNGGA,020133.00,3459.44625208,N,12130.17885167,W,2,10,1.0,8.325,M,-37.803,M,7.0,0135*62
$PYRTM,2024,124.084409784861,15.194057195000
$GNHDT,340.902,T*27
$PYRTM,2024,124.084415515856,15.194062925995
$GNGGA,020133.50,3459.44699652,N,12130.17894583,W,2,10,1.0,7.946,M,-37.803,M,7.4,0135*61
$PYRTM,2024,124.084415515856,15.194062925995
$GNHDT,340.613,T*28
$PYRTM,2024,124.084421355752,15.194068765903
$GNGGA,020134.00,3459.44763637,N,12130.17911881,W,2,10,1.0,7.854,M,-37.803,M,7.0,0135*61
$PYRTM,2024,124.084421355752,15.194068765903
$GNHDT,340.655,T*2A
$PYRTM,2024,124.084427088854,15.194074498993
$GNGGA,020134.50,3459.44818567,N,12130.17937440,W,2,10,1.0,8.103,M,-37.803,M,7.4,0135*64
$PYRTM,2024,124.084427088854,15.194074498993
$GNHDT,340.467,T*29
$PYRTM,2024,124.084432928970,15.194080339109
$GNGGA,020135.00,3459.44868382,N,12130.17968866,W,2,10,1.0,8.523,M,-37.803,M,4.0,0135*69
$PYRTM,2024,124.084432928970,15.194080339109
$GNHDT,340.244,T*2E
$PYRTM,2024,124.084438667002,15.194086077141
$GNGGA,020135.50,3459.44916777,N,12130.17998983,W,2,10,1.0,8.997,M,-37.803,M,4.4,0135*68
$PYRTM,2024,124.084438667002,15.194086077141
$GNHDT,339.846,T*28
$PYRTM,2024,124.084444511157,15.194091921296
$GNGGA,020136.00,3459.44967446,N,12130.18026497,W,2,10,1.0,9.279,M,-37.803,M,5.0,0135*6D
$PYRTM,2024,124.084444511157,15.194091921296
$GNHDT,339.676,T*25
$PYRTM,2024,124.084450237245,15.194097647384
$GNGGA,020136.50,3459.45024272,N,12130.18049720,W,2,10,1.0,9.303,M,-37.803,M,5.4,0135*68
$PYRTM,2024,124.084450237245,15.194097647384
$GNHDT,340.018,T*25
$PYRTM,2024,124.084456080451,15.194103490590
$GNGGA,020137.00,3459.45088548,N,12130.18069269,W,2,10,1.0,8.999,M,-37.803,M,6.0,0135*61
$PYRTM,2024,124.084456080451,15.194103490590
$GNHDT,340.179,T*23
$PYRTM,2024,124.084461816331,15.194109226470
$GNGGA,020137.50,3459.45156221,N,12130.18082600,W,2,10,1.0,8.513,M,-37.803,M,6.4,0135*6A
$PYRTM,2024,124.084461816331,15.194109226470
$GNHDT,340.229,T*25
$PYRTM,2024,124.084467652257,15.194115062396
$GNGGA,020138.00,3459.45223521,N,12130.18091802,W,2,10,1.0,8.032,M,-37.803,M,7.0,0135*6B
$PYRTM,2024,124.084467652257,15.194115062396
$GNHDT,340.038,T*27
$PYRTM,2024,124.084473385926,15.194120796065
$GNGGA,020138.50,3459.45287330,N,12130.18101767,W,2,10,1.0,7.694,M,-37.803,M,7.4,0135*63
$PYRTM,2024,124.084473385926,15.194120796065
$GNHDT,339.764,T*27
$PYRTM,2024,124.084479227882,15.194126638021
$GNGGA,020139.00,3459.45346588,N,12130.18119291,W,2,10,1.0,7.601,M,-37.803,M,7.0,0135*63
$PYRTM,2024,124.084479227882,15.194126638021
$GNHDT,339.421,T*25
$PYRTM,2024,124.084484961597,15.194132371736
$GNGGA,020139.50,3459.45403606,N,12130.18146129,W,2,10,1.0,7.673,M,-37.803,M,7.4,0135*6E
$PYRTM,2024,124.084484961597,15.194132371736
$GNHDT,338.843,T*2C
$PYRTM,2024,124.084490801424,15.194138211562
$GNGGA,020140.00,3459.45459285,N,12130.18181531,W,2,10,1.0,7.847,M,-37.803,M,7.0,0135*6E
$PYRTM,2024,124.084490801424,15.194138211562
$GNHDT,338.639,T*2F
$PYRTM,2024,124.084496542280,15.194143952419
$GNGGA,020140.50,3459.45514993,N,12130.18221786,W,2,10,1.0,8.077,M,-37.803,M,7.4,0135*68
$PYRTM,2024,124.084496542280,15.194143952419
$GNHDT,338.669,T*2A
$PYRTM,2024,124.084502373252,15.194149783391
$GNGGA,020141.00,3459.45573050,N,12130.18262969,W,2,10,1.0,8.248,M,-37.803,M,4.0,0135*6A
$PYRTM,2024,124.084502373252,15.194149783391
$GNHDT,338.508,T*2E
$PYRTM,2024,124.084508108449,15.194155518588
$GNGGA,020141.50,3459.45636258,N,12130.18298954,W,2,10,1.0,8.300,M,-37.803,M,4.4,0135*65
$PYRTM,2024,124.084508108449,15.194155518588
$GNHDT,338.384,T*2C
$PYRTM,2024,124.084513951076,15.194161361227
$GNGGA,020142.00,3459.45703578,N,12130.18325453,W,2,10,1.0,8.262,M,-37.803,M,5.0,0135*6C
$PYRTM,2024,124.084513951076,15.194161361227
$GNHDT,338.496,T*28
$PYRTM,2024,124.084519683137,15.194167093275
$GNGGA,020142.50,3459.45770895,N,12130.18342683,W,2,10,1.0,8.208,M,-37.803,M,5.4,0135*65
$PYRTM,2024,124.084519683137,15.194167093275
$GNHDT,338.895,T*27
$PYRTM,2024,124.084525529722,15.194172939861
$GNGGA,020143.00,3459.45834995,N,12130.18354199,W,2,10,1.0,8.196,M,-37.803,M,6.0,0135*67
$PYRTM,2024,124.084525529722,15.194172939861
$GNHDT,338.990,T*23
$PYRTM,2024,124.084531258380,15.194178668519
$GNGGA,020143.50,3459.45891511,N,12130.18362230,W,2,10,1.0,8.359,M,-37.803,M,6.4,0135*6D
$PYRTM,2024,124.084531258380,15.194178668519
$GNHDT,339.368,T*2F
$PYRTM,2024,124.084537099583,15.194184509722
$GNGGA,020144.00,3459.45945126,N,12130.18371788,W,2,10,1.0,8.561,M,-37.803,M,7.0,0135*6B
$PYRTM,2024,124.084537099583,15.194184509722
$GNHDT,339.483,T*2D
$PYRTM,2024,124.084542831470,15.194190241609
$GNGGA,020144.50,3459.46002378,N,12130.18385649,W,2,10,1.0,8.684,M,-37.803,M,7.4,0135*65
$PYRTM,2024,124.084542831470,15.194190241609
$GNHDT,339.366,T*21
$PYRTM,2024,124.084548678762,15.194196088912
$GNGGA,020145.00,3459.46068469,N,12130.18408374,W,2,10,1.0,8.514,M,-37.803,M,7.0,0135*6D
$PYRTM,2024,124.084548678762,15.194196088912
$GNHDT,339.293,T*2A
$PYRTM,2024,124.084554408449,15.194201818588
$GNGGA,020145.50,3459.46139623,N,12130.18444627,W,2,10,1.0,8.079,M,-37.803,M,7.4,0135*60
$PYRTM,2024,124.084554408449,15.194201818588
$GNHDT,339.449,T*2B
$PYRTM,2024,124.084560247431,15.194207657569
$GNGGA,020146.00,3459.46210660,N,12130.18491085,W,2,10,1.0,7.534,M,-37.803,M,7.0,0135*68
$PYRTM,2024,124.084560247431,15.194207657569
$GNHDT,339.309,T*28
$PYRTM,2024,124.084565987639,15.194213397778
$GNGGA,020146.50,3459.46275982,N,12130.18539340,W,2,10,1.0,7.228,M,-37.803,M,7.4,0135*6A
$PYRTM,2024,124.084565987639,15.194213397778
$GNHDT,339.255,T*20
$PYRTM,2024,124.084571823125,15.194219233264
$GNGGA,020147.00,3459.46332068,N,12130.18575982,W,2,10,1.0,7.284,M,-37.803,M,4.0,0135*6C
$PYRTM,2024,124.084571823125,15.194219233264
$GNHDT,339.407,T*21
$PYRTM,2024,124.084577555845,15.194224965984
$GNGGA,020147.50,3459.46381174,N,12130.18594602,W,2,10,1.0,7.689,M,-37.803,M,4.4,0135*68
$PYRTM,2024,124.084577555845,15.194224965984
$GNHDT,339.442,T*20
$PYRTM,2024,124.084583402743,15.194230812882
$GNGGA,020148.00,3459.46433610,N,12130.18601442,W,2,10,1.0,8.213,M,-37.803,M,5.0,0135*6D
$PYRTM,2024,124.084583402743,15.194230812882
$GNHDT,339.925,T*2C
$PYRTM,2024,124.084589136181,15.194236546319
$GNGGA,020148.50,3459.46494683,N,12130.18601983,W,2,10,1.0,8.588,M,-37.803,M,5.4,0135*6E
$PYRTM,2024,124.084589136181,15.194236546319
$GNHDT,340.537,T*2D
$PYRTM,2024,124.084594970324,15.194242380463
$GNGGA,020149.00,3459.46564735,N,12130.18607544,W,2,10,1.0,8.612,M,-37.803,M,6.0,0135*6E
$PYRTM,2024,124.084594970324,15.194242380463
$GNHDT,341.088,T*2D
$PYRTM,2024,124.084600700683,15.194248110822
$GNGGA,020149.50,3459.46638187,N,12130.18619222,W,2,10,1.0,8.354,M,-37.803,M,6.4,0135*65
$PYRTM,2024,124.084600700683,15.194248110822
$GNHDT,340.987,T*2A
$PYRTM,2024,124.084606547766,15.194253957905
$GNGGA,020150.00,3459.46709637,N,12130.18642112,W,2,10,1.0,7.877,M,-37.803,M,7.0,0135*69
$PYRTM,2024,124.084606547766,15.194253957905
$GNHDT,341.223,T*2E
$PYRTM,2024,124.084612284352,15.194259694491
$GNGGA,020150.50,3459.46777281,N,12130.18675568,W,2,10,1.0,7.335,M,-37.803,M,7.4,0135*68
$PYRTM,2024,124.084612284352,15.194259694491
$GNHDT,340.781,T*22
$PYRTM,2024,124.084618115914,15.194265526053
$GNGGA,020151.00,3459.46840340,N,12130.18716027,W,2,10,1.0,6.948,M,-37.803,M,7.0,0135*64
$PYRTM,2024,124.084618115914,15.194265526053
$GNHDT,340.703,T*28
$PYRTM,2024,124.084623852454,15.194271262593
$GNGGA,020151.50,3459.46894934,N,12130.18753282,W,2,10,1.0,6.979,M,-37.803,M,7.4,0135*6B
$PYRTM,2024,124.084623852454,15.194271262593
$GNHDT,341.130,T*2F
$PYRTM,2024,124.084629695023,15.194277105162
$GNGGA,020152.00,3459.46943686,N,12130.18779303,W,2,10,1.0,7.414,M,-37.803,M,7.0,0135*63
$PYRTM,2024,124.084629695023,15.194277105162
$GNHDT,341.477,T*29
$PYRTM,2024,124.084635433831,15.194282843981
$GNGGA,020152.50,3459.46990725,N,12130.18793347,W,2,10,1.0,8.041,M,-37.803,M,7.4,0135*6B
$PYRTM,2024,124.084635433831,15.194282843981
$GNHDT,341.993,T*2E
$PYRTM,2024,124.084641265602,15.194288675741
$GNGGA,020153.00,3459.47044424,N,12130.18799837,W,2,10,1.0,8.563,M,-37.803,M,4.0,0135*68
$PYRTM,2024,124.084641265602,15.194288675741
$GNHDT,342.262,T*28
$PYRTM,2024,124.084647001551,15.194294411701
$GNGGA,020153.50,3459.47110086,N,12130.18803789,W,2,10,1.0,8.745,M,-37.803,M,4.4,0135*65
$PYRTM,2024,124.084647001551,15.194294411701
$GNHDT,342.351,T*29
$PYRTM,2024,124.084652839722,15.194300249861
$GNGGA,020154.00,3459.47185597,N,12130.18812430,W,2,10,1.0,8.470,M,-37.803,M,5.0,0135*6F
$PYRTM,2024,124.084652839722,15.194300249861
$GNHDT,342.293,T*26
$PYRTM,2024,124.084658574873,15.194305985012
$GNGGA,020154.50,3459.47263522,N,12130.18830612,W,2,10,1.0,7.828,M,-37.803,M,5.4,0135*67
$PYRTM,2024,124.084658574873,15.194305985012
$GNHDT,342.628,T*22
$PYRTM,2024,124.084664414653,15.194311824792
$GNGGA,020155.00,3459.47340261,N,12130.18855842,W,2,10,1.0,7.155,M,-37.803,M,6.0,0135*6F
$PYRTM,2024,124.084664414653,15.194311824792
$GNHDT,342.605,T*2D
$PYRTM,2024,124.084670147917,15.194317558067
$GNGGA,020155.50,3459.47411313,N,12130.18883902,W,2,10,1.0,6.675,M,-37.803,M,6.4,0135*63
$PYRTM,2024,124.084670147917,15.194317558067
$GNHDT,342.792,T*22
$PYRTM,2024,124.084675985197,15.194323395336
$GNGGA,020156.00,3459.47474524,N,12130.18910160,W,2,10,1.0,6.625,M,-37.803,M,7.0,0135*63
$PYRTM,2024,124.084675985197,15.194323395336
$GNHDT,342.885,T*2B
$PYRTM,2024,124.084681724907,15.194329135046
$GNGGA,020156.50,3459.47528898,N,12130.18928185,W,2,10,1.0,7.088,M,-37.803,M,7.4,0135*60
$PYRTM,2024,124.084681724907,15.194329135046
$GNHDT,343.062,T*2B
$PYRTM,2024,124.084687561042,15.194334971181
$GNGGA,020157.00,3459.47578185,N,12130.18939783,W,2,10,1.0,7.751,M,-37.803,M,7.0,0135*63
$PYRTM,2024,124.084687561042,15.194334971181
$GNHDT,343.169,T*21
$PYRTM,2024,124.084693302060,15.194340712199
$GNGGA,020157.50,3459.47627665,N,12130.18948896,W,2,10,1.0,8.414,M,-37.803,M,7.4,0135*62
$PYRTM,2024,124.084693302060,15.194340712199
$GNHDT,343.568,T*24
$PYRTM,2024,124.084699135139,15.194346545278
$GNGGA,020158.00,3459.47682580,N,12130.18959025,W,2,10,1.0,8.797,M,-37.803,M,7.0,0135*63
$PYRTM,2024,124.084699135139,15.194346545278
$GNHDT,343.886,T*29
$PYRTM,2024,124.084704867072,15.194352277211
$GNGGA,020158.50,3459.47746640,N,12130.18969560,W,2,10,1.0,8.794,M,-37.803,M,7.4,0135*60
$PYRTM,2024,124.084704867072,15.194352277211
$GNHDT,343.624,T*2F
$PYRTM,2024,124.084710717060,15.194358127199
$GNGGA,020159.00,3459.47817340,N,12130.18982493,W,2,10,1.0,8.356,M,-37.803,M,4.0,0135*6F
$PYRTM,2024,124.084710717060,15.194358127199
$GNHDT,344.010,T*29
$PYRTM,2024,124.084716446285,15.194363856424
$GNGGA,020159.50,3459.47889642,N,12130.18997062,W,2,10,1.0,7.654,M,-37.803,M,4.4,0135*68
$PYRTM,2024,124.084716446285,15.194363856424
$GNHDT,343.930,T*25
$PYRTM,2024,124.084722287488,15.194369697627
$GNGGA,020200.00,3459.47959642,N,12130.19014540,W,2,10,1.0,6.944,M,-37.803,M,5.0,0135*62
$PYRTM,2024,124.084722287488,15.194369697627
$GNHDT,343.537,T*2E
$PYRTM,2024,124.084728015729,15.194375425868
$GNGGA,020200.50,3459.48025832,N,12130.19036876,W,2,10,1.0,6.412,M,-37.803,M,5.4,0135*61
$PYRTM,2024,124.084728015729,15.194375425868
$GNHDT,343.343,T*2B
$PYRTM,2024,124.084733857060,15.194381267199
$GNGGA,020201.00,3459.48085416,N,12130.19064387,W,2,10,1.0,6.202,M,-37.803,M,6.0,0135*67
$PYRTM,2024,124.084733857060,15.194381267199
$GNHDT,342.916,T*20
$PYRTM,2024,124.084739601782,15.194387011933
$GNGGA,020201.50,3459.48140750,N,12130.19094328,W,2,10,1.0,6.349,M,-37.803,M,6.4,0135*6B
$PYRTM,2024,124.084739601782,15.194387011933
$GNHDT,342.934,T*20
$PYRTM,2024,124.084745432882,15.194392843032
$GNGGA,020202.00,3459.48193891,N,12130.19123038,W,2,09,1.5,6.658,M,-37.803,M,7.0,0135*63
$PYRTM,2024,124.084745432882,15.194392843032
$GNHDT,343.033,T*2F
$PYRTM,2024,124.084751174340,15.194398584491
$GNGGA,020202.50,3459.48250210,N,12130.19143409,W,2,10,1.5,7.045,M,-37.802,M,7.4,0135*6F
$PYRTM,2024,124.084751174340,15.194398584491
$GNHDT,343.275,T*2F
$PYRTM,2024,124.084757007083,15.194404417234
$GNGGA,020203.00,3459.48313670,N,12130.19152772,W,2,10,1.0,7.338,M,-37.802,M,7.0,0135*68
$PYRTM,2024,124.084757007083,15.194404417234
$GNHDT,343.359,T*20
$PYRTM,2024,124.084762740289,15.194410150428
$GNGGA,020203.50,3459.48385086,N,12130.19155780,W,2,10,1.0,7.484,M,-37.802,M,7.4,0135*63
$PYRTM,2024,124.084762740289,15.194410150428
$GNHDT,343.479,T*25
$PYRTM,2024,124.084768582083,15.194415992222
$GNGGA,020204.00,3459.48457367,N,12130.19159969,W,2,10,1.0,7.482,M,-37.802,M,7.0,0135*62
$PYRTM,2024,124.084768582083,15.194415992222
$GNHDT,343.074,T*2C
$PYRTM,2024,124.084774317975,15.194421728125
$GNGGA,020204.50,3459.48528215,N,12130.19171404,W,2,10,1.0,7.478,M,-37.802,M,7.4,0135*67
$PYRTM,2024,124.084774317975,15.194421728125
$GNHDT,343.340,T*28
$PYRTM,2024,124.084780151840,15.194427561979
$GNGGA,020205.00,3459.48591312,N,12130.19187082,W,2,10,1.0,7.498,M,-37.802,M,4.0,0135*6D
$PYRTM,2024,124.084780151840,15.194427561979
$GNHDT,343.371,T*2A
$PYRTM,2024,124.084785890498,15.194433300637
$GNGGA,020205.50,3459.48649589,N,12130.19204816,W,2,10,1.0,7.581,M,-37.802,M,4.4,0135*6A
$PYRTM,2024,124.084785890498,15.194433300637
$GNHDT,343.315,T*28
$PYRTM,2024,124.084791726701,15.194439136840
$GNGGA,020206.00,3459.48707069,N,12130.19221958,W,2,10,1.0,7.683,M,-37.802,M,5.0,0135*64
$PYRTM,2024,124.084791726701,15.194439136840
$GNHDT,343.447,T*28
$PYRTM,2024,124.084797459884,15.194444870023
$GNGGA,020206.50,3459.48770633,N,12130.19239955,W,2,10,1.0,7.683,M,-37.802,M,5.4,0135*68
$PYRTM,2024,124.084797459884,15.194444870023
$GNHDT,343.500,T*2A
$PYRTM,2024,124.084803301609,15.194450711748
$GNGGA,020207.00,3459.48840864,N,12130.19258145,W,2,10,1.0,7.519,M,-37.802,M,6.0,0135*65
$PYRTM,2024,124.084803301609,15.194450711748
$GNHDT,343.021,T*2C
$PYRTM,2024,124.084809042187,15.194456452326
$GNGGA,020207.50,3459.48912292,N,12130.19278360,W,2,10,1.0,7.295,M,-37.802,M,6.4,0135*65
$PYRTM,2024,124.084809042187,15.194456452326
$GNHDT,342.884,T*2A
$PYRTM,2024,124.084814876817,15.194462286956
$GNGGA,020208.00,3459.48979616,N,12130.19299873,W,2,10,1.0,7.197,M,-37.802,M,7.0,0135*68
$PYRTM,2024,124.084814876817,15.194462286956
$GNHDT,342.565,T*28
$PYRTM,2024,124.084820617407,15.194468027546
$GNGGA,020208.50,3459.49041042,N,12130.19321558,W,2,10,1.0,7.267,M,-37.802,M,7.4,0135*67
$PYRTM,2024,124.084820617407,15.194468027546
$GNHDT,342.243,T*2B
$PYRTM,2024,124.084826451458,15.194473861597
$GNGGA,020209.00,3459.49099681,N,12130.19341260,W,2,10,1.0,7.489,M,-37.802,M,7.0,0135*67
$PYRTM,2024,124.084826451458,15.194473861597
$GNHDT,342.215,T*28
$PYRTM,2024,124.084832183727,15.194479593854
$GNGGA,020209.50,3459.49163096,N,12130.19358191,W,2,10,1.0,7.713,M,-37.802,M,7.4,0135*67
$PYRTM,2024,124.084832183727,15.194479593854
$GNHDT,341.817,T*23
$PYRTM,2024,124.084838021759,15.194485431898
$GNGGA,020210.00,3459.49237906,N,12130.19370049,W,2,10,1.0,7.679,M,-37.802,M,7.0,0135*6F
$PYRTM,2024,124.084838021759,15.194485431898
$GNHDT,341.857,T*27
$PYRTM,2024,124.084843756852,15.194491167002
$GNGGA,020210.50,3459.49319459,N,12130.19383249,W,2,10,1.0,7.399,M,-37.802,M,7.4,0135*61
$PYRTM,2024,124.084843756852,15.194491167002
$GNHDT,341.908,T*2C
$PYRTM,2024,124.084849597014,15.194497007153
$GNGGA,020211.00,3459.49399273,N,12130.19400168,W,2,10,1.0,7.092,M,-37.802,M,4.0,0135*60
$PYRTM,2024,124.084849597014,15.194497007153
$GNHDT,342.053,T*28
$PYRTM,2024,124.084855339039,15.194502749178
$GNGGA,020211.50,3459.49469508,N,12130.19423560,W,2,10,1.0,6.943,M,-37.802,M,4.4,0135*6B
$PYRTM,2024,124.084855339039,15.194502749178
$GNHDT,342.258,T*21
$PYRTM,2024,124.084861170891,15.194508581030
$GNGGA,020212.00,3459.49529115,N,12130.19446180,W,2,10,1.0,7.091,M,-37.802,M,5.0,0135*6B
$PYRTM,2024,124.084861170891,15.194508581030
$GNHDT,342.514,T*2E
$PYRTM,2024,124.084866907859,15.194514317998
$GNGGA,020212.50,3459.49584605,N,12130.19467478,W,2,10,1.0,7.457,M,-37.802,M,5.4,0135*64
$PYRTM,2024,124.084866907859,15.194514317998
$GNHDT,342.316,T*2A
$PYRTM,2024,124.084872744468,15.194520154606
$GNGGA,020213.00,3459.49640467,N,12130.19486638,W,2,10,1.0,7.885,M,-37.802,M,6.0,0135*60
$PYRTM,2024,124.084872744468,15.194520154606
$GNHDT,342.261,T*2B
$PYRTM,2024,124.084878483762,15.194525893900
$GNGGA,020213.50,3459.49705166,N,12130.19504736,W,2,10,1.0,8.148,M,-37.802,M,6.4,0135*66
$PYRTM,2024,124.084878483762,15.194525893900
$GNHDT,342.043,T*29
$PYRTM,2024,124.084884322384,15.194531732523
$GNGGA,020214.00,3459.49780218,N,12130.19526444,W,2,10,1.0,8.125,M,-37.802,M,7.0,0135*6B
$PYRTM,2024,124.084884322384,15.194531732523
$GNHDT,341.652,T*2C
$PYRTM,2024,124.084890054282,15.194537464421
$GNGGA,020214.50,3459.49858312,N,12130.19550477,W,2,10,1.0,7.883,M,-37.802,M,7.4,0135*60
$PYRTM,2024,124.084890054282,15.194537464421
$GNHDT,341.087,T*22
$PYRTM,2024,124.084895895498,15.194543305637
$GNGGA,020215.00,3459.49933309,N,12130.19575684,W,2,10,1.0,7.554,M,-37.802,M,7.0,0135*68
$PYRTM,2024,124.084895895498,15.194543305637
$GNHDT,340.586,T*27
$PYRTM,2024,124.084901630440,15.194549040579
$GNGGA,020215.50,3459.50000436,N,12130.19603356,W,2,10,1.0,7.304,M,-37.802,M,7.4,0135*68
$PYRTM,2024,124.084901630440,15.194549040579
$GNHDT,340.376,T*2E
$PYRTM,2024,124.084907470405,15.194554880544
$GNGGA,020216.00,3459.50058609,N,12130.19628737,W,2,10,1.0,7.318,M,-37.802,M,7.0,0135*6E
$PYRTM,2024,124.084907470405,15.194554880544
$GNHDT,340.376,T*2E
$PYRTM,2024,124.084913209896,15.194560620035
$GNGGA,020216.50,3459.50114194,N,12130.19647318,W,2,10,1.0,7.520,M,-37.802,M,7.4,0135*68
$PYRTM,2024,124.084913209896,15.194560620035
$GNHDT,340.754,T*2A
$PYRTM,2024,124.084919044653,15.194566454792
$GNGGA,020217.00,3459.50172593,N,12130.19655107,W,2,10,1.0,7.803,M,-37.802,M,4.0,0135*6B
$PYRTM,2024,124.084919044653,15.194566454792
$GNHDT,341.218,T*26
$PYRTM,2024,124.084924778738,15.194572188877
$GNGGA,020217.50,3459.50241674,N,12130.19660106,W,2,10,1.0,7.944,M,-37.802,M,4.4,0135*66
$PYRTM,2024,124.084924778738,15.194572188877
$GNHDT,341.367,T*2F
$PYRTM,2024,124.084930615012,15.194578025150
$GNGGA,020218.00,3459.50317555,N,12130.19667749,W,2,10,1.0,7.919,M,-37.802,M,5.0,0135*69
$PYRTM,2024,124.084930615012,15.194578025150
$GNHDT,341.245,T*2E
$PYRTM,2024,124.084936351655,15.194583761794
$GNGGA,020218.50,3459.50397665,N,12130.19684593,W,2,10,1.0,7.714,M,-37.802,M,5.4,0135*6B
$PYRTM,2024,124.084936351655,15.194583761794
$GNHDT,340.557,T*2B
$PYRTM,2024,124.084942189884,15.194589600023
$GNGGA,020219.00,3459.50475542,N,12130.19710391,W,2,10,1.0,7.475,M,-37.802,M,6.0,0135*69
$PYRTM,2024,124.084942189884,15.194589600023
$GNHDT,340.492,T*23
$PYRTM,2024,124.084947928727,15.194595338866
$GNGGA,020219.50,3459.50544381,N,12130.19739773,W,2,10,1.0,7.395,M,-37.802,M,6.4,0135*68
$PYRTM,2024,124.084947928727,15.194595338866
$GNHDT,340.512,T*2A
$PYRTM,2024,124.084953767627,15.194601177766
$GNGGA,020220.00,3459.50603056,N,12130.19768624,W,2,10,1.0,7.635,M,-37.802,M,7.0,0135*63
$PYRTM,2024,124.084953767627,15.194601177766
$GNHDT,340.342,T*29
$PYRTM,2024,124.084959497257,15.194606907396
$GNGGA,020220.50,3459.50658995,N,12130.19799537,W,2,10,1.0,8.070,M,-37.802,M,7.4,0135*6D
$PYRTM,2024,124.084959497257,15.194606907396
$GNHDT,340.210,T*2F
$PYRTM,2024,124.084965337025,15.194612747164
$GNGGA,020221.00,3459.50716940,N,12130.19825655,W,2,10,1.0,8.567,M,-37.802,M,7.0,0135*62
$PYRTM,2024,124.084965337025,15.194612747164
$GNHDT,339.864,T*28
$PYRTM,2024,124.084971076447,15.194618486586
$GNGGA,020221.50,3459.50782648,N,12130.19841649,W,2,10,1.0,8.931,M,-37.802,M,7.4,0135*69
$PYRTM,2024,124.084971076447,15.194618486586
$GNHDT,339.828,T*20
$PYRTM,2024,124.084976912025,15.194624322164
$GNGGA,020222.00,3459.50857260,N,12130.19851889,W,2,10,1.0,9.035,M,-37.802,M,7.0,0135*6D
$PYRTM,2024,124.084976912025,15.194624322164
$GNHDT,339.675,T*26
$PYRTM,2024,124.084982650683,15.194630060822
$GNGGA,020222.50,3459.50934134,N,12130.19859812,W,2,10,1.0,8.935,M,-37.802,M,7.4,0135*68
$PYRTM,2024,124.084982650683,15.194630060822
$GNHDT,339.653,T*22
$PYRTM,2024,124.084988486898,15.194635897049
$GNGGA,020223.00,3459.51008562,N,12130.19868667,W,2,10,1.0,8.715,M,-37.802,M,4.0,0135*69
$PYRTM,2024,124.084988486898,15.194635897049
$GNHDT,339.903,T*28
$PYRTM,2024,124.084994219618,15.194641629757
$GNGGA,020223.50,3459.51078454,N,12130.19882306,W,2,10,1.0,8.490,M,-37.802,M,4.4,0135*63
$PYRTM,2024,124.084994219618,15.194641629757
$GNHDT,340.525,T*2E
$PYRTM,2024,124.085000062581,15.194647472720
$GNGGA,020224.00,3459.51146955,N,12130.19906533,W,2,10,1.0,8.215,M,-37.802,M,5.0,0135*62
$PYRTM,2024,124.085000062581,15.194647472720
$GNHDT,340.526,T*2D
$PYRTM,2024,124.085005797407,15.194653207546
$GNGGA,020224.50,3459.51216443,N,12130.19942718,W,2,10,1.0,7.915,M,-37.802,M,5.4,0135*60
$PYRTM,2024,124.085005797407,15.194653207546
$GNHDT,340.129,T*26
$PYRTM,2024,124.085011634132,15.194659044271
$GNGGA,020225.00,3459.51285776,N,12130.19984123,W,2,10,1.0,7.646,M,-37.802,M,6.0,0135*61
$PYRTM,2024,124.085011634132,15.194659044271
$GNHDT,339.821,T*29
$PYRTM,2024,124.085017371042,15.194664781192
$GNGGA,020225.50,3459.51354546,N,12130.20026505,W,2,10,1.0,7.491,M,-37.802,M,6.4,0135*6F
$PYRTM,2024,124.085017371042,15.194664781192
$GNHDT,339.671,T*22
$PYRTM,2024,124.085023210231,15.194670620370
$GNGGA,020226.00,3459.51419715,N,12130.20063254,W,2,10,1.0,7.572,M,-37.802,M,7.0,0135*68
$PYRTM,2024,124.085023210231,15.194670620370
$GNHDT,339.950,T*2E
$PYRTM,2024,124.085028945868,15.194676356007
$GNGGA,020226.50,3459.51481378,N,12130.20087213,W,2,10,1.0,7.901,M,-37.802,M,7.4,0135*66
$PYRTM,2024,124.085028945868,15.194676356007
$GNHDT,340.097,T*22
$PYRTM,2024,124.085034791250,15.194682201389
$GNGGA,020227.00,3459.51544765,N,12130.20100416,W,2,10,1.0,8.282,M,-37.802,M,7.0,0135*64
$PYRTM,2024,124.085034791250,15.194682201389
$GNHDT,340.327,T*2A
$PYRTM,2024,124.085040517118,15.194687927257
$GNGGA,020227.50,3459.51612432,N,12130.20102897,W,2,10,1.0,8.573,M,-37.802,M,7.4,0135*6A
$PYRTM,2024,124.085040517118,15.194687927257
$GNHDT,340.820,T*26
$PYRTM,2024,124.085046356551,15.194693766690
$GNGGA,020228.00,3459.51687931,N,12130.20107280,W,2,10,1.0,8.530,M,-37.802,M,7.0,0135*68
$PYRTM,2024,124.085046356551,15.194693766690
$GNHDT,340.824,T*22
$PYRTM,2024,124.085052096817,15.194699506956
$GNGGA,020228.50,3459.51766337,N,12130.20119203,W,2,10,1.0,8.269,M,-37.802,M,7.4,0135*64
$PYRTM,2024,124.085052096817,15.194699506956
$GNHDT,341.250,T*2A
$PYRTM,2024,124.085057929363,15.194705339502
