$PYRTM,2024,123.500000421111,14.609647831285
$GNGGA,120000.00,3416.30096408,N,12039.10826987,W,2,12,0.8,6.840,M,-37.363,M,5.0,0135*60
$PYRTM,2024,123.500000421111,14.609647831285
$GNHDT,300.931,T*23
$PYRTM,2024,123.500006148449,14.609653558588
$GNGGA,120000.50,3416.30114493,N,12039.10888835,W,2,12,0.8,6.531,M,-37.363,M,5.4,0135*6F
$PYRTM,2024,123.500006148449,14.609653558588
$GNHDT,301.111,T*28
$PYRTM,2024,123.500011991736,14.609659401875
$GNGGA,120001.00,3416.30138216,N,12039.10947685,W,2,12,0.8,6.482,M,-37.363,M,6.0,0135*67
$PYRTM,2024,123.500011991736,14.609659401875
$GNHDT,301.610,T*2E
$PYRTM,2024,123.500017718715,14.609665128854
$GNGGA,120001.50,3416.30165997,N,12039.11009314,W,2,12,0.8,6.557,M,-37.363,M,6.4,0135*6A
$PYRTM,2024,123.500017718715,14.609665128854
$GNHDT,302.134,T*2C
$PYRTM,2024,123.500023572095,14.609670982234
$GNGGA,120002.00,3416.30195462,N,12039.11075448,W,2,12,0.8,6.721,M,-37.363,M,7.0,0135*67
$PYRTM,2024,123.500023572095,14.609670982234
$GNHDT,302.172,T*2E
$PYRTM,2024,123.500029294525,14.609676704664
$GNGGA,120002.50,3416.30223155,N,12039.11149953,W,2,12,0.8,6.933,M,-37.363,M,7.4,0135*6D
$PYRTM,2024,123.500029294525,14.609676704664
$GNHDT,301.886,T*2F
$PYRTM,2024,123.500035145718,14.609682555856
$GNGGA,120003.00,3416.30245996,N,12039.11232599,W,2,12,0.8,7.163,M,-37.363,M,7.0,0135*63
$PYRTM,2024,123.500035145718,14.609682555856
$GNHDT,301.712,T*2D
$PYRTM,2024,123.500040868981,14.609688279120
$GNGGA,120003.50,3416.30263111,N,12039.11322330,W,2,12,0.8,7.370,M,-37.363,M,7.4,0135*64
$PYRTM,2024,123.500040868981,14.609688279120
$GNHDT,301.533,T*2C
$PYRTM,2024,123.500046713125,14.609694123264
$GNGGA,120004.00,3416.30275403,N,12039.11414907,W,2,12,0.8,7.538,M,-37.363,M,7.0,0135*65
$PYRTM,2024,123.500046713125,14.609694123264
$GNHDT,301.652,T*28
$PYRTM,2024,123.500052445671,14.609699855810
$GNGGA,120004.50,3416.30286850,N,12039.11502791,W,2,12,0.8,7.702,M,-37.363,M,7.4,0135*6E
$PYRTM,2024,123.500052445671,14.609699855810
$GNHDT,301.956,T*23
$PYRTM,2024,123.500058291806,14.609705701944
$GNGGA,120005.00,3416.30299833,N,12039.11581340,W,2,12,0.8,7.919,M,-37.363,M,4.0,0135*61
$PYRTM,2024,123.500058291806,14.609705701944
$GNHDT,302.000,T*2A
$PYRTM,2024,123.500064013252,14.609711423403
$GNGGA,120005.50,3416.30315887,N,12039.11649614,W,2,12,0.8,8.194,M,-37.363,M,4.4,0135*6B
$PYRTM,2024,123.500064013252,14.609711423403
$GNHDT,302.232,T*29
$PYRTM,2024,123.500069862303,14.609717272442
$GNGGA,120006.00,3416.30333327,N,12039.11708838,W,2,12,0.8,8.544,M,-37.363,M,5.0,0135*60
$PYRTM,2024,123.500069862303,14.609717272442
$GNHDT,302.249,T*25
$PYRTM,2024,123.500075590764,14.609723000903
$GNGGA,120006.50,3416.30350377,N,12039.11763865,W,2,12,0.8,8.878,M,-37.363,M,5.4,0135*66
$PYRTM,2024,123.500075590764,14.609723000903
$GNHDT,302.013,T*28
$PYRTM,2024,123.500081437176,14.609728847315
$GNGGA,120007.00,3416.30367669,N,12039.11820181,W,2,12,0.8,9.029,M,-37.363,M,6.0,0135*6D
$PYRTM,2024,123.500081437176,14.609728847315
$GNHDT,301.975,T*22
$PYRTM,2024,123.500087171817,14.609734581956
$GNGGA,120007.50,3416.30387147,N,12039.11885487,W,2,12,0.8,8.806,M,-37.363,M,6.4,0135*61
$PYRTM,2024,123.500087171817,14.609734581956
$GNHDT,301.666,T*2F
$PYRTM,2024,123.500093019942,14.609740430081
$GNGGA,120008.00,3416.30409259,N,12039.11960604,W,2,12,0.8,8.166,M,-37.363,M,7.0,0135*6F
$PYRTM,2024,123.500093019942,14.609740430081
$GNHDT,302.072,T*2F
$PYRTM,2024,123.500098752211,14.609746162350
$GNGGA,120008.50,3416.30432816,N,12039.12040487,W,2,12,0.8,7.304,M,-37.363,M,7.4,0135*6F
$PYRTM,2024,123.500098752211,14.609746162350
$GNHDT,302.427,T*2B
$PYRTM,2024,123.500104591539,14.609752001690
$GNGGA,120009.00,3416.30458337,N,12039.12121690,W,2,12,0.8,6.411,M,-37.363,M,7.0,0135*6B
$PYRTM,2024,123.500104591539,14.609752001690
$GNHDT,303.030,T*28
$PYRTM,2024,123.500110309780,14.609757719919
$GNGGA,120009.50,3416.30484876,N,12039.12200760,W,2,12,0.8,5.757,M,-37.363,M,7.4,0135*69
$PYRTM,2024,123.500110309780,14.609757719919
$GNHDT,303.079,T*25
$PYRTM,2024,123.500116157894,14.609763568032
$GNGGA,120010.00,3416.30509363,N,12039.12275064,W,2,12,0.8,5.557,M,-37.363,M,7.0,0135*68
$PYRTM,2024,123.500116157894,14.609763568032
$GNHDT,303.227,T*2C
$PYRTM,2024,123.500121888310,14.609769298449
$GNGGA,120010.50,3416.30529295,N,12039.12348507,W,2,12,0.8,5.827,M,-37.363,M,7.4,0135*66
$PYRTM,2024,123.500121888310,14.609769298449
$GNHDT,303.151,T*2E
$PYRTM,2024,123.500127737975,14.609775148113
$GNGGA,120011.00,3416.30543925,N,12039.12421461,W,2,12,0.8,6.490,M,-37.363,M,4.0,0135*63
$PYRTM,2024,123.500127737975,14.609775148113
$GNHDT,302.858,T*2F
$PYRTM,2024,123.500133463206,14.609780873345
$GNGGA,120011.50,3416.30556088,N,12039.12496398,W,2,12,0.8,7.247,M,-37.363,M,4.4,0135*68
$PYRTM,2024,123.500133463206,14.609780873345
$GNHDT,302.470,T*29
$PYRTM,2024,123.500139307789,14.609786717928
$GNGGA,120012.00,3416.30572455,N,12039.12573904,W,2,12,0.8,7.935,M,-37.363,M,5.0,0135*62
$PYRTM,2024,123.500139307789,14.609786717928
$GNHDT,302.248,T*24
$PYRTM,2024,123.500145031944,14.609792442083
$GNGGA,120012.50,3416.30596988,N,12039.12655630,W,2,12,0.8,8.321,M,-37.363,M,5.4,0135*6B
$PYRTM,2024,123.500145031944,14.609792442083
$GNHDT,302.056,T*29
$PYRTM,2024,123.500150885463,14.609798295602
$GNGGA,120013.00,3416.30625550,N,12039.12736827,W,2,12,0.8,8.443,M,-37.363,M,6.0,0135*65
$PYRTM,2024,123.500150885463,14.609798295602
$GNHDT,302.181,T*22
$PYRTM,2024,123.500156615208,14.609804025347
$GNGGA,120013.50,3416.30651731,N,12039.12814509,W,2,12,0.8,8.391,M,-37.364,M,6.4,0135*63
$PYRTM,2024,123.500156615208,14.609804025347
$GNHDT,301.825,T*26
$PYRTM,2024,123.500162455405,14.609809865544
$GNGGA,120014.00,3416.30673250,N,12039.12889604,W,2,12,0.8,8.279,M,-37.364,M,7.0,0135*6B
$PYRTM,2024,123.500162455405,14.609809865544
$GNHDT,301.651,T*2B
$PYRTM,2024,123.500168180544,14.609815590683
$GNGGA,120014.50,3416.30688422,N,12039.12963798,W,2,12,0.8,8.174,M,-37.364,M,7.4,0135*62
$PYRTM,2024,123.500168180544,14.609815590683
$GNHDT,301.692,T*24
$PYRTM,2024,123.500174034491,14.609821444630
$GNGGA,120015.00,3416.30699694,N,12039.13038407,W,2,12,0.8,8.104,M,-37.364,M,7.0,0135*69
$PYRTM,2024,123.500174034491,14.609821444630
$GNHDT,302.154,T*2A
$PYRTM,2024,123.500179757384,14.609827167523
$GNGGA,120015.50,3416.30711396,N,12039.13115034,W,2,12,0.8,8.005,M,-37.364,M,7.4,0135*64
$PYRTM,2024,123.500179757384,14.609827167523
$GNHDT,302.259,T*24
$PYRTM,2024,123.500185602025,14.609833012164
$GNGGA,120016.00,3416.30725462,N,12039.13192576,W,2,12,0.8,7.891,M,-37.364,M,7.0,0135*6B
$PYRTM,2024,123.500185602025,14.609833012164
$GNHDT,302.435,T*28
$PYRTM,2024,123.500191328380,14.609838738519
$GNGGA,120016.50,3416.30744625,N,12039.13265862,W,2,12,0.8,7.768,M,-37.364,M,7.4,0135*66
$PYRTM,2024,123.500191328380,14.609838738519
$GNHDT,302.994,T*2E
$PYRTM,2024,123.500197181968,14.609844592106
$GNGGA,120017.00,3416.30768895,N,12039.13333701,W,2,12,0.8,7.653,M,-37.364,M,4.0,0135*6F
$PYRTM,2024,123.500197181968,14.609844592106
$GNHDT,303.401,T*2E
$PYRTM,2024,123.500202904931,14.609850315069
$GNGGA,120017.50,3416.30798673,N,12039.13398664,W,2,12,0.8,7.559,M,-37.364,M,4.4,0135*6D
$PYRTM,2024,123.500202904931,14.609850315069
$GNHDT,303.394,T*25
$PYRTM,2024,123.500208749259,14.609856159410
$GNGGA,120018.00,3416.30833534,N,12039.13463791,W,2,12,0.8,7.446,M,-37.364,M,5.0,0135*6B
$PYRTM,2024,123.500208749259,14.609856159410
$GNHDT,303.568,T*20
$PYRTM,2024,123.500214483125,14.609861893264
$GNGGA,120018.50,3416.30872351,N,12039.13536543,W,2,12,0.8,7.253,M,-37.364,M,5.4,0135*64
$PYRTM,2024,123.500214483125,14.609861893264
$GNHDT,303.946,T*20
$PYRTM,2024,123.500220328380,14.609867738519
$GNGGA,120019.00,3416.30911464,N,12039.13620167,W,2,12,0.8,6.990,M,-37.364,M,6.0,0135*61
$PYRTM,2024,123.500220328380,14.609867738519
$GNHDT,303.624,T*2B
$PYRTM,2024,123.500226054028,14.609873464167
$GNGGA,120019.50,3416.30944034,N,12039.13708485,W,2,12,0.8,6.823,M,-37.364,M,6.4,0135*6A
$PYRTM,2024,123.500226054028,14.609873464167
$GNHDT,303.408,T*27
$PYRTM,2024,123.500231904028,14.609879314167
$GNGGA,120020.00,3416.30964778,N,12039.13797799,W,2,12,0.8,6.902,M,-37.364,M,7.0,0135*67
$PYRTM,2024,123.500231904028,14.609879314167
$GNHDT,303.318,T*21
$PYRTM,2024,123.500237629375,14.609885039514
$GNGGA,120020.50,3416.30976093,N,12039.13885280,W,2,12,0.8,7.184,M,-37.364,M,7.4,0135*61
$PYRTM,2024,123.500237629375,14.609885039514
$GNHDT,302.821,T*21
$PYRTM,2024,123.500243474479,14.609890884618
$GNGGA,120021.00,3416.30982686,N,12039.13971283,W,2,12,0.8,7.566,M,-37.364,M,7.0,0135*69
$PYRTM,2024,123.500243474479,14.609890884618
$GNHDT,302.859,T*2E
$PYRTM,2024,123.500249204896,14.609896615035
$GNGGA,120021.50,3416.30997291,N,12039.14055637,W,2,12,0.8,7.822,M,-37.364,M,7.4,0135*60
$PYRTM,2024,123.500249204896,14.609896615035
$GNHDT,303.060,T*2D
$PYRTM,2024,123.500255047847,14.609902457986
$GNGGA,120022.00,3416.31025558,N,12039.14137222,W,2,12,0.8,7.814,M,-37.364,M,7.0,0135*61
$PYRTM,2024,123.500255047847,14.609902457986
$GNHDT,302.980,T*2B
$PYRTM,2024,123.500260774896,14.609908185035
$GNGGA,120022.50,3416.31062405,N,12039.14213137,W,2,12,0.8,7.693,M,-37.364,M,7.4,0135*69
$PYRTM,2024,123.500260774896,14.609908185035
$GNHDT,303.261,T*2E
$PYRTM,2024,123.500266627188,14.609914037326
$GNGGA,120023.00,3416.31099622,N,12039.14279606,W,2,12,0.8,7.627,M,-37.364,M,4.0,0135*6F
$PYRTM,2024,123.500266627188,14.609914037326
$GNHDT,303.291,T*21
$PYRTM,2024,123.500272355174,14.609919765312
$GNGGA,120023.50,3416.31129241,N,12039.14336870,W,2,12,0.8,7.786,M,-37.364,M,4.4,0135*6A
$PYRTM,2024,123.500272355174,14.609919765312
$GNHDT,303.055,T*2B
$PYRTM,2024,123.500278196794,14.609925606933
$GNGGA,120024.00,3416.31149456,N,12039.14390629,W,2,12,0.8,8.165,M,-37.364,M,5.0,0135*61
$PYRTM,2024,123.500278196794,14.609925606933
$GNHDT,302.827,T*27
$PYRTM,2024,123.500283925417,14.609931335556
$GNGGA,120024.50,3416.31160649,N,12039.14448319,W,2,12,0.8,8.608,M,-37.364,M,5.4,0135*6F
$PYRTM,2024,123.500283925417,14.609931335556
$GNHDT,302.797,T*23
$PYRTM,2024,123.500289769884,14.609937180023
$GNGGA,120025.00,3416.31168127,N,12039.14521465,W,2,12,0.8,8.758,M,-37.364,M,6.0,0135*6D
$PYRTM,2024,123.500289769884,14.609937180023
$GNHDT,302.615,T*28
$PYRTM,2024,123.500295504653,14.609942914803
$GNGGA,120025.50,3416.31179511,N,12039.14610147,W,2,12,0.8,8.387,M,-37.364,M,6.4,0135*6F
$PYRTM,2024,123.500295504653,14.609942914803
$GNHDT,302.642,T*2A
$PYRTM,2024,123.500301357650,14.609948767789
$GNGGA,120026.00,3416.31197542,N,12039.14707789,W,2,13,0.7,7.535,M,-37.364,M,7.0,0135*67
$PYRTM,2024,123.500301357650,14.609948767789
$GNHDT,302.782,T*27
$PYRTM,2024,123.500307081586,14.609954491725
$GNGGA,120026.50,3416.31220637,N,12039.14802202,W,2,13,0.7,6.548,M,-37.364,M,7.4,0135*6F
$PYRTM,2024,123.500307081586,14.609954491725
$GNHDT,303.064,T*29
$PYRTM,2024,123.500312919792,14.609960329931
$GNGGA,120027.00,3416.31246180,N,12039.14883478,W,2,13,0.7,5.817,M,-37.364,M,7.0,0135*62
$PYRTM,2024,123.500312919792,14.609960329931
$GNHDT,303.043,T*2C
$PYRTM,2024,123.500318659734,14.609966069873
$GNGGA,120027.50,3416.31272446,N,12039.14948337,W,2,13,0.7,5.598,M,-37.364,M,7.4,0135*6B
$PYRTM,2024,123.500318659734,14.609966069873
$GNHDT,303.401,T*2E
$PYRTM,2024,123.500324509525,14.609971919664
$GNGGA,120028.00,3416.31298435,N,12039.14999558,W,2,13,0.7,5.949,M,-37.364,M,7.0,0135*66
$PYRTM,2024,123.500324509525,14.609971919664
$GNHDT,303.641,T*28
$PYRTM,2024,123.500330241053,14.609977651192
$GNGGA,120028.50,3416.31325958,N,12039.15048900,W,2,13,0.7,6.638,M,-37.364,M,7.4,0135*69
$PYRTM,2024,123.500330241053,14.609977651192
$GNHDT,303.347,T*2B
$PYRTM,2024,123.500336073113,14.609983483252
$GNGGA,120029.00,3416.31356682,N,12039.15105769,W,2,13,0.7,7.383,M,-37.364,M,4.0,0135*6B
$PYRTM,2024,123.500336073113,14.609983483252
$GNHDT,303.332,T*29
$PYRTM,2024,123.500341796366,14.609989206505
$GNGGA,120029.50,3416.31388023,N,12039.15178295,W,2,13,0.7,7.936,M,-37.364,M,4.4,0135*6C
$PYRTM,2024,123.500341796366,14.609989206505
$GNHDT,303.608,T*25
$PYRTM,2024,123.500347646667,14.609995056806
$GNGGA,120030.00,3416.31418451,N,12039.15266475,W,2,13,0.7,8.126,M,-37.364,M,5.0,0135*69
$PYRTM,2024,123.500347646667,14.609995056806
$GNHDT,303.317,T*2E
$PYRTM,2024,123.500353377072,14.610000787211
$GNGGA,120030.50,3416.31443794,N,12039.15361729,W,2,13,0.7,7.996,M,-37.364,M,5.4,0135*6C
$PYRTM,2024,123.500353377072,14.610000787211
$GNHDT,302.575,T*2D
$PYRTM,2024,123.500359222338,14.610006632488
$GNGGA,120031.00,3416.31459523,N,12039.15453225,W,2,13,0.7,7.833,M,-37.364,M,6.0,0135*6B
$PYRTM,2024,123.500359222338,14.610006632488
$GNHDT,302.530,T*2C
$PYRTM,2024,123.500364949190,14.610012359329
$GNGGA,120031.50,3416.31466078,N,12039.15532274,W,2,13,0.7,7.859,M,-37.364,M,6.4,0135*63
$PYRTM,2024,123.500364949190,14.610012359329
$GNHDT,302.961,T*24
$PYRTM,2024,123.500370796007,14.610018206146
$GNGGA,120032.00,3416.31468202,N,12039.15595604,W,2,13,0.7,8.182,M,-37.364,M,7.0,0135*6F
$PYRTM,2024,123.500370796007,14.610018206146
$GNHDT,303.139,T*20
$PYRTM,2024,123.500376525486,14.610023935625
$GNGGA,120032.50,3416.31474837,N,12039.15643567,W,2,13,0.7,8.633,M,-37.364,M,7.4,0135*6C
$PYRTM,2024,123.500376525486,14.610023935625
$GNHDT,303.550,T*2B
$PYRTM,2024,123.500382370035,14.610029780185
$GNGGA,120033.00,3416.31492224,N,12039.15684330,W,2,13,0.7,9.027,M,-37.364,M,7.0,0135*61
$PYRTM,2024,123.500382370035,14.610029780185
$GNHDT,303.772,T*29
$PYRTM,2024,123.500388093900,14.610035504039
$GNGGA,120033.50,3416.31521529,N,12039.15730150,W,2,13,0.7,9.054,M,-37.364,M,7.4,0135*6D
$PYRTM,2024,123.500388093900,14.610035504039
$GNHDT,303.352,T*2F
$PYRTM,2024,123.500393940255,14.610041350394
$GNGGA,120034.00,3416.31556828,N,12039.15789184,W,2,13,0.7,8.648,M,-37.364,M,7.0,0135*66
$PYRTM,2024,123.500393940255,14.610041350394
$GNHDT,303.078,T*24
$PYRTM,2024,123.500399670891,14.610047081042
$GNGGA,120034.50,3416.31593694,N,12039.15861409,W,2,13,0.7,7.861,M,-37.364,M,7.4,0135*64
$PYRTM,2024,123.500399670891,14.610047081042
$GNHDT,303.481,T*26
$PYRTM,2024,123.500405521088,14.610052931227
$GNGGA,120035.00,3416.31625374,N,12039.15940985,W,2,13,0.7,6.962,M,-37.364,M,4.0,0135*6A
$PYRTM,2024,123.500405521088,14.610052931227
$GNHDT,303.561,T*29
$PYRTM,2024,123.500411241597,14.610058651736
$GNGGA,120035.50,3416.31649999,N,12039.16020986,W,2,13,0.7,6.319,M,-37.364,M,4.4,0135*61
$PYRTM,2024,123.500411241597,14.610058651736
$GNHDT,303.318,T*21
$PYRTM,2024,123.500417090058,14.610064500197
$GNGGA,120036.00,3416.31668669,N,12039.16096273,W,2,13,0.7,6.095,M,-37.364,M,5.0,0135*6A
$PYRTM,2024,123.500417090058,14.610064500197
$GNHDT,303.538,T*25
$PYRTM,2024,123.500422821273,14.610070231412
$GNGGA,120036.50,3416.31682607,N,12039.16164092,W,2,13,0.7,6.370,M,-37.364,M,5.4,0135*6E
$PYRTM,2024,123.500422821273,14.610070231412
$GNHDT,303.918,T*2B
$PYRTM,2024,123.500428665972,14.610076076111
$GNGGA,120037.00,3416.31697514,N,12039.16223719,W,2,13,0.7,6.986,M,-37.364,M,6.0,0135*6F
$PYRTM,2024,123.500428665972,14.610076076111
$GNHDT,304.063,T*29
$PYRTM,2024,123.500434393796,14.610081803935
$GNGGA,120037.50,3416.31715338,N,12039.16284349,W,2,13,0.7,7.670,M,-37.364,M,6.4,0135*66
$PYRTM,2024,123.500434393796,14.610081803935
$GNHDT,303.619,T*25
$PYRTM,2024,123.500440236238,14.610087646377
$GNGGA,120038.00,3416.31737743,N,12039.16346474,W,2,13,0.7,8.312,M,-37.364,M,7.0,0135*69
$PYRTM,2024,123.500440236238,14.610087646377
$GNHDT,303.705,T*29
$PYRTM,2024,123.500445960370,14.610093370509
$GNGGA,120038.50,3416.31761828,N,12039.16410650,W,2,13,0.7,8.815,M,-37.364,M,7.4,0135*65
$PYRTM,2024,123.500445960370,14.610093370509
$GNHDT,303.863,T*26
$PYRTM,2024,123.500451808125,14.610099218264
$GNGGA,120039.00,3416.31785981,N,12039.16475458,W,2,13,0.7,9.072,M,-37.364,M,7.0,0135*6C
$PYRTM,2024,123.500451808125,14.610099218264
$GNHDT,303.956,T*21
$PYRTM,2024,123.500457542465,14.610104952616
$GNGGA,120039.50,3416.31808782,N,12039.16541632,W,2,13,0.7,9.023,M,-37.364,M,7.4,0135*66
$PYRTM,2024,123.500457542465,14.610104952616
$GNHDT,303.530,T*2D
$PYRTM,2024,123.500463385509,14.610110795660
$GNGGA,120040.00,3416.31829377,N,12039.16610374,W,2,13,0.7,8.641,M,-37.364,M,7.0,0135*67
$PYRTM,2024,123.500463385509,14.610110795660
$GNHDT,303.483,T*24
$PYRTM,2024,123.500469114387,14.610116524537
$GNGGA,120040.50,3416.31846581,N,12039.16683358,W,2,13,0.7,8.043,M,-37.364,M,7.4,0135*60
$PYRTM,2024,123.500469114387,14.610116524537
$GNHDT,303.782,T*26
$PYRTM,2024,123.500474964410,14.610122374549
$GNGGA,120041.00,3416.31862333,N,12039.16756463,W,2,13,0.7,7.385,M,-37.364,M,4.0,0135*6A
$PYRTM,2024,123.500474964410,14.610122374549
$GNHDT,303.831,T*21
$PYRTM,2024,123.500480685671,14.610128095822
$GNGGA,120041.50,3416.31878210,N,12039.16826499,W,2,13,0.7,6.849,M,-37.364,M,4.4,0135*67
$PYRTM,2024,123.500480685671,14.610128095822
$GNHDT,303.943,T*25
$PYRTM,2024,123.500486534711,14.610133944850
$GNGGA,120042.00,3416.31895533,N,12039.16891340,W,2,13,0.7,6.562,M,-37.365,M,5.0,0135*6B
$PYRTM,2024,123.500486534711,14.610133944850
$GNHDT,304.259,T*22
$PYRTM,2024,123.500492261389,14.610139671528
$GNGGA,120042.50,3416.31916511,N,12039.16950390,W,2,13,0.7,6.523,M,-37.365,M,5.4,0135*64
$PYRTM,2024,123.500492261389,14.610139671528
$GNHDT,304.573,T*2D
$PYRTM,2024,123.500498112164,14.610145522303
$GNGGA,120043.00,3416.31941621,N,12039.17007046,W,2,13,0.7,6.704,M,-37.365,M,6.0,0135*60
$PYRTM,2024,123.500498112164,14.610145522303
$GNHDT,304.647,T*29
$PYRTM,2024,123.500503831354,14.610151241493
$GNGGA,120043.50,3416.31968782,N,12039.17069376,W,2,13,0.7,7.021,M,-37.365,M,6.4,0135*6B
$PYRTM,2024,123.500503831354,14.610151241493
$GNHDT,304.774,T*28
$PYRTM,2024,123.500509679988,14.610157090127
$GNGGA,120044.00,3416.31996963,N,12039.17143765,W,2,13,0.7,7.342,M,-37.365,M,7.0,0135*65
$PYRTM,2024,123.500509679988,14.610157090127
$GNHDT,304.387,T*20
$PYRTM,2024,123.500515407118,14.610162817257
$GNGGA,120044.50,3416.32024861,N,12039.17228051,W,2,13,0.7,7.601,M,-37.365,M,7.4,0135*68
$PYRTM,2024,123.500515407118,14.610162817257
$GNHDT,303.903,T*21
$PYRTM,2024,123.500521256088,14.610168666238
$GNGGA,120045.00,3416.32051488,N,12039.17312535,W,2,13,0.7,7.895,M,-37.365,M,7.0,0135*6D
$PYRTM,2024,123.500521256088,14.610168666238
$GNHDT,303.958,T*2F
$PYRTM,2024,123.500526979838,14.610174389977
$GNGGA,120045.50,3416.32074593,N,12039.17387933,W,2,13,0.7,8.259,M,-37.365,M,7.4,0135*63
$PYRTM,2024,123.500526979838,14.610174389977
$GNHDT,304.166,T*2D
$PYRTM,2024,123.500532832535,14.610180242674
$GNGGA,120046.00,3416.32094782,N,12039.17449165,W,2,13,0.7,8.737,M,-37.365,M,7.0,0135*6E
$PYRTM,2024,123.500532832535,14.610180242674
$GNHDT,304.457,T*2A
$PYRTM,2024,123.500538559213,14.610185969352
$GNGGA,120046.50,3416.32114262,N,12039.17501419,W,2,13,0.7,9.214,M,-37.365,M,7.4,0135*6B
$PYRTM,2024,123.500538559213,14.610185969352
$GNHDT,304.587,T*26
$PYRTM,2024,123.500544405359,14.610191815498
$GNGGA,120047.00,3416.32138118,N,12039.17551188,W,2,13,0.7,9.509,M,-37.365,M,4.0,0135*6B
$PYRTM,2024,123.500544405359,14.610191815498
$GNHDT,304.777,T*2B
$PYRTM,2024,123.500550130799,14.610197540937
$GNGGA,120047.50,3416.32167620,N,12039.17610226,W,2,13,0.7,9.405,M,-37.365,M,4.4,0135*60
$PYRTM,2024,123.500550130799,14.610197540937
$GNHDT,304.620,T*28
$PYRTM,2024,123.500555975972,14.610203386111
$GNGGA,120048.00,3416.32201833,N,12039.17679737,W,2,13,0.7,8.893,M,-37.365,M,5.0,0135*68
$PYRTM,2024,123.500555975972,14.610203386111
$GNHDT,304.457,T*2A
$PYRTM,2024,123.500561712581,14.610209122708
$GNGGA,120048.50,3416.32233980,N,12039.17759401,W,2,13,0.7,8.129,M,-37.365,M,5.4,0135*6C
$PYRTM,2024,123.500561712581,14.610209122708
$GNHDT,304.459,T*24
$PYRTM,2024,123.500567557280,14.610214967419
$GNGGA,120049.00,3416.32261898,N,12039.17843230,W,2,13,0.7,7.371,M,-37.365,M,6.0,0135*60
$PYRTM,2024,123.500567557280,14.610214967419
$GNHDT,304.534,T*2E
$PYRTM,2024,123.500573279653,14.610220689792
$GNGGA,120049.50,3416.32284856,N,12039.17922693,W,2,13,0.7,6.873,M,-37.365,M,6.4,0135*6B
$PYRTM,2024,123.500573279653,14.610220689792
$GNHDT,304.515,T*2D
$PYRTM,2024,123.500579122836,14.610226532975
$GNGGA,120050.00,3416.32305048,N,12039.17991197,W,2,13,0.7,6.769,M,-37.365,M,7.0,0135*63
$PYRTM,2024,123.500579122836,14.610226532975
$GNHDT,305.004,T*29
$PYRTM,2024,123.500584857488,14.610232267627
$GNGGA,120050.50,3416.32326735,N,12039.18047308,W,2,13,0.7,7.032,M,-37.365,M,7.4,0135*6F
$PYRTM,2024,123.500584857488,14.610232267627
$GNHDT,305.145,T*2D
$PYRTM,2024,123.500590707639,14.610238117778
$GNGGA,120051.00,3416.32348955,N,12039.18099957,W,2,13,0.7,7.491,M,-37.365,M,7.0,0135*61
$PYRTM,2024,123.500590707639,14.610238117778
$GNHDT,305.037,T*29
$PYRTM,2024,123.500596429271,14.610243839410
$GNGGA,120051.50,3416.32373923,N,12039.18156690,W,2,13,0.7,7.969,M,-37.365,M,7.4,0135*65
$PYRTM,2024,123.500596429271,14.610243839410
$GNHDT,304.828,T*2E
$PYRTM,2024,123.500602277593,14.610249687731
$GNGGA,120052.00,3416.32401651,N,12039.18227943,W,2,13,0.7,8.249,M,-37.365,M,7.0,0135*6D
$PYRTM,2024,123.500602277593,14.610249687731
$GNHDT,304.362,T*2B
$PYRTM,2024,123.500608005752,14.610255415891
$GNGGA,120052.50,3416.32431586,N,12039.18311528,W,2,13,0.7,8.167,M,-37.365,M,7.4,0135*6C
$PYRTM,2024,123.500608005752,14.610255415891
$GNHDT,303.864,T*21
$PYRTM,2024,123.500613849977,14.610261260116
$GNGGA,120053.00,3416.32460439,N,12039.18398662,W,2,13,0.7,7.866,M,-37.365,M,4.0,0135*65
$PYRTM,2024,123.500613849977,14.610261260116
$GNHDT,303.978,T*2D
$PYRTM,2024,123.500619578877,14.610266989016
$GNGGA,120053.50,3416.32484205,N,12039.18475728,W,2,13,0.7,7.569,M,-37.365,M,4.4,0135*6E
$PYRTM,2024,123.500619578877,14.610266989016
$GNHDT,304.146,T*2F
$PYRTM,2024,123.500625418692,14.610272828819
$GNGGA,120054.00,3416.32499229,N,12039.18535724,W,2,13,0.7,7.555,M,-37.365,M,5.0,0135*6D
$PYRTM,2024,123.500625418692,14.610272828819
$GNHDT,304.233,T*2E
$PYRTM,2024,123.500631149248,14.610278559387
$GNGGA,120054.50,3416.32505029,N,12039.18586846,W,2,13,0.7,7.881,M,-37.365,M,5.4,0135*6D
$PYRTM,2024,123.500631149248,14.610278559387
$GNHDT,303.897,T*2D
$PYRTM,2024,123.500636997361,14.610284407500
$GNGGA,120055.00,3416.32504933,N,12039.18636850,W,2,13,0.7,8.399,M,-37.365,M,6.0,0135*6F
$PYRTM,2024,123.500636997361,14.610284407500
$GNHDT,303.722,T*2C
$PYRTM,2024,123.500642720729,14.610290130880
$GNGGA,120055.50,3416.32507012,N,12039.18696622,W,2,13,0.7,8.785,M,-37.365,M,6.4,0135*6F
$PYRTM,2024,123.500642720729,14.610290130880
$GNHDT,303.517,T*28
$PYRTM,2024,123.500648570081,14.610295980220
$GNGGA,120056.00,3416.32519780,N,12039.18773247,W,2,13,0.7,8.640,M,-37.365,M,7.0,0135*6A
$PYRTM,2024,123.500648570081,14.610295980220
$GNHDT,302.983,T*28
$PYRTM,2024,123.500654303241,14.610301713380
$GNGGA,120056.50,3416.32543559,N,12039.18858693,W,2,13,0.7,7.983,M,-37.365,M,7.4,0135*66
$PYRTM,2024,123.500654303241,14.610301713380
$GNHDT,302.690,T*25
$PYRTM,2024,123.500660154201,14.610307564329
$GNGGA,120057.00,3416.32576242,N,12039.18938331,W,2,13,0.7,7.073,M,-37.365,M,7.0,0135*61
$PYRTM,2024,123.500660154201,14.610307564329
$GNHDT,302.749,T*20
$PYRTM,2024,123.500665874190,14.610313284329
$GNGGA,120057.50,3416.32609976,N,12039.19005502,W,2,13,0.7,6.385,M,-37.365,M,7.4,0135*6C
$PYRTM,2024,123.500665874190,14.610313284329
$GNHDT,302.844,T*22
$PYRTM,2024,123.500671716146,14.610319126285
$GNGGA,120058.00,3416.32637713,N,12039.19062104,W,2,13,0.7,6.195,M,-37.365,M,7.0,0135*62
$PYRTM,2024,123.500671716146,14.610319126285
$GNHDT,303.106,T*2C
$PYRTM,2024,123.500677447894,14.610324858044
$GNGGA,120058.50,3416.32656642,N,12039.19112916,W,2,13,0.7,6.628,M,-37.365,M,7.4,0135*6D
$PYRTM,2024,123.500677447894,14.610324858044
$GNHDT,302.869,T*2D
$PYRTM,2024,123.500683297662,14.610330707801
$GNGGA,120059.00,3416.32665231,N,12039.19171104,W,2,13,0.7,7.463,M,-37.365,M,4.0,0135*6C
$PYRTM,2024,123.500683297662,14.610330707801
$GNHDT,302.831,T*20
$PYRTM,2024,123.500689026817,14.610336436956
$GNGGA,120059.50,3416.32669678,N,12039.19241266,W,2,13,0.7,8.317,M,-37.365,M,4.4,0135*64
$PYRTM,2024,123.500689026817,14.610336436956
$GNHDT,302.333,T*29
$PYRTM,2024,123.500694869676,14.610342279815
$GNGGA,120100.00,3416.32677596,N,12039.19326496,W,2,13,0.7,8.818,M,-37.365,M,5.0,0135*68
$PYRTM,2024,123.500694869676,14.610342279815
$GNHDT,302.037,T*2E
$PYRTM,2024,123.500700599225,14.610348009363
$GNGGA,120100.50,3416.32695369,N,12039.19415689,W,2,13,0.7,8.887,M,-37.365,M,5.4,0135*6E
$PYRTM,2024,123.500700599225,14.610348009363
$GNHDT,301.953,T*26
$PYRTM,2024,123.500706442407,14.610353852546
$GNGGA,120101.00,3416.32719419,N,12039.19498067,W,2,13,0.7,8.581,M,-37.365,M,6.0,0135*60
$PYRTM,2024,123.500706442407,14.610353852546
$GNHDT,302.315,T*2D
$PYRTM,2024,123.500712168032,14.610359578171
$GNGGA,120101.50,3416.32745435,N,12039.19566279,W,2,13,0.7,8.190,M,-37.365,M,6.4,0135*6F
$PYRTM,2024,123.500712168032,14.610359578171
$GNHDT,302.238,T*23
$PYRTM,2024,123.500718016238,14.610365426377
$GNGGA,120102.00,3416.32767647,N,12039.19622731,W,2,13,0.7,7.936,M,-37.365,M,7.0,0135*6A
$PYRTM,2024,123.500718016238,14.610365426377
$GNHDT,302.394,T*24
$PYRTM,2024,123.500723740289,14.610371150428
$GNGGA,120102.50,3416.32784397,N,12039.19674144,W,2,13,0.7,7.911,M,-37.365,M,7.4,0135*6C
$PYRTM,2024,123.500723740289,14.610371150428
$GNHDT,301.823,T*20
$PYRTM,2024,123.500729587338,14.610376997477
$GNGGA,120103.00,3416.32795938,N,12039.19729796,W,2,13,0.7,8.039,M,-37.365,M,7.0,0135*6F
$PYRTM,2024,123.500729587338,14.610376997477
$GNHDT,301.414,T*28
$PYRTM,2024,123.500735313530,14.610382723669
$GNGGA,120103.50,3416.32804057,N,12039.19794648,W,2,13,0.7,8.215,M,-37.365,M,7.4,0135*61
$PYRTM,2024,123.500735313530,14.610382723669
$GNHDT,300.661,T*29
$PYRTM,2024,123.500741166447,14.610388576597
$GNGGA,120104.00,3416.32812505,N,12039.19871733,W,2,13,0.7,8.191,M,-37.365,M,7.0,0135*64
$PYRTM,2024,123.500741166447,14.610388576597
$GNHDT,300.355,T*2B
$PYRTM,2024,123.500746895833,14.610394305972
$GNGGA,120104.50,3416.32825500,N,12039.19954122,W,2,13,0.7,7.967,M,-37.365,M,7.4,0135*6A
$PYRTM,2024,123.500746895833,14.610394305972
$GNHDT,300.609,T*27
$PYRTM,2024,123.500752741354,14.610400151505
$GNGGA,120105.00,3416.32845506,N,12039.20032327,W,2,13,0.7,7.571,M,-37.365,M,4.0,0135*66
$PYRTM,2024,123.500752741354,14.610400151505
$GNHDT,300.805,T*25
$PYRTM,2024,123.500758462535,14.610405872674
$GNGGA,120105.50,3416.32869488,N,12039.20099771,W,2,13,0.7,7.258,M,-37.365,M,4.4,0135*64
$PYRTM,2024,123.500758462535,14.610405872674
$GNHDT,301.384,T*26
$PYRTM,2024,123.500764312373,14.610411722523
$GNGGA,120106.00,3416.32892327,N,12039.20155385,W,2,13,0.7,7.227,M,-37.365,M,5.0,0135*67
$PYRTM,2024,123.500764312373,14.610411722523
$GNHDT,301.621,T*2C
$PYRTM,2024,123.500770041215,14.610417451354
$GNGGA,120106.50,3416.32911134,N,12039.20207152,W,2,13,0.7,7.510,M,-37.365,M,5.4,0135*63
$PYRTM,2024,123.500770041215,14.610417451354
$GNHDT,301.301,T*2B
$PYRTM,2024,123.500775886319,14.610423296458
$GNGGA,120107.00,3416.32924682,N,12039.20262484,W,2,13,0.7,7.996,M,-37.365,M,6.0,0135*63
$PYRTM,2024,123.500775886319,14.610423296458
$GNHDT,300.863,T*25
$PYRTM,2024,123.500781616910,14.610429027049
$GNGGA,120107.50,3416.32934136,N,12039.20331178,W,2,13,0.7,8.397,M,-37.366,M,6.4,0135*6D
$PYRTM,2024,123.500781616910,14.610429027049
$GNHDT,300.274,T*29
$PYRTM,2024,123.500787468206,14.610434878345
$GNGGA,120108.00,3416.32943544,N,12039.20415011,W,2,13,0.7,8.455,M,-37.366,M,7.0,0135*65
$PYRTM,2024,123.500787468206,14.610434878345
$GNHDT,299.967,T*21
$PYRTM,2024,123.500793189375,14.610440599514
$GNGGA,120108.50,3416.32957134,N,12039.20504955,W,2,13,0.7,8.139,M,-37.366,M,7.4,0135*65
$PYRTM,2024,123.500793189375,14.610440599514
$GNHDT,300.014,T*2D
$PYRTM,2024,123.500799037708,14.610446447847
$GNGGA,120109.00,3416.32976004,N,12039.20590310,W,2,13,0.7,7.590,M,-37.366,M,7.0,0135*6A
$PYRTM,2024,123.500799037708,14.610446447847
$GNHDT,300.190,T*20
$PYRTM,2024,123.500804763947,14.610452174086
$GNGGA,120109.50,3416.32998594,N,12039.20665723,W,2,13,0.7,7.052,M,-37.366,M,7.4,0135*61
$PYRTM,2024,123.500804763947,14.610452174086
$GNHDT,300.285,T*27
$PYRTM,2024,123.500810606100,14.610458016250
$GNGGA,120110.00,3416.33019810,N,12039.20731954,W,2,13,0.7,6.790,M,-37.366,M,7.0,0135*6E
$PYRTM,2024,123.500810606100,14.610458016250
$GNHDT,300.296,T*25
$PYRTM,2024,123.500816340671,14.610463750810
$GNGGA,120110.50,3416.33034884,N,12039.20795412,W,2,13,0.7,6.905,M,-37.366,M,7.4,0135*6E
$PYRTM,2024,123.500816340671,14.610463750810
$GNHDT,300.104,T*2D
$PYRTM,2024,123.500822188762,14.610469598912
$GNGGA,120111.00,3416.33044287,N,12039.20859477,W,2,13,0.7,7.320,M,-37.366,M,4.0,0135*63
$PYRTM,2024,123.500822188762,14.610469598912
$GNHDT,299.515,T*28
$PYRTM,2024,123.500827911493,14.610475321632
$GNGGA,120111.50,3416.33051384,N,12039.20924927,W,2,13,0.7,7.865,M,-37.366,M,4.4,0135*6D
$PYRTM,2024,123.500827911493,14.610475321632
$GNHDT,299.442,T*2B
$PYRTM,2024,123.500833756968,14.610481167106
$GNGGA,120112.00,3416.33057730,N,12039.20993644,W,2,13,0.7,8.386,M,-37.366,M,5.0,0135*6C
$PYRTM,2024,123.500833756968,14.610481167106
$GNHDT,299.590,T*25
$PYRTM,2024,123.500839486250,14.610486896389
$GNGGA,120112.50,3416.33066072,N,12039.21066568,W,2,13,0.7,8.687,M,-37.366,M,5.4,0135*65
$PYRTM,2024,123.500839486250,14.610486896389
$GNHDT,299.638,T*24
$PYRTM,2024,123.500845327384,14.610492737523
$GNGGA,120113.00,3416.33078537,N,12039.21143113,W,2,13,0.7,8.613,M,-37.366,M,6.0,0135*6E
$PYRTM,2024,123.500845327384,14.610492737523
$GNHDT,299.753,T*28
$PYRTM,2024,123.500851056597,14.610498466736
$GNGGA,120113.50,3416.33094351,N,12039.21222093,W,2,13,0.7,8.243,M,-37.366,M,6.4,0135*67
$PYRTM,2024,123.500851056597,14.610498466736
$GNHDT,299.458,T*20
$PYRTM,2024,123.500856909491,14.610504319630
$GNGGA,120114.00,3416.33110796,N,12039.21300076,W,2,13,0.7,7.723,M,-37.366,M,7.0,0135*64
$PYRTM,2024,123.500856909491,14.610504319630
$GNHDT,299.502,T*2E
$PYRTM,2024,123.500862630220,14.610510040394
$GNGGA,120114.50,3416.33126862,N,12039.21372312,W,2,13,0.7,7.249,M,-37.366,M,7.4,0135*69
$PYRTM,2024,123.500862630220,14.610510040394
$GNHDT,299.632,T*2E
$PYRTM,2024,123.500868481725,14.610515891863
$GNGGA,120115.00,3416.33143008,N,12039.21437678,W,2,13,0.7,6.928,M,-37.366,M,7.0,0135*6C
$PYRTM,2024,123.500868481725,14.610515891863
$GNHDT,299.674,T*2C
$PYRTM,2024,123.500874211516,14.610521621655
$GNGGA,120115.50,3416.33159543,N,12039.21498546,W,2,13,0.7,6.805,M,-37.366,M,7.4,0135*69
$PYRTM,2024,123.500874211516,14.610521621655
$GNHDT,300.434,T*2B
$PYRTM,2024,123.500880056389,14.610527466539
$GNGGA,120116.00,3416.33177120,N,12039.21562352,W,2,13,0.7,6.799,M,-37.366,M,7.0,0135*6B
$PYRTM,2024,123.500880056389,14.610527466539
$GNHDT,300.681,T*27
$PYRTM,2024,123.500885781227,14.610533191366
$GNGGA,120116.50,3416.33196607,N,12039.21632725,W,2,13,0.7,6.876,M,-37.366,M,7.4,0135*6B
$PYRTM,2024,123.500885781227,14.610533191366
$GNHDT,300.521,T*2E
$PYRTM,2024,123.500891629352,14.610539039491
$GNGGA,120117.00,3416.33217031,N,12039.21708840,W,2,13,0.7,7.013,M,-37.366,M,4.0,0135*6F
$PYRTM,2024,123.500891629352,14.610539039491
$GNHDT,300.398,T*2A
$PYRTM,2024,123.500897356019,14.610544766157
$GNGGA,120117.50,3416.33237739,N,12039.21786545,W,2,13,0.7,7.236,M,-37.366,M,4.4,0135*68
$PYRTM,2024,123.500897356019,14.610544766157
$GNHDT,300.272,T*2F
$PYRTM,2024,123.500903206343,14.610550616481
$GNGGA,120118.00,3416.33258045,N,12039.21860920,W,2,13,0.7,7.586,M,-37.366,M,5.0,0135*66
$PYRTM,2024,123.500903206343,14.610550616481
$GNHDT,300.624,T*28
$PYRTM,2024,123.500908934213,14.610556344352
$GNGGA,120118.50,3416.33276383,N,12039.21930117,W,2,13,0.7,8.026,M,-37.366,M,5.4,0135*6A
$PYRTM,2024,123.500908934213,14.610556344352
$GNHDT,301.053,T*2F
$PYRTM,2024,123.500914772211,14.610562182350
$GNGGA,120119.00,3416.33292045,N,12039.21995189,W,2,13,0.7,8.493,M,-37.366,M,6.0,0135*68
$PYRTM,2024,123.500914772211,14.610562182350
$GNHDT,301.583,T*27
$PYRTM,2024,123.500920499942,14.610567910081
$GNGGA,120119.50,3416.33308523,N,12039.22060315,W,2,13,0.7,8.822,M,-37.366,M,6.4,0135*6F
$PYRTM,2024,123.500920499942,14.610567910081
$GNHDT,301.960,T*26
$PYRTM,2024,123.500926358148,14.610573768287
$GNGGA,120120.00,3416.33329388,N,12039.22130666,W,2,13,0.7,8.815,M,-37.366,M,7.0,0135*60
$PYRTM,2024,123.500926358148,14.610573768287
$GNHDT,301.959,T*2C
$PYRTM,2024,123.500932080995,14.610579491134
$GNGGA,120120.50,3416.33356493,N,12039.22206310,W,2,13,0.7,8.444,M,-37.366,M,7.4,0135*6E
$PYRTM,2024,123.500932080995,14.610579491134
$GNHDT,301.976,T*21
$PYRTM,2024,123.500937924190,14.610585334329
$GNGGA,120121.00,3416.33386860,N,12039.22284950,W,2,13,0.7,7.841,M,-37.366,M,7.0,0135*61
$PYRTM,2024,123.500937924190,14.610585334329
$GNHDT,302.179,T*25
$PYRTM,2024,123.500943651053,14.610591061192
$GNGGA,120121.50,3416.33415659,N,12039.22360916,W,2,13,0.7,7.283,M,-37.366,M,7.4,0135*64
$PYRTM,2024,123.500943651053,14.610591061192
$GNHDT,302.467,T*2F
$PYRTM,2024,123.500949497269,14.610596907407
$GNGGA,120122.00,3416.33437330,N,12039.22427744,W,2,13,0.7,7.048,M,-37.366,M,7.0,0135*64
$PYRTM,2024,123.500949497269,14.610596907407
$GNHDT,302.797,T*23
$PYRTM,2024,123.500955227870,14.610602638009
$GNGGA,120122.50,3416.33450907,N,12039.22486088,W,2,13,0.7,7.222,M,-37.366,M,7.4,0135*68
$PYRTM,2024,123.500955227870,14.610602638009
$GNHDT,302.695,T*20
$PYRTM,2024,123.500961078600,14.610608488738
$GNGGA,120123.00,3416.33459434,N,12039.22540138,W,2,13,0.7,7.648,M,-37.366,M,4.0,0135*66
$PYRTM,2024,123.500961078600,14.610608488738
$GNHDT,302.741,T*28
$PYRTM,2024,123.500966803715,14.610614213854
$GNGGA,120123.50,3416.33467735,N,12039.22598785,W,2,13,0.7,8.103,M,-37.366,M,4.4,0135*6A
$PYRTM,2024,123.500966803715,14.610614213854
$GNHDT,302.651,T*28
$PYRTM,2024,123.500972645000,14.610620055139
$GNGGA,120124.00,3416.33480804,N,12039.22670970,W,2,13,0.7,8.292,M,-37.366,M,5.0,0135*63
$PYRTM,2024,123.500972645000,14.610620055139
$GNHDT,302.551,T*2B
$PYRTM,2024,123.500978384769,14.610625794907
$GNGGA,120124.50,3416.33500615,N,12039.22755385,W,2,13,0.7,8.110,M,-37.366,M,5.4,0135*6A
$PYRTM,2024,123.500978384769,14.610625794907
$GNHDT,302.883,T*29
$PYRTM,2024,123.500984222257,14.610631632396
$GNGGA,120125.00,3416.33523519,N,12039.22843108,W,2,13,0.7,7.565,M,-37.366,M,6.0,0135*61
$PYRTM,2024,123.500984222257,14.610631632396
$GNHDT,302.789,T*2C
$PYRTM,2024,123.500989949884,14.610637360023
$GNGGA,120125.50,3416.33546719,N,12039.22925171,W,2,13,0.7,6.938,M,-37.366,M,6.4,0135*6B
$PYRTM,2024,123.500989949884,14.610637360023
$GNHDT,303.150,T*2F
$PYRTM,2024,123.500995793252,14.610643203403
$GNGGA,120126.00,3416.33569268,N,12039.22998338,W,2,13,0.7,6.459,M,-37.366,M,7.0,0135*65
$PYRTM,2024,123.500995793252,14.610643203403
$GNHDT,303.545,T*2F
$PYRTM,2024,123.501001526019,14.610648936157
$GNGGA,120126.50,3416.33590694,N,12039.23061276,W,2,13,0.7,6.266,M,-37.366,M,7.4,0135*6A
$PYRTM,2024,123.501001526019,14.610648936157
$GNHDT,303.710,T*2D
$PYRTM,2024,123.501007370544,14.610654780683
$GNGGA,120127.00,3416.33612420,N,12039.23116644,W,2,13,0.7,6.344,M,-37.366,M,7.0,0135*6B
$PYRTM,2024,123.501007370544,14.610654780683
$GNHDT,304.258,T*23
$PYRTM,2024,123.501013100891,14.610660511042
$GNGGA,120127.50,3416.33637821,N,12039.23170723,W,2,13,0.7,6.595,M,-37.366,M,7.4,0135*6A
$PYRTM,2024,123.501013100891,14.610660511042
$GNHDT,304.916,T*22
$PYRTM,2024,123.501018941586,14.610666351725
$GNGGA,120128.00,3416.33667028,N,12039.23226827,W,2,13,0.7,6.934,M,-37.366,M,7.0,0135*6C
$PYRTM,2024,123.501018941586,14.610666351725
$GNHDT,305.224,T*29
$PYRTM,2024,123.501024670023,14.610672080162
$GNGGA,120128.50,3416.33697487,N,12039.23287125,W,2,13,0.7,7.319,M,-37.366,M,7.4,0135*67
$PYRTM,2024,123.501024670023,14.610672080162
$GNHDT,305.468,T*27
$PYRTM,2024,123.501030519097,14.610677929236
$GNGGA,120129.00,3416.33722996,N,12039.23348280,W,2,13,0.7,7.825,M,-37.366,M,4.0,0135*6C
$PYRTM,2024,123.501030519097,14.610677929236
$GNHDT,305.328,T*24
$PYRTM,2024,123.501036244618,14.610683654757
$GNGGA,120129.50,3416.33739010,N,12039.23410626,W,2,13,0.7,8.420,M,-37.366,M,4.4,0135*64
$PYRTM,2024,123.501036244618,14.610683654757
$GNHDT,305.429,T*22
$PYRTM,2024,123.501042089688,14.610689499826
$GNGGA,120130.00,3416.33742107,N,12039.23477973,W,2,13,0.7,9.014,M,-37.366,M,5.0,0135*6B
$PYRTM,2024,123.501042089688,14.610689499826
$GNHDT,304.705,T*2E
$PYRTM,2024,123.501047823773,14.610695233912
$GNGGA,120130.50,3416.33738288,N,12039.23554105,W,2,13,0.7,9.348,M,-37.366,M,5.4,0135*60
$PYRTM,2024,123.501047823773,14.610695233912
$GNHDT,304.009,T*25
$PYRTM,2024,123.501053671435,14.610701081574
$GNGGA,120131.00,3416.33739614,N,12039.23638619,W,2,13,0.7,9.163,M,-37.366,M,6.0,0135*6B
$PYRTM,2024,123.501053671435,14.610701081574
$GNHDT,303.387,T*27
$PYRTM,2024,123.501059393912,14.610706804051
$GNGGA,120131.50,3416.33755332,N,12039.23725343,W,2,13,0.7,8.368,M,-37.366,M,6.4,0135*6E
$PYRTM,2024,123.501059393912,14.610706804051
$GNHDT,303.563,T*2B
$PYRTM,2024,123.501065247280,14.610712657419
$GNGGA,120132.00,3416.33783177,N,12039.23807138,W,2,13,0.7,7.230,M,-37.366,M,7.0,0135*67
$PYRTM,2024,123.501065247280,14.610712657419
$GNHDT,303.359,T*24
$PYRTM,2024,123.501070972199,14.610718382326
$GNGGA,120132.50,3416.33820657,N,12039.23875417,W,2,13,0.7,6.116,M,-37.366,M,7.4,0135*6E
$PYRTM,2024,123.501070972199,14.610718382326
$GNHDT,304.015,T*28
$PYRTM,2024,123.501076819780,14.610724229919
$GNGGA,120133.00,3416.33861837,N,12039.23931528,W,2,13,0.7,5.442,M,-37.366,M,7.0,0135*68
$PYRTM,2024,123.501076819780,14.610724229919
$GNHDT,304.706,T*2D
$PYRTM,2024,123.501082541991,14.610729952141
$GNGGA,120133.50,3416.33901198,N,12039.23981160,W,2,13,0.7,5.374,M,-37.366,M,7.4,0135*63
$PYRTM,2024,123.501082541991,14.610729952141
$GNHDT,304.879,T*2A
$PYRTM,2024,123.501088387303,14.610735797454
$GNGGA,120134.00,3416.33931771,N,12039.24032715,W,2,13,0.7,5.997,M,-37.366,M,7.0,0135*62
$PYRTM,2024,123.501088387303,14.610735797454
$GNHDT,304.803,T*27
$PYRTM,2024,123.501094123113,14.610741533264
$GNGGA,120134.50,3416.33951605,N,12039.24089763,W,2,13,0.7,7.043,M,-37.366,M,7.4,0135*64
$PYRTM,2024,123.501094123113,14.610741533264
$GNHDT,304.486,T*26
$PYRTM,2024,123.501099960023,14.610747370162
$GNGGA,120135.00,3416.33961005,N,12039.24157693,W,2,13,0.7,8.254,M,-37.366,M,4.0,0135*65
$PYRTM,2024,123.501099960023,14.610747370162
$GNHDT,303.658,T*20
$PYRTM,2024,123.501105696586,14.610753106725
$GNGGA,120135.50,3416.33966168,N,12039.24236555,W,2,13,0.7,9.249,M,-37.366,M,4.4,0135*69
$PYRTM,2024,123.501105696586,14.610753106725
$GNHDT,303.344,T*28
$PYRTM,2024,123.501111537951,14.610758948090
$GNGGA,120136.00,3416.33973364,N,12039.24324594,W,2,13,0.7,9.731,M,-37.366,M,5.0,0135*65
$PYRTM,2024,123.501111537951,14.610758948090
$GNHDT,303.149,T*27
$PYRTM,2024,123.501117268287,14.610764678426
$GNGGA,120136.50,3416.33987378,N,12039.24411690,W,2,13,0.7,9.593,M,-37.367,M,5.4,0135*6F
$PYRTM,2024,123.501117268287,14.610764678426
$GNHDT,303.218,T*20
$PYRTM,2024,123.501123108866,14.610770519016
$GNGGA,120137.00,3416.34011194,N,12039.24487365,W,2,13,0.7,8.961,M,-37.367,M,6.0,0135*6D
$PYRTM,2024,123.501123108866,14.610770519016
$GNHDT,303.423,T*2E
$PYRTM,2024,123.501128842465,14.610776252604
$GNGGA,120137.50,3416.34041483,N,12039.24547475,W,2,13,0.7,8.132,M,-37.367,M,6.4,0135*6F
$PYRTM,2024,123.501128842465,14.610776252604
$GNHDT,303.675,T*2F
$PYRTM,2024,123.501134680694,14.610782090833
$GNGGA,120138.00,3416.34071697,N,12039.24595871,W,2,13,0.7,7.404,M,-37.367,M,7.0,0135*6C
$PYRTM,2024,123.501134680694,14.610782090833
$GNHDT,303.623,T*2C
$PYRTM,2024,123.501140410509,14.610787820648
$GNGGA,120138.50,3416.34098022,N,12039.24641569,W,2,13,0.7,6.986,M,-37.367,M,7.4,0135*6A
$PYRTM,2024,123.501140410509,14.610787820648
$GNHDT,303.652,T*2A
$PYRTM,2024,123.501146256771,14.610793666910
$GNGGA,120139.00,3416.34117924,N,12039.24688327,W,2,13,0.7,6.868,M,-37.367,M,7.0,0135*6B
$PYRTM,2024,123.501146256771,14.610793666910
$GNHDT,303.542,T*28
$PYRTM,2024,123.501151981968,14.610799392106
$GNGGA,120139.50,3416.34134489,N,12039.24742092,W,2,13,0.7,6.987,M,-37.367,M,7.4,0135*6B
$PYRTM,2024,123.501151981968,14.610799392106
$GNHDT,303.275,T*2B
$PYRTM,2024,123.501157832002,14.610805242141
$GNGGA,120140.00,3416.34149895,N,12039.24805402,W,2,13,0.7,7.105,M,-37.367,M,7.0,0135*6D
$PYRTM,2024,123.501157832002,14.610805242141
$GNHDT,303.240,T*2D
$PYRTM,2024,123.501163557361,14.610810967500
$GNGGA,120140.50,3416.34167516,N,12039.24880759,W,2,13,0.7,7.152,M,-37.367,M,7.4,0135*64
$PYRTM,2024,123.501163557361,14.610810967500
$GNHDT,302.891,T*2A
$PYRTM,2024,123.501169406470,14.610816816609
$GNGGA,120141.00,3416.34188680,N,12039.24969501,W,2,13,0.7,7.011,M,-37.367,M,4.0,0135*65
$PYRTM,2024,123.501169406470,14.610816816609
$GNHDT,303.028,T*21
$PYRTM,2024,123.501175131400,14.610822541539
$GNGGA,120141.50,3416.34213160,N,12039.25064874,W,2,13,0.7,6.716,M,-37.367,M,4.4,0135*67
$PYRTM,2024,123.501175131400,14.610822541539
$GNHDT,303.388,T*28
$PYRTM,2024,123.501180983576,14.610828393715
$GNGGA,120142.00,3416.34240173,N,12039.25156881,W,2,13,0.7,6.466,M,-37.367,M,5.0,0135*6E
$PYRTM,2024,123.501180983576,14.610828393715
$GNHDT,303.507,T*29
$PYRTM,2024,123.501186706979,14.610834117118
$GNGGA,120142.50,3416.34263329,N,12039.25234493,W,2,13,0.7,6.531,M,-37.367,M,5.4,0135*68
$PYRTM,2024,123.501186706979,14.610834117118
$GNHDT,303.333,T*28
$PYRTM,2024,123.501192559051,14.610839969190
$GNGGA,120143.00,3416.34280722,N,12039.25297333,W,2,13,0.7,7.005,M,-37.367,M,6.0,0135*6E
$PYRTM,2024,123.501192559051,14.610839969190
$GNHDT,303.068,T*25
$PYRTM,2024,123.501198284329,14.610845694468
$GNGGA,120143.50,3416.34291854,N,12039.25352685,W,2,13,0.7,7.727,M,-37.367,M,6.4,0135*66
$PYRTM,2024,123.501198284329,14.610845694468
$GNHDT,302.643,T*2B
$PYRTM,2024,123.501204128796,14.610851538935
$GNGGA,120144.00,3416.34303021,N,12039.25407724,W,2,13,0.7,8.479,M,-37.367,M,7.0,0135*6B
$PYRTM,2024,123.501204128796,14.610851538935
$GNHDT,302.504,T*2B
$PYRTM,2024,123.501209853021,14.610857263160
$GNGGA,120144.50,3416.34316913,N,12039.25471113,W,2,13,0.7,8.947,M,-37.367,M,7.4,0135*65
$PYRTM,2024,123.501209853021,14.610857263160
$GNHDT,302.567,T*2E
$PYRTM,2024,123.501215701331,14.610863111470
$GNGGA,120145.00,3416.34334635,N,12039.25543697,W,2,13,0.7,8.979,M,-37.367,M,7.0,0135*68
$PYRTM,2024,123.501215701331,14.610863111470
$GNHDT,302.435,T*28
$PYRTM,2024,123.501221436829,14.610868846968
$GNGGA,120145.50,3416.34354176,N,12039.25619826,W,2,13,0.7,8.643,M,-37.367,M,7.4,0135*61
$PYRTM,2024,123.501221436829,14.610868846968
$GNHDT,302.400,T*2E
$PYRTM,2024,123.501227280428,14.610874690567
$GNGGA,120146.00,3416.34375747,N,12039.25691582,W,2,13,0.7,8.055,M,-37.367,M,7.0,0135*66
$PYRTM,2024,123.501227280428,14.610874690567
$GNHDT,302.224,T*2E
$PYRTM,2024,123.501233008519,14.610880418657
$GNGGA,120146.50,3416.34398215,N,12039.25756560,W,2,13,0.7,7.430,M,-37.367,M,7.4,0135*68
$PYRTM,2024,123.501233008519,14.610880418657
$GNHDT,302.732,T*2C
$PYRTM,2024,123.501238848530,14.610886258669
$GNGGA,120147.00,3416.34424569,N,12039.25814600,W,2,13,0.7,6.913,M,-37.367,M,4.0,0135*66
$PYRTM,2024,123.501238848530,14.610886258669
$GNHDT,303.267,T*28
$PYRTM,2024,123.501244578889,14.610891989028
$GNGGA,120147.50,3416.34451573,N,12039.25869432,W,2,13,0.7,6.582,M,-37.367,M,4.4,0135*63
$PYRTM,2024,123.501244578889,14.610891989028
$GNHDT,303.694,T*20
$PYRTM,2024,123.501250420556,14.610897830694
$GNGGA,120148.00,3416.34476516,N,12039.25930146,W,2,13,0.7,6.504,M,-37.367,M,5.0,0135*6F
$PYRTM,2024,123.501250420556,14.610897830694
$GNHDT,303.735,T*2A
$PYRTM,2024,123.501256154144,14.610903564282
$GNGGA,120148.50,3416.34497651,N,12039.26000302,W,2,13,0.7,6.600,M,-37.367,M,5.4,0135*6D
$PYRTM,2024,123.501256154144,14.610903564282
$GNHDT,303.236,T*2C
$PYRTM,2024,123.501261995324,14.610909405463
$GNGGA,120149.00,3416.34516774,N,12039.26077523,W,2,13,0.7,6.839,M,-37.367,M,6.0,0135*61
$PYRTM,2024,123.501261995324,14.610909405463
$GNHDT,302.876,T*23
$PYRTM,2024,123.501267723947,14.610915134086
$GNGGA,120149.50,3416.34534978,N,12039.26157249,W,2,13,0.7,7.142,M,-37.367,M,6.4,0135*6E
$PYRTM,2024,123.501267723947,14.610915134086
$GNHDT,302.913,T*21
$PYRTM,2024,123.501273573831,14.610920983970
$GNGGA,120150.00,3416.34555620,N,12039.26236098,W,2,13,0.7,7.490,M,-37.367,M,7.0,0135*63
$PYRTM,2024,123.501273573831,14.610920983970
$GNHDT,303.306,T*2E
$PYRTM,2024,123.501279296493,14.610926706632
$GNGGA,120150.50,3416.34580806,N,12039.26309595,W,2,13,0.7,7.802,M,-37.367,M,7.4,0135*62
$PYRTM,2024,123.501279296493,14.610926706632
$GNHDT,303.725,T*2B
$PYRTM,2024,123.501285143426,14.610932553576
$GNGGA,120151.00,3416.34610274,N,12039.26378971,W,2,13,0.7,8.043,M,-37.367,M,7.0,0135*65
$PYRTM,2024,123.501285143426,14.610932553576
$GNHDT,303.909,T*2B
$PYRTM,2024,123.501290876435,14.610938286574
$GNGGA,120151.50,3416.34641534,N,12039.26447489,W,2,13,0.7,8.179,M,-37.367,M,7.4,0135*6A
$PYRTM,2024,123.501290876435,14.610938286574
$GNHDT,303.822,T*23
$PYRTM,2024,123.501296720764,14.610944130903
$GNGGA,120152.00,3416.34671334,N,12039.26519026,W,2,13,0.7,8.206,M,-37.367,M,7.0,0135*6D
$PYRTM,2024,123.501296720764,14.610944130903
$GNHDT,303.521,T*2D
$PYRTM,2024,123.501302450602,14.610949860741
$GNGGA,120152.50,3416.34696117,N,12039.26593534,W,2,13,0.7,8.148,M,-37.367,M,7.4,0135*6B
$PYRTM,2024,123.501302450602,14.610949860741
$GNHDT,302.919,T*2B
$PYRTM,2024,123.501308294861,14.610955705000
$GNGGA,120153.00,3416.34717980,N,12039.26666529,W,2,13,0.7,8.056,M,-37.367,M,4.0,0135*6D
$PYRTM,2024,123.501308294861,14.610955705000
$GNHDT,302.919,T*2B
$PYRTM,2024,123.501314019074,14.610961429213
$GNGGA,120153.50,3416.34739809,N,12039.26732935,W,2,13,0.7,7.987,M,-37.367,M,4.4,0135*6B
$PYRTM,2024,123.501314019074,14.610961429213
$GNHDT,303.772,T*29
$PYRTM,2024,123.501319872164,14.610967282315
$GNGGA,120154.00,3416.34762571,N,12039.26792854,W,2,13,0.7,7.979,M,-37.367,M,5.0,0135*6D
$PYRTM,2024,123.501319872164,14.610967282315
$GNHDT,304.515,T*2D
$PYRTM,2024,123.501325601678,14.610973011817
$GNGGA,120154.50,3416.34785540,N,12039.26852256,W,2,13,0.7,8.061,M,-37.367,M,5.4,0135*63
$PYRTM,2024,123.501325601678,14.610973011817
$GNHDT,305.048,T*21
$PYRTM,2024,123.501331441725,14.610978851875
$GNGGA,120155.00,3416.34807776,N,12039.26917114,W,2,13,0.7,8.154,M,-37.367,M,6.0,0135*60
$PYRTM,2024,123.501331441725,14.610978851875
$GNHDT,305.042,T*2B
$PYRTM,2024,123.501337167488,14.610984577627
$GNGGA,120155.50,3416.34831617,N,12039.26989457,W,2,13,0.7,8.158,M,-37.367,M,6.4,0135*6B
$PYRTM,2024,123.501337167488,14.610984577627
$GNHDT,304.712,T*28
$PYRTM,2024,123.501343016678,14.610990426829
$GNGGA,120156.00,3416.34856949,N,12039.27069751,W,2,13,0.7,7.979,M,-37.367,M,7.0,0135*6A
$PYRTM,2024,123.501343016678,14.610990426829
$GNHDT,304.342,T*29
$PYRTM,2024,123.501348745775,14.610996155903
$GNGGA,120156.50,3416.34884903,N,12039.27155651,W,2,13,0.7,7.602,M,-37.367,M,7.4,0135*66
$PYRTM,2024,123.501348745775,14.610996155903
$GNHDT,304.217,T*28
$PYRTM,2024,123.501354592894,14.611002003032
$GNGGA,120157.00,3416.34915633,N,12039.27241414,W,2,13,0.7,7.128,M,-37.367,M,7.0,0135*69
$PYRTM,2024,123.501354592894,14.611002003032
$GNHDT,304.064,T*2E
$PYRTM,2024,123.501360320243,14.611007730382
$GNGGA,120157.50,3416.34946164,N,12039.27323920,W,2,13,0.7,6.724,M,-37.367,M,7.4,0135*6F
$PYRTM,2024,123.501360320243,14.611007730382
$GNHDT,304.256,T*2D
$PYRTM,2024,123.501366164606,14.611013574745
$GNGGA,120158.00,3416.34977277,N,12039.27398244,W,2,13,0.7,6.569,M,-37.367,M,7.0,0135*60
$PYRTM,2024,123.501366164606,14.611013574745
$GNHDT,304.391,T*27
$PYRTM,2024,123.501371900660,14.611019310799
$GNGGA,120158.50,3416.35009990,N,12039.27462390,W,2,13,0.7,6.692,M,-37.367,M,7.4,0135*6F
$PYRTM,2024,123.501371900660,14.611019310799
$GNHDT,304.401,T*29
$PYRTM,2024,123.501377738356,14.611025148495
$GNGGA,120159.00,3416.35042442,N,12039.27521399,W,2,13,0.7,7.057,M,-37.367,M,4.0,0135*60
$PYRTM,2024,123.501377738356,14.611025148495
$GNHDT,304.792,T*20
$PYRTM,2024,123.501383467500,14.611030877639
$GNGGA,120159.50,3416.35070707,N,12039.27581760,W,2,13,0.7,7.592,M,-37.367,M,4.4,0135*66
$PYRTM,2024,123.501383467500,14.611030877639
$GNHDT,304.750,T*2E
$PYRTM,2024,123.501389328449,14.611036738588
$GNGGA,120200.00,3416.35092619,N,12039.27647867,W,2,13,0.7,8.212,M,-37.367,M,5.0,0135*6A
$PYRTM,2024,123.501389328449,14.611036738588
$GNHDT,304.574,T*2A
$PYRTM,2024,123.501395043032,14.611042453171
$GNGGA,120200.50,3416.35110023,N,12039.27724510,W,2,13,0.7,8.696,M,-37.367,M,5.4,0135*6E
$PYRTM,2024,123.501395043032,14.611042453171
$GNHDT,303.831,T*21
$PYRTM,2024,123.501400890509,14.611048300648
$GNGGA,120201.00,3416.35123712,N,12039.27811825,W,2,13,0.7,8.899,M,-37.367,M,6.0,0135*6B
$PYRTM,2024,123.501400890509,14.611048300648
$GNHDT,303.256,T*2A
$PYRTM,2024,123.501406618125,14.611054028264
$GNGGA,120201.50,3416.35137713,N,12039.27902439,W,2,13,0.7,8.754,M,-37.367,M,6.4,0135*62
$PYRTM,2024,123.501406618125,14.611054028264
$GNHDT,303.382,T*22
$PYRTM,2024,123.501412464456,14.611059874595
$GNGGA,120202.00,3416.35152936,N,12039.27991263,W,2,13,0.7,8.377,M,-37.367,M,7.0,0135*6D
$PYRTM,2024,123.501412464456,14.611059874595
$GNHDT,303.760,T*2A
$PYRTM,2024,123.501418190150,14.611065600289
$GNGGA,120202.50,3416.35172735,N,12039.28069343,W,2,13,0.7,7.922,M,-37.367,M,7.4,0135*64
$PYRTM,2024,123.501418190150,14.611065600289
$GNHDT,304.377,T*2F
$PYRTM,2024,123.501424034792,14.611071444931
$GNGGA,120203.00,3416.35198839,N,12039.28128210,W,2,13,0.7,7.585,M,-37.367,M,7.0,0135*61
$PYRTM,2024,123.501424034792,14.611071444931
$GNHDT,304.466,T*28
$PYRTM,2024,123.501429765394,14.611077175532
$GNGGA,120203.50,3416.35228307,N,12039.28184136,W,2,13,0.7,7.417,M,-37.367,M,7.4,0135*65
$PYRTM,2024,123.501429765394,14.611077175532
$GNHDT,304.104,T*29
$PYRTM,2024,123.501435607766,14.611083017905
$GNGGA,120204.00,3416.35258827,N,12039.28239577,W,2,13,0.7,7.432,M,-37.367,M,7.0,0135*6E
$PYRTM,2024,123.501435607766,14.611083017905
$GNHDT,303.715,T*28
$PYRTM,2024,123.501441337373,14.611088747512
$GNGGA,120204.50,3416.35290833,N,12039.28306551,W,2,13,0.7,7.495,M,-37.367,M,7.4,0135*6A
$PYRTM,2024,123.501441337373,14.611088747512
$GNHDT,303.325,T*2F
$PYRTM,2024,123.501447182986,14.611094593125
$GNGGA,120205.00,3416.35323174,N,12039.28391280,W,2,13,0.7,7.446,M,-37.367,M,4.0,0135*61
$PYRTM,2024,123.501447182986,14.611094593125
$GNHDT,303.187,T*25
$PYRTM,2024,123.501452915046,14.611100325185
$GNGGA,120205.50,3416.35355509,N,12039.28487727,W,2,13,0.7,7.273,M,-37.368,M,4.4,0135*68
$PYRTM,2024,123.501452915046,14.611100325185
$GNHDT,303.167,T*2B
$PYRTM,2024,123.501458757407,14.611106167546
$GNGGA,120206.00,3416.35385448,N,12039.28587738,W,2,13,0.7,7.143,M,-37.368,M,5.0,0135*6D
$PYRTM,2024,123.501458757407,14.611106167546
$GNHDT,303.578,T*21
$PYRTM,2024,123.501464482188,14.611111892326
$GNGGA,120206.50,3416.35410167,N,12039.28673835,W,2,13,0.7,7.319,M,-37.368,M,5.4,0135*68
$PYRTM,2024,123.501464482188,14.611111892326
$GNHDT,304.035,T*2A
$PYRTM,2024,123.501470336690,14.611117746829
$GNGGA,120207.00,3416.35428444,N,12039.28742569,W,2,13,0.7,7.913,M,-37.368,M,6.0,0135*63
$PYRTM,2024,123.501470336690,14.611117746829
$GNHDT,303.959,T*2E
$PYRTM,2024,123.501476067419,14.611123477569
$GNGGA,120207.50,3416.35442122,N,12039.28797741,W,2,13,0.7,8.751,M,-37.368,M,6.4,0135*6C
$PYRTM,2024,123.501476067419,14.611123477569
$GNHDT,303.817,T*25
$PYRTM,2024,123.501481917894,14.611129328032
$GNGGA,120208.00,3416.35455165,N,12039.28849777,W,2,13,0.7,9.594,M,-37.368,M,7.0,0135*65
$PYRTM,2024,123.501481917894,14.611129328032
$GNHDT,303.374,T*2B
$PYRTM,2024,123.501487637222,14.611135047373
$GNGGA,120208.50,3416.35472898,N,12039.28909377,W,2,13,0.7,10.139,M,-37.368,M,7.4,0135*50
$PYRTM,2024,123.501487637222,14.611135047373
$GNHDT,302.637,T*28
$PYRTM,2024,123.501493482245,14.611140892384
$GNGGA,120209.00,3416.35498121,N,12039.28980172,W,2,13,0.7,10.122,M,-37.368,M,7.0,0135*53
$PYRTM,2024,123.501493482245,14.611140892384
$GNHDT,302.407,T*29
$PYRTM,2024,123.501499215023,14.611146625162
$GNGGA,120209.50,3416.35525931,N,12039.29057619,W,2,13,0.7,9.547,M,-37.368,M,7.4,0135*6B
$PYRTM,2024,123.501499215023,14.611146625162
$GNHDT,302.060,T*2C
$PYRTM,2024,123.501505056227,14.611152466366
$GNGGA,120210.00,3416.35554226,N,12039.29138438,W,2,13,0.7,8.471,M,-37.368,M,7.0,0135*65
$PYRTM,2024,123.501505056227,14.611152466366
$GNHDT,302.163,T*2E
$PYRTM,2024,123.501510782384,14.611158192523
$GNGGA,120210.50,3416.35578614,N,12039.29220205,W,2,13,0.7,7.259,M,-37.368,M,7.4,0135*6E
$PYRTM,2024,123.501510782384,14.611158192523
$GNHDT,302.239,T*22
$PYRTM,2024,123.501516628993,14.611164039132
$GNGGA,120211.00,3416.35605114,N,12039.29296890,W,2,13,0.7,6.236,M,-37.368,M,4.0,0135*60
$PYRTM,2024,123.501516628993,14.611164039132
$GNHDT,301.924,T*26
$PYRTM,2024,123.501522360116,14.611169770266
$GNGGA,120211.50,3416.35630144,N,12039.29370467,W,2,13,0.7,5.767,M,-37.368,M,4.4,0135*6D
$PYRTM,2024,123.501522360116,14.611169770266
$GNHDT,302.125,T*2C
$PYRTM,2024,123.501528210417,14.611175620556
$GNGGA,120212.00,3416.35654017,N,12039.29432628,W,2,13,0.7,5.947,M,-37.368,M,5.0,0135*6F
$PYRTM,2024,123.501528210417,14.611175620556
$GNHDT,302.338,T*22
$PYRTM,2024,123.501533936794,14.611181346933
$GNGGA,120212.50,3416.35673697,N,12039.29487793,W,2,13,0.7,6.649,M,-37.368,M,5.4,0135*68
$PYRTM,2024,123.501533936794,14.611181346933
$GNHDT,302.897,T*2C
$PYRTM,2024,123.501539792419,14.611187202558
$GNGGA,120213.00,3416.35687689,N,12039.29541588,W,2,13,0.7,7.708,M,-37.368,M,6.0,0135*69
$PYRTM,2024,123.501539792419,14.611187202558
$GNHDT,302.969,T*2C
$PYRTM,2024,123.501545505162,14.611192915313
$GNGGA,120213.50,3416.35699502,N,12039.29599151,W,2,13,0.7,8.810,M,-37.368,M,6.4,0135*6B
$PYRTM,2024,123.501545505162,14.611192915313
$GNHDT,302.411,T*2E
$PYRTM,2024,123.501551352442,14.611198762581
$GNGGA,120214.00,3416.35714864,N,12039.29665098,W,2,13,0.7,9.661,M,-37.368,M,7.0,0135*68
$PYRTM,2024,123.501551352442,14.611198762581
$GNHDT,302.139,T*21
$PYRTM,2024,123.501557080810,14.611204490949
$GNGGA,120214.50,3416.35737298,N,12039.29741406,W,2,13,0.7,9.953,M,-37.368,M,7.4,0135*6B
$PYRTM,2024,123.501557080810,14.611204490949
$GNHDT,301.988,T*20
$PYRTM,2024,123.501562937153,14.611210347292
$GNGGA,120215.00,3416.35763804,N,12039.29824289,W,2,13,0.7,9.682,M,-37.368,M,7.0,0135*6B
$PYRTM,2024,123.501562937153,14.611210347292
$GNHDT,301.953,T*26
$PYRTM,2024,123.501568662025,14.611216072164
$GNGGA,120215.50,3416.35791144,N,12039.29902554,W,2,13,0.7,8.953,M,-37.368,M,7.4,0135*6A
$PYRTM,2024,123.501568662025,14.611216072164
$GNHDT,302.147,T*28
$PYRTM,2024,123.501574515220,14.611221925359
$GNGGA,120216.00,3416.35816398,N,12039.29973594,W,2,13,0.7,7.986,M,-37.368,M,7.0,0135*66
$PYRTM,2024,123.501574515220,14.611221925359
$GNHDT,302.073,T*2E
$PYRTM,2024,123.501580226319,14.611227636458
$GNGGA,120216.50,3416.35837494,N,12039.30036539,W,2,13,0.7,7.194,M,-37.368,M,7.4,0135*63
$PYRTM,2024,123.501580226319,14.611227636458
$GNHDT,302.342,T*2F
$PYRTM,2024,123.501586073866,14.611233484005
$GNGGA,120217.00,3416.35853775,N,12039.30096614,W,2,13,0.7,6.746,M,-37.368,M,4.0,0135*60
$PYRTM,2024,123.501586073866,14.611233484005
$GNHDT,302.422,T*2E
$PYRTM,2024,123.501591802928,14.611239213067
$GNGGA,120217.50,3416.35864946,N,12039.30161740,W,2,13,0.7,6.696,M,-37.368,M,4.4,0135*6E
$PYRTM,2024,123.501591802928,14.611239213067
$GNHDT,302.263,T*2D
$PYRTM,2024,123.501597649850,14.611245059988
$GNGGA,120218.00,3416.35876385,N,12039.30229672,W,2,13,0.7,6.956,M,-37.368,M,5.0,0135*6B
$PYRTM,2024,123.501597649850,14.611245059988
$GNHDT,302.052,T*2D
$PYRTM,2024,123.501603379606,14.611250789745
$GNGGA,120218.50,3416.35890959,N,12039.30300246,W,2,13,0.7,7.359,M,-37.368,M,5.4,0135*64
$PYRTM,2024,123.501603379606,14.611250789745
$GNHDT,301.783,T*25
$PYRTM,2024,123.501609221331,14.611256631470
$GNGGA,120219.00,3416.35909745,N,12039.30373511,W,2,13,0.7,7.772,M,-37.368,M,6.0,0135*69
$PYRTM,2024,123.501609221331,14.611256631470
$GNHDT,301.946,T*22
$PYRTM,2024,123.501614948542,14.611262358681
$GNGGA,120219.50,3416.35932137,N,12039.30452010,W,2,13,0.7,8.105,M,-37.368,M,6.4,0135*6A
$PYRTM,2024,123.501614948542,14.611262358681
$GNHDT,302.092,T*21
$PYRTM,2024,123.501620796887,14.611268207037
$GNGGA,120220.00,3416.35956917,N,12039.30534350,W,2,13,0.7,8.279,M,-37.368,M,7.0,0135*66
$PYRTM,2024,123.501620796887,14.611268207037
$GNHDT,302.115,T*2F
$PYRTM,2024,123.501626526736,14.611273936875
$GNGGA,120220.50,3416.35982822,N,12039.30615793,W,2,13,0.7,8.311,M,-37.368,M,7.4,0135*6D
$PYRTM,2024,123.501626526736,14.611273936875
$GNHDT,301.663,T*2A
$PYRTM,2024,123.501632369491,14.611279779641
$GNGGA,120221.00,3416.36011586,N,12039.30689978,W,2,13,0.7,8.231,M,-37.368,M,7.0,0135*63
$PYRTM,2024,123.501632369491,14.611279779641
$GNHDT,301.592,T*27
$PYRTM,2024,123.501638095440,14.611285505579
$GNGGA,120221.50,3416.36039688,N,12039.30757133,W,2,13,0.7,8.142,M,-37.368,M,7.4,0135*67
$PYRTM,2024,123.501638095440,14.611285505579
$GNHDT,301.496,T*22
$PYRTM,2024,123.501643951100,14.611291361238
$GNGGA,120222.00,3416.36063844,N,12039.30821236,W,2,13,0.7,8.095,M,-37.368,M,7.0,0135*67
$PYRTM,2024,123.501643951100,14.611291361238
$GNHDT,301.546,T*2E
$PYRTM,2024,123.501649669398,14.611297079537
$GNGGA,120222.50,3416.36083898,N,12039.30888338,W,2,13,0.7,8.107,M,-37.368,M,7.4,0135*6F
$PYRTM,2024,123.501649669398,14.611297079537
$GNHDT,301.937,T*24
$PYRTM,2024,123.501655518600,14.611302928738
$GNGGA,120223.00,3416.36102860,N,12039.30962068,W,2,13,0.7,8.084,M,-37.368,M,4.0,0135*6A
$PYRTM,2024,123.501655518600,14.611302928738
$GNHDT,302.099,T*2A
$PYRTM,2024,123.501661243299,14.611308653437
$GNGGA,120223.50,3416.36124141,N,12039.31041962,W,2,13,0.7,7.986,M,-37.368,M,4.4,0135*6B
$PYRTM,2024,123.501661243299,14.611308653437
$GNHDT,302.232,T*29
$PYRTM,2024,123.501667091377,14.611314501516
$GNGGA,120224.00,3416.36151347,N,12039.31119484,W,2,13,0.7,7.852,M,-37.368,M,5.0,0135*6B
$PYRTM,2024,123.501667091377,14.611314501516
$GNHDT,302.542,T*29
$PYRTM,2024,123.501672828519,14.611320238657
$GNGGA,120224.50,3416.36181233,N,12039.31191625,W,2,13,0.7,7.738,M,-37.368,M,5.4,0135*6F
$PYRTM,2024,123.501672828519,14.611320238657
$GNHDT,302.803,T*21
$PYRTM,2024,123.501678668287,14.611326078426
$GNGGA,120225.00,3416.36210315,N,12039.31257749,W,2,13,0.7,7.752,M,-37.368,M,6.0,0135*6C
$PYRTM,2024,123.501678668287,14.611326078426
$GNHDT,302.943,T*24
$PYRTM,2024,123.501684394236,14.611331804375
$GNGGA,120225.50,3416.36235912,N,12039.31324492,W,2,13,0.7,7.894,M,-37.368,M,6.4,0135*62
$PYRTM,2024,123.501684394236,14.611331804375
$GNHDT,302.869,T*2D
$PYRTM,2024,123.501690242361,14.611337652500
$GNGGA,120226.00,3416.36258568,N,12039.31393487,W,2,13,0.7,8.136,M,-37.368,M,7.0,0135*6D
$PYRTM,2024,123.501690242361,14.611337652500
$GNHDT,302.441,T*2B
$PYRTM,2024,123.501695968299,14.611343378437
$GNGGA,120226.50,3416.36280135,N,12039.31467225,W,2,13,0.7,8.354,M,-37.368,M,7.4,0135*61
$PYRTM,2024,123.501695968299,14.611343378437
$GNHDT,302.246,T*2A
$PYRTM,2024,123.501701814861,14.611349224988
$GNGGA,120227.00,3416.36302086,N,12039.31546620,W,2,13,0.7,8.425,M,-37.368,M,7.0,0135*61
$PYRTM,2024,123.501701814861,14.611349224988
$GNHDT,301.995,T*2C
$PYRTM,2024,123.501707543206,14.611354953345
$GNGGA,120227.50,3416.36323699,N,12039.31629327,W,2,13,0.7,8.319,M,-37.368,M,7.4,0135*6B
$PYRTM,2024,123.501707543206,14.611354953345
$GNHDT,302.033,T*2A
$PYRTM,2024,123.501713387060,14.611360797199
$GNGGA,120228.00,3416.36342666,N,12039.31713405,W,2,13,0.7,8.064,M,-37.368,M,7.0,0135*64
$PYRTM,2024,123.501713387060,14.611360797199
$GNHDT,301.960,T*26
$PYRTM,2024,123.501719115521,14.611366525660
$GNGGA,120228.50,3416.36360342,N,12039.31796255,W,2,13,0.7,7.754,M,-37.368,M,7.4,0135*63
$PYRTM,2024,123.501719115521,14.611366525660
$GNHDT,301.951,T*24
$PYRTM,2024,123.501724966389,14.611372376528
