$PYRTM,2024,121.639525636493,12.749173046644
$GNGGA,152055.00,3240.83421533,N,11713.86894456,W,2,14,0.7,6.661,M,-35.703,M,6.0,0135*65
$PYRTM,2024,121.639525636493,12.749173046644
$GNHDT,176.873,T*27
$PYRTM,2024,121.639531366123,12.749178776273
$GNGGA,152055.50,3240.83288156,N,11713.86888779,W,2,14,0.7,6.664,M,-35.703,M,6.4,0135*60
$PYRTM,2024,121.639531366123,12.749178776273
$GNHDT,177.065,T*29
$PYRTM,2024,121.639537214965,12.749184625104
$GNGGA,152056.00,3240.83154701,N,11713.86882309,W,2,14,0.7,6.656,M,-35.703,M,7.0,0135*6D
$PYRTM,2024,121.639537214965,12.749184625104
$GNHDT,176.804,T*27
$PYRTM,2024,121.639542938333,12.749190348472
$GNGGA,152056.50,3240.83021337,N,11713.86875511,W,2,14,0.7,6.637,M,-35.703,M,7.4,0135*6E
$PYRTM,2024,121.639542938333,12.749190348472
$GNHDT,176.816,T*24
$PYRTM,2024,121.639548787975,12.749196198125
$GNGGA,152057.00,3240.82887923,N,11713.86868645,W,2,14,0.7,6.620,M,-35.703,M,7.0,0135*6C
$PYRTM,2024,121.639548787975,12.749196198125
$GNHDT,176.603,T*2E
$PYRTM,2024,121.639554512847,12.749201922986
$GNGGA,152057.50,3240.82754363,N,11713.86862207,W,2,14,0.7,6.603,M,-35.703,M,7.4,0135*6B
$PYRTM,2024,121.639554512847,12.749201922986
$GNHDT,176.471,T*29
$PYRTM,2024,121.639560358762,12.749207768900
$GNGGA,152058.00,3240.82620571,N,11713.86855923,W,2,14,0.7,6.590,M,-35.703,M,7.0,0135*62
$PYRTM,2024,121.639560358762,12.749207768900
$GNHDT,176.232,T*28
$PYRTM,2024,121.639566087697,12.749213497836
$GNGGA,152058.50,3240.82486549,N,11713.86849991,W,2,14,0.7,6.579,M,-35.704,M,7.4,0135*62
$PYRTM,2024,121.639566087697,12.749213497836
$GNHDT,176.172,T*2F
$PYRTM,2024,121.639571939201,12.749219349340
$GNGGA,152059.00,3240.82352265,N,11713.86844645,W,2,14,0.7,6.561,M,-35.704,M,4.0,0135*64
$PYRTM,2024,121.639571939201,12.749219349340
$GNHDT,176.183,T*21
$PYRTM,2024,121.639577660891,12.749225071030
$GNGGA,152059.50,3240.82217570,N,11713.86838981,W,2,14,0.7,6.542,M,-35.704,M,4.4,0135*6B
$PYRTM,2024,121.639577660891,12.749225071030
$GNHDT,175.978,T*2E
$PYRTM,2024,121.639583511609,12.749230921759
$GNGGA,152100.00,3240.82083135,N,11713.86832696,W,2,14,0.7,6.537,M,-35.704,M,5.0,0135*6D
$PYRTM,2024,121.639583511609,12.749230921759
$GNHDT,175.728,T*25
$PYRTM,2024,121.639589239039,12.749236649178
$GNGGA,152100.50,3240.81949135,N,11713.86825508,W,2,14,0.7,6.551,M,-35.704,M,5.4,0135*62
$PYRTM,2024,121.639589239039,12.749236649178
$GNHDT,175.703,T*2C
$PYRTM,2024,121.639595081331,12.749242491470
$GNGGA,152101.00,3240.81815663,N,11713.86817508,W,2,14,0.7,6.592,M,-35.704,M,6.0,0135*63
$PYRTM,2024,121.639595081331,12.749242491470
$GNHDT,175.583,T*26
$PYRTM,2024,121.639600810764,12.749248220903
$GNGGA,152101.50,3240.81682849,N,11713.86808932,W,2,14,0.7,6.649,M,-35.704,M,6.4,0135*6A
$PYRTM,2024,121.639600810764,12.749248220903
$GNHDT,175.477,T*2C
$PYRTM,2024,121.639606656979,12.749254067118
$GNGGA,152102.00,3240.81549927,N,11713.86799816,W,2,14,0.7,6.703,M,-35.704,M,7.0,0135*6B
$PYRTM,2024,121.639606656979,12.749254067118
$GNHDT,175.344,T*2B
$PYRTM,2024,121.639612382627,12.749259792778
$GNGGA,152102.50,3240.81416393,N,11713.86790467,W,2,14,0.7,6.732,M,-35.704,M,7.4,0135*65
$PYRTM,2024,121.639612382627,12.749259792778
$GNHDT,175.453,T*2A
$PYRTM,2024,121.639618232766,12.749265642905
$GNGGA,152103.00,3240.81282618,N,11713.86781664,W,2,14,0.7,6.723,M,-35.704,M,7.0,0135*69
$PYRTM,2024,121.639618232766,12.749265642905
$GNHDT,175.459,T*20
$PYRTM,2024,121.639623955868,12.749271366007
$GNGGA,152103.50,3240.81148790,N,11713.86772948,W,2,14,0.7,6.701,M,-35.704,M,7.4,0135*61
$PYRTM,2024,121.639623955868,12.749271366007
$GNHDT,175.295,T*26
$PYRTM,2024,121.639629803171,12.749277213310
$GNGGA,152104.00,3240.81014951,N,11713.86764787,W,2,14,0.7,6.658,M,-35.704,M,7.0,0135*6B
$PYRTM,2024,121.639629803171,12.749277213310
$GNHDT,175.092,T*23
$PYRTM,2024,121.639635535961,12.749282946100
$GNGGA,152104.50,3240.80881320,N,11713.86756503,W,2,14,0.7,6.616,M,-35.705,M,7.4,0135*67
$PYRTM,2024,121.639635535961,12.749282946100
$GNHDT,175.050,T*2D
$PYRTM,2024,121.639641381794,12.749288791933
$GNGGA,152105.00,3240.80747506,N,11713.86747921,W,2,14,0.7,6.574,M,-35.705,M,4.0,0135*68
$PYRTM,2024,121.639641381794,12.749288791933
$GNHDT,174.876,T*20
$PYRTM,2024,121.639647105000,12.749294515139
$GNGGA,152105.50,3240.80613251,N,11713.86738704,W,2,14,0.7,6.536,M,-35.705,M,4.4,0135*6B
$PYRTM,2024,121.639647105000,12.749294515139
$GNHDT,174.958,T*2D
$PYRTM,2024,121.639652952454,12.749300362593
$GNGGA,152106.00,3240.80478771,N,11713.86729559,W,2,14,0.7,6.515,M,-35.705,M,5.0,0135*6B
$PYRTM,2024,121.639652952454,12.749300362593
$GNHDT,174.813,T*23
$PYRTM,2024,121.639658681111,12.749306091250
$GNGGA,152106.50,3240.80344667,N,11713.86719623,W,2,14,0.7,6.518,M,-35.705,M,5.4,0135*64
$PYRTM,2024,121.639658681111,12.749306091250
$GNHDT,174.736,T*2B
$PYRTM,2024,121.639664524502,12.749311934641
$GNGGA,152107.00,3240.80210725,N,11713.86709438,W,2,14,0.7,6.540,M,-35.705,M,6.0,0135*64
$PYRTM,2024,121.639664524502,12.749311934641
$GNHDT,174.732,T*2F
$PYRTM,2024,121.639670255150,12.749317665289
$GNGGA,152107.50,3240.80076865,N,11713.86699121,W,2,14,0.7,6.578,M,-35.705,M,6.4,0135*62
$PYRTM,2024,121.639670255150,12.749317665289
$GNHDT,174.814,T*24
$PYRTM,2024,121.639676108495,12.749323518634
$GNGGA,152108.00,3240.79943255,N,11713.86689025,W,2,14,0.7,6.617,M,-35.705,M,7.0,0135*63
$PYRTM,2024,121.639676108495,12.749323518634
$GNHDT,174.739,T*24
$PYRTM,2024,121.639681826065,12.749329236204
$GNGGA,152108.50,3240.79809171,N,11713.86679300,W,2,14,0.7,6.652,M,-35.705,M,7.4,0135*62
$PYRTM,2024,121.639681826065,12.749329236204
$GNHDT,174.656,T*2C
$PYRTM,2024,121.639687674583,12.749335084722
$GNGGA,152109.00,3240.79674778,N,11713.86669892,W,2,14,0.7,6.670,M,-35.705,M,7.0,0135*68
$PYRTM,2024,121.639687674583,12.749335084722
$GNHDT,174.498,T*2C
$PYRTM,2024,121.639693405243,12.749340815382
$GNGGA,152109.50,3240.79540655,N,11713.86660378,W,2,14,0.7,6.673,M,-35.705,M,7.4,0135*66
$PYRTM,2024,121.639693405243,12.749340815382
$GNHDT,174.372,T*2F
$PYRTM,2024,121.639699255359,12.749346665498
$GNGGA,152110.00,3240.79406908,N,11713.86650971,W,2,14,0.7,6.676,M,-35.705,M,7.0,0135*6E
$PYRTM,2024,121.639699255359,12.749346665498
$GNHDT,174.197,T*26
$PYRTM,2024,121.639704976667,12.749352386806
$GNGGA,152110.50,3240.79273347,N,11713.86641414,W,2,14,0.7,6.671,M,-35.706,M,7.4,0135*60
$PYRTM,2024,121.639704976667,12.749352386806
$GNHDT,174.423,T*2C
$PYRTM,2024,121.639710823935,12.749358234074
$GNGGA,152111.00,3240.79139780,N,11713.86631689,W,2,14,0.7,6.666,M,-35.706,M,4.0,0135*66
$PYRTM,2024,121.639710823935,12.749358234074
$GNHDT,174.336,T*2F
$PYRTM,2024,121.639716552477,12.749363962616
$GNGGA,152111.50,3240.79006789,N,11713.86621505,W,2,14,0.7,6.670,M,-35.706,M,4.4,0135*62
$PYRTM,2024,121.639716552477,12.749363962616
$GNHDT,174.261,T*2C
$PYRTM,2024,121.639722397824,12.749369807963
$GNGGA,152112.00,3240.78873454,N,11713.86610992,W,2,14,0.7,6.670,M,-35.706,M,5.0,0135*69
$PYRTM,2024,121.639722397824,12.749369807963
$GNHDT,174.051,T*2D
$PYRTM,2024,121.639728122234,12.749375532384
$GNGGA,152112.50,3240.78740240,N,11713.86600064,W,2,14,0.7,6.665,M,-35.706,M,5.4,0135*61
$PYRTM,2024,121.639728122234,12.749375532384
$GNHDT,174.225,T*2C
$PYRTM,2024,121.639733975880,12.749381386019
$GNGGA,152113.00,3240.78607169,N,11713.86589062,W,2,14,0.7,6.663,M,-35.706,M,6.0,0135*6A
$PYRTM,2024,121.639733975880,12.749381386019
$GNHDT,174.460,T*2B
$PYRTM,2024,121.639739700706,12.749387110845
$GNGGA,152113.50,3240.78473859,N,11713.86577930,W,2,14,0.7,6.654,M,-35.706,M,6.4,0135*6B
$PYRTM,2024,121.639739700706,12.749387110845
$GNHDT,174.393,T*20
$PYRTM,2024,121.639745547326,12.749392957465
$GNGGA,152114.00,3240.78340194,N,11713.86566749,W,2,14,0.7,6.637,M,-35.706,M,7.0,0135*66
$PYRTM,2024,121.639745547326,12.749392957465
$GNHDT,174.483,T*26
$PYRTM,2024,121.639751270532,12.749398680671
$GNGGA,152114.50,3240.78206796,N,11713.86555715,W,2,14,0.7,6.623,M,-35.706,M,7.4,0135*6C
$PYRTM,2024,121.639751270532,12.749398680671
$GNHDT,174.651,T*2B
$PYRTM,2024,121.639757131308,12.749404541447
$GNGGA,152115.00,3240.78073401,N,11713.86544515,W,2,14,0.7,6.623,M,-35.706,M,7.0,0135*63
$PYRTM,2024,121.639757131308,12.749404541447
$GNHDT,174.804,T*25
$PYRTM,2024,121.639762847975,12.749410258113
$GNGGA,152115.50,3240.77940084,N,11713.86533469,W,2,14,0.7,6.631,M,-35.706,M,7.4,0135*64
$PYRTM,2024,121.639762847975,12.749410258113
$GNHDT,174.902,T*22
$PYRTM,2024,121.639768700405,12.749416110544
$GNGGA,152116.00,3240.77807198,N,11713.86522836,W,2,14,0.7,6.655,M,-35.706,M,7.0,0135*6C
$PYRTM,2024,121.639768700405,12.749416110544
$GNHDT,175.092,T*23
$PYRTM,2024,121.639774420718,12.749421830856
$GNGGA,152116.50,3240.77674661,N,11713.86512813,W,2,14,0.7,6.697,M,-35.707,M,7.4,0135*6D
$PYRTM,2024,121.639774420718,12.749421830856
$GNHDT,175.145,T*28
$PYRTM,2024,121.639780267234,12.749427677373
$GNGGA,152117.00,3240.77541593,N,11713.86503370,W,2,14,0.7,6.731,M,-35.707,M,4.0,0135*66
$PYRTM,2024,121.639780267234,12.749427677373
$GNHDT,175.248,T*26
$PYRTM,2024,121.639785993449,12.749433403588
$GNGGA,152117.50,3240.77408227,N,11713.86494474,W,2,14,0.7,6.751,M,-35.707,M,4.4,0135*69
$PYRTM,2024,121.639785993449,12.749433403588
$GNHDT,175.236,T*2F
$PYRTM,2024,121.639791843588,12.749439253727
$GNGGA,152118.00,3240.77274692,N,11713.86486059,W,2,14,0.7,6.760,M,-35.707,M,5.0,0135*6B
$PYRTM,2024,121.639791843588,12.749439253727
$GNHDT,175.320,T*29
$PYRTM,2024,121.639797567037,12.749444977176
$GNGGA,152118.50,3240.77141334,N,11713.86477471,W,2,14,0.7,6.756,M,-35.707,M,5.4,0135*63
$PYRTM,2024,121.639797567037,12.749444977176
$GNHDT,175.305,T*2E
$PYRTM,2024,121.639803418449,12.749450828588
$GNGGA,152119.00,3240.77007764,N,11713.86468544,W,2,14,0.7,6.748,M,-35.707,M,6.0,0135*64
$PYRTM,2024,121.639803418449,12.749450828588
$GNHDT,175.231,T*28
$PYRTM,2024,121.639809142789,12.749456552940
$GNGGA,152119.50,3240.76874425,N,11713.86459197,W,2,14,0.7,6.732,M,-35.707,M,6.4,0135*6B
$PYRTM,2024,121.639809142789,12.749456552940
$GNHDT,175.450,T*29
$PYRTM,2024,121.639815001065,12.749462411215
$GNGGA,152120.00,3240.76741123,N,11713.86449578,W,2,14,0.7,6.719,M,-35.707,M,7.0,0135*66
$PYRTM,2024,121.639815001065,12.749462411215
$GNHDT,175.665,T*2D
$PYRTM,2024,121.639820716065,12.749468126204
$GNGGA,152120.50,3240.76607697,N,11713.86439851,W,2,14,0.7,6.713,M,-35.707,M,7.4,0135*67
$PYRTM,2024,121.639820716065,12.749468126204
$GNHDT,175.521,T*2E
$PYRTM,2024,121.639826565914,12.749473976053
$GNGGA,152121.00,3240.76473734,N,11713.86429730,W,2,14,0.7,6.703,M,-35.707,M,7.0,0135*66
$PYRTM,2024,121.639826565914,12.749473976053
$GNHDT,175.390,T*22
$PYRTM,2024,121.639832289444,12.749479699595
$GNGGA,152121.50,3240.76339568,N,11713.86419659,W,2,14,0.7,6.688,M,-35.707,M,7.4,0135*6A
$PYRTM,2024,121.639832289444,12.749479699595
$GNHDT,175.233,T*2A
$PYRTM,2024,121.639838136979,12.749485547118
$GNGGA,152122.00,3240.76205262,N,11713.86410401,W,2,14,0.7,6.672,M,-35.707,M,7.0,0135*68
$PYRTM,2024,121.639838136979,12.749485547118
$GNHDT,175.341,T*2E
$PYRTM,2024,121.639843869051,12.749491279190
$GNGGA,152122.50,3240.76071029,N,11713.86400990,W,2,14,0.7,6.654,M,-35.708,M,7.4,0135*6A
$PYRTM,2024,121.639843869051,12.749491279190
$GNHDT,175.225,T*2D
$PYRTM,2024,121.639849710046,12.749497120185
$GNGGA,152123.00,3240.75936956,N,11713.86392316,W,2,14,0.7,6.652,M,-35.708,M,4.0,0135*6F
$PYRTM,2024,121.639849710046,12.749497120185
$GNHDT,175.158,T*24
$PYRTM,2024,121.639855437407,12.749502847558
$GNGGA,152123.50,3240.75803680,N,11713.86384014,W,2,14,0.7,6.668,M,-35.708,M,4.4,0135*62
$PYRTM,2024,121.639855437407,12.749502847558
$GNHDT,175.100,T*29
$PYRTM,2024,121.639861292083,12.749508702222
$GNGGA,152124.00,3240.75670853,N,11713.86376175,W,2,14,0.7,6.700,M,-35.708,M,5.0,0135*6B
$PYRTM,2024,121.639861292083,12.749508702222
$GNHDT,175.123,T*28
$PYRTM,2024,121.639867017963,12.749514428102
$GNGGA,152124.50,3240.75538320,N,11713.86368374,W,2,14,0.7,6.745,M,-35.708,M,5.4,0135*67
$PYRTM,2024,121.639867017963,12.749514428102
$GNHDT,175.393,T*21
$PYRTM,2024,121.639872857535,12.749520267674
$GNGGA,152125.00,3240.75405868,N,11713.86360449,W,2,14,0.7,6.782,M,-35.708,M,6.0,0135*66
$PYRTM,2024,121.639872857535,12.749520267674
$GNHDT,175.457,T*2E
$PYRTM,2024,121.639878595127,12.749526005266
$GNGGA,152125.50,3240.75272692,N,11713.86352217,W,2,14,0.7,6.791,M,-35.708,M,6.4,0135*64
$PYRTM,2024,121.639878595127,12.749526005266
$GNHDT,175.532,T*2C
$PYRTM,2024,121.639884432315,12.749531842465
$GNGGA,152126.00,3240.75139488,N,11713.86343716,W,2,14,0.7,6.782,M,-35.708,M,7.0,0135*64
$PYRTM,2024,121.639884432315,12.749531842465
$GNHDT,175.527,T*28
$PYRTM,2024,121.639890160382,12.749537570521
$GNGGA,152126.50,3240.75006849,N,11713.86335182,W,2,14,0.7,6.769,M,-35.708,M,7.4,0135*66
$PYRTM,2024,121.639890160382,12.749537570521
$GNHDT,175.813,T*22
$PYRTM,2024,121.639896008530,12.749543418669
$GNGGA,152127.00,3240.74874352,N,11713.86327023,W,2,14,0.7,6.760,M,-35.708,M,7.0,0135*6B
$PYRTM,2024,121.639896008530,12.749543418669
$GNHDT,176.100,T*2A
$PYRTM,2024,121.639901735718,12.749549145856
$GNGGA,152127.50,3240.74741696,N,11713.86319476,W,2,14,0.7,6.755,M,-35.708,M,7.4,0135*61
$PYRTM,2024,121.639901735718,12.749549145856
$GNHDT,176.249,T*24
$PYRTM,2024,121.639907583021,12.749554993160
$GNGGA,152128.00,3240.74609381,N,11713.86312805,W,2,14,0.7,6.760,M,-35.708,M,7.0,0135*64
$PYRTM,2024,121.639907583021,12.749554993160
$GNHDT,176.275,T*2B
$PYRTM,2024,121.639913314664,12.749560724803
$GNGGA,152128.50,3240.74476781,N,11713.86306437,W,2,14,0.7,6.768,M,-35.709,M,7.4,0135*6A
$PYRTM,2024,121.639913314664,12.749560724803
$GNHDT,176.356,T*2B
$PYRTM,2024,121.639919154375,12.749566564514
$GNGGA,152129.00,3240.74343553,N,11713.86300709,W,2,14,0.7,6.768,M,-35.709,M,4.0,0135*6D
$PYRTM,2024,121.639919154375,12.749566564514
$GNHDT,176.498,T*2E
$PYRTM,2024,121.639924883519,12.749572293657
$GNGGA,152129.50,3240.74209987,N,11713.86295228,W,2,14,0.7,6.759,M,-35.709,M,4.4,0135*6F
$PYRTM,2024,121.639924883519,12.749572293657
$GNHDT,176.565,T*2D
$PYRTM,2024,121.639930734074,12.749578144213
$GNGGA,152130.00,3240.74075847,N,11713.86289734,W,2,14,0.7,6.738,M,-35.709,M,5.0,0135*61
$PYRTM,2024,121.639930734074,12.749578144213
$GNHDT,176.611,T*2D
$PYRTM,2024,121.639936463264,12.749583873403
$GNGGA,152130.50,3240.73942003,N,11713.86283604,W,2,14,0.7,6.720,M,-35.709,M,5.4,0135*63
$PYRTM,2024,121.639936463264,12.749583873403
$GNHDT,176.519,T*26
$PYRTM,2024,121.639942302801,12.749589712951
$GNGGA,152131.00,3240.73808544,N,11713.86277507,W,2,14,0.7,6.721,M,-35.709,M,6.0,0135*63
$PYRTM,2024,121.639942302801,12.749589712951
$GNHDT,176.340,T*2C
$PYRTM,2024,121.639948032940,12.749595443079
$GNGGA,152131.50,3240.73675076,N,11713.86271189,W,2,14,0.7,6.728,M,-35.709,M,6.4,0135*6F
$PYRTM,2024,121.639948032940,12.749595443079
$GNHDT,176.728,T*26
$PYRTM,2024,121.639953880556,12.749601290694
$GNGGA,152132.00,3240.73541490,N,11713.86264326,W,2,14,0.7,6.738,M,-35.709,M,7.0,0135*66
$PYRTM,2024,121.639953880556,12.749601290694
$GNHDT,176.645,T*2C
$PYRTM,2024,121.639959604676,12.749607014815
$GNGGA,152132.50,3240.73407563,N,11713.86257832,W,2,14,0.7,6.749,M,-35.709,M,7.4,0135*61
$PYRTM,2024,121.639959604676,12.749607014815
$GNHDT,176.682,T*27
$PYRTM,2024,121.639965456343,12.749612866481
$GNGGA,152133.00,3240.73273527,N,11713.86251932,W,2,14,0.7,6.752,M,-35.709,M,7.0,0135*69
$PYRTM,2024,121.639965456343,12.749612866481
$GNHDT,176.554,T*2F
$PYRTM,2024,121.639971178785,12.749618588924
$GNGGA,152133.50,3240.73139936,N,11713.86246882,W,2,14,0.7,6.756,M,-35.709,M,7.4,0135*61
$PYRTM,2024,121.639971178785,12.749618588924
$GNHDT,176.673,T*29
$PYRTM,2024,121.639977027593,12.749624437731
$GNGGA,152134.00,3240.73006403,N,11713.86242634,W,2,14,0.7,6.761,M,-35.709,M,7.0,0135*62
$PYRTM,2024,121.639977027593,12.749624437731
$GNHDT,176.569,T*21
$PYRTM,2024,121.639982753356,12.749630163495
$GNGGA,152134.50,3240.72872656,N,11713.86238859,W,2,14,0.7,6.764,M,-35.710,M,7.4,0135*6E
$PYRTM,2024,121.639982753356,12.749630163495
$GNHDT,176.711,T*2C
$PYRTM,2024,121.639988601366,12.749636011505
$GNGGA,152135.00,3240.72738518,N,11713.86235034,W,2,14,0.7,6.766,M,-35.710,M,4.0,0135*69
$PYRTM,2024,121.639988601366,12.749636011505
$GNHDT,176.714,T*29
$PYRTM,2024,121.639994334016,12.749641744155
$GNGGA,152135.50,3240.72604515,N,11713.86230865,W,2,14,0.7,6.768,M,-35.710,M,4.4,0135*6C
$PYRTM,2024,121.639994334016,12.749641744155
$GNHDT,176.564,T*2C
$PYRTM,2024,121.640000175046,12.749647585185
$GNGGA,152136.00,3240.72470551,N,11713.86225777,W,2,14,0.7,6.774,M,-35.710,M,5.0,0135*6B
$PYRTM,2024,121.640000175046,12.749647585185
$GNHDT,176.383,T*23
$PYRTM,2024,121.640005901782,12.749653311921
$GNGGA,152136.50,3240.72337179,N,11713.86220693,W,2,14,0.7,6.779,M,-35.710,M,5.4,0135*63
$PYRTM,2024,121.640005901782,12.749653311921
$GNHDT,176.705,T*29
$PYRTM,2024,121.640011747419,12.749659157569
$GNGGA,152137.00,3240.72203899,N,11713.86215504,W,2,14,0.7,6.793,M,-35.710,M,6.0,0135*6E
$PYRTM,2024,121.640011747419,12.749659157569
$GNHDT,176.735,T*2A
$PYRTM,2024,121.640017475868,12.749664886019
$GNGGA,152137.50,3240.72070642,N,11713.86210921,W,2,14,0.7,6.799,M,-35.710,M,6.4,0135*65
$PYRTM,2024,121.640017475868,12.749664886019
$GNHDT,176.613,T*2F
$PYRTM,2024,121.640023324931,12.749670735069
$GNGGA,152138.00,3240.71937280,N,11713.86207419,W,2,14,0.7,6.800,M,-35.710,M,7.0,0135*66
$PYRTM,2024,121.640023324931,12.749670735069
$GNHDT,176.631,T*2F
$PYRTM,2024,121.640029051887,12.749676462025
$GNGGA,152138.50,3240.71803916,N,11713.86203975,W,2,14,0.7,6.798,M,-35.710,M,7.4,0135*68
$PYRTM,2024,121.640029051887,12.749676462025
$GNHDT,176.686,T*23
$PYRTM,2024,121.640034898993,12.749682309132
$GNGGA,152139.00,3240.71670309,N,11713.86200852,W,2,14,0.7,6.778,M,-35.710,M,7.0,0135*6F
$PYRTM,2024,121.640034898993,12.749682309132
$GNHDT,176.641,T*28
$PYRTM,2024,121.640040623241,12.749688033380
$GNGGA,152139.50,3240.71536141,N,11713.86197498,W,2,14,0.7,6.742,M,-35.710,M,7.4,0135*6F
$PYRTM,2024,121.640040623241,12.749688033380
$GNHDT,176.400,T*2F
$PYRTM,2024,121.640046470660,12.749693880799
$GNGGA,152140.00,3240.71401833,N,11713.86193379,W,2,14,0.7,6.703,M,-35.710,M,7.0,0135*60
$PYRTM,2024,121.640046470660,12.749693880799
$GNHDT,176.256,T*2A
$PYRTM,2024,121.640052204468,12.749699614606
$GNGGA,152140.50,3240.71267314,N,11713.86188083,W,2,14,0.7,6.664,M,-35.711,M,7.4,0135*64
$PYRTM,2024,121.640052204468,12.749699614606
$GNHDT,176.299,T*29
$PYRTM,2024,121.640058043090,12.749705453229
$GNGGA,152141.00,3240.71133055,N,11713.86182174,W,2,14,0.7,6.643,M,-35.711,M,4.0,0135*65
$PYRTM,2024,121.640058043090,12.749705453229
$GNHDT,176.389,T*29
$PYRTM,2024,121.640063770868,12.749711181007
$GNGGA,152141.50,3240.70999580,N,11713.86175855,W,2,14,0.7,6.650,M,-35.711,M,4.4,0135*60
$PYRTM,2024,121.640063770868,12.749711181007
$GNHDT,176.213,T*2B
$PYRTM,2024,121.640069620509,12.749717030648
$GNGGA,152142.00,3240.70866491,N,11713.86169703,W,2,14,0.7,6.686,M,-35.711,M,5.0,0135*69
$PYRTM,2024,121.640069620509,12.749717030648
$GNHDT,176.035,T*2D
$PYRTM,2024,121.640075344734,12.749722754873
$GNGGA,152142.50,3240.70733531,N,11713.86164441,W,2,14,0.7,6.741,M,-35.711,M,5.4,0135*6E
$PYRTM,2024,121.640075344734,12.749722754873
$GNHDT,176.037,T*2F
$PYRTM,2024,121.640081193773,12.749728603912
$GNGGA,152143.00,3240.70600385,N,11713.86160183,W,2,14,0.7,6.795,M,-35.711,M,6.0,0135*63
$PYRTM,2024,121.640081193773,12.749728603912
$GNHDT,176.118,T*23
$PYRTM,2024,121.640086933194,12.749734343333
$GNGGA,152143.50,3240.70467070,N,11713.86156512,W,2,14,0.7,6.830,M,-35.711,M,6.4,0135*61
$PYRTM,2024,121.640086933194,12.749734343333
$GNHDT,175.915,T*25
$PYRTM,2024,121.640092770243,12.749740180382
$GNGGA,152144.00,3240.70333231,N,11713.86153651,W,2,14,0.7,6.843,M,-35.711,M,7.0,0135*62
$PYRTM,2024,121.640092770243,12.749740180382
$GNHDT,175.786,T*21
$PYRTM,2024,121.640098493472,12.749745903611
$GNGGA,152144.50,3240.70199962,N,11713.86149896,W,2,14,0.7,6.836,M,-35.711,M,7.4,0135*60
$PYRTM,2024,121.640098493472,12.749745903611
$GNHDT,175.854,T*21
$PYRTM,2024,121.640104344711,12.749751754850
$GNGGA,152145.00,3240.70067065,N,11713.86145353,W,2,14,0.7,6.825,M,-35.711,M,7.0,0135*62
$PYRTM,2024,121.640104344711,12.749751754850
$GNHDT,175.597,T*23
$PYRTM,2024,121.640110074456,12.749757484595
$GNGGA,152145.50,3240.69934369,N,11713.86139824,W,2,14,0.7,6.811,M,-35.711,M,7.4,0135*6C
$PYRTM,2024,121.640110074456,12.749757484595
$GNHDT,175.668,T*20
$PYRTM,2024,121.640115914468,12.749763324606
$GNGGA,152146.00,3240.69801675,N,11713.86132771,W,2,14,0.7,6.791,M,-35.711,M,7.0,0135*62
$PYRTM,2024,121.640115914468,12.749763324606
$GNHDT,175.619,T*26
$PYRTM,2024,121.640121642905,12.749769053044
$GNGGA,152146.50,3240.69668556,N,11713.86124805,W,2,14,0.7,6.763,M,-35.712,M,7.4,0135*65
$PYRTM,2024,121.640121642905,12.749769053044
$GNHDT,175.164,T*2B
$PYRTM,2024,121.640127489711,12.749774899850
$GNGGA,152147.00,3240.69535142,N,11713.86116638,W,2,14,0.7,6.725,M,-35.712,M,4.0,0135*6F
$PYRTM,2024,121.640127489711,12.749774899850
$GNHDT,175.033,T*28
$PYRTM,2024,121.640133215405,12.749780625544
$GNGGA,152147.50,3240.69401333,N,11713.86108352,W,2,14,0.7,6.696,M,-35.712,M,4.4,0135*63
$PYRTM,2024,121.640133215405,12.749780625544
$GNHDT,174.923,T*21
$PYRTM,2024,121.640139064861,12.749786475000
$GNGGA,152148.00,3240.69267807,N,11713.86100132,W,2,14,0.7,6.671,M,-35.712,M,5.0,0135*63
$PYRTM,2024,121.640139064861,12.749786475000
$GNHDT,174.627,T*2A
$PYRTM,2024,121.640144789907,12.749792200058
$GNGGA,152148.50,3240.69134243,N,11713.86091850,W,2,14,0.7,6.663,M,-35.712,M,5.4,0135*6A
$PYRTM,2024,121.640144789907,12.749792200058
$GNHDT,174.233,T*2B
$PYRTM,2024,121.640150635602,12.749798045741
$GNGGA,152149.00,3240.69000354,N,11713.86083608,W,2,14,0.7,6.670,M,-35.712,M,6.0,0135*6A
$PYRTM,2024,121.640150635602,12.749798045741
$GNHDT,173.949,T*2A
$PYRTM,2024,121.640156364931,12.749803775069
$GNGGA,152149.50,3240.68866322,N,11713.86074857,W,2,14,0.7,6.688,M,-35.712,M,6.4,0135*68
$PYRTM,2024,121.640156364931,12.749803775069
$GNHDT,174.169,T*27
$PYRTM,2024,121.640162210787,12.749809620937
$GNGGA,152150.00,3240.68732273,N,11713.86066249,W,2,14,0.7,6.698,M,-35.712,M,7.0,0135*6C
$PYRTM,2024,121.640162210787,12.749809620937
$GNHDT,174.027,T*2C
$PYRTM,2024,121.640167940949,12.749815351100
$GNGGA,152150.50,3240.68598514,N,11713.86057646,W,2,14,0.7,6.715,M,-35.712,M,7.4,0135*64
$PYRTM,2024,121.640167940949,12.749815351100
$GNHDT,173.898,T*27
$PYRTM,2024,121.640173790590,12.749821200729
$GNGGA,152151.00,3240.68465231,N,11713.86048984,W,2,14,0.7,6.732,M,-35.712,M,7.0,0135*6D
$PYRTM,2024,121.640173790590,12.749821200729
$GNHDT,173.971,T*21
$PYRTM,2024,121.640179512141,12.749826922280
$GNGGA,152151.50,3240.68332334,N,11713.86039365,W,2,14,0.7,6.758,M,-35.712,M,7.4,0135*62
$PYRTM,2024,121.640179512141,12.749826922280
$GNHDT,173.874,T*25
$PYRTM,2024,121.640185361586,12.749832771725
$GNGGA,152152.00,3240.68200269,N,11713.86029725,W,2,14,0.7,6.805,M,-35.712,M,7.0,0135*6F
$PYRTM,2024,121.640185361586,12.749832771725
$GNHDT,174.000,T*29
$PYRTM,2024,121.640191087350,12.749838497488
$GNGGA,152152.50,3240.68068391,N,11713.86019604,W,2,14,0.7,6.845,M,-35.713,M,7.4,0135*60
$PYRTM,2024,121.640191087350,12.749838497488
$GNHDT,174.145,T*29
$PYRTM,2024,121.640196933090,12.749844343229
$GNGGA,152153.00,3240.67935683,N,11713.86009242,W,2,14,0.7,6.872,M,-35.713,M,4.0,0135*68
$PYRTM,2024,121.640196933090,12.749844343229
$GNHDT,174.138,T*23
$PYRTM,2024,121.640202658866,12.749850069005
$GNGGA,152153.50,3240.67802231,N,11713.85998916,W,2,14,0.7,6.861,M,-35.713,M,4.4,0135*6B
$PYRTM,2024,121.640202658866,12.749850069005
$GNHDT,174.122,T*28
$PYRTM,2024,121.640208508032,12.749855918171
$GNGGA,152154.00,3240.67668420,N,11713.85988759,W,2,14,0.7,6.827,M,-35.713,M,5.0,0135*6E
$PYRTM,2024,121.640208508032,12.749855918171
$GNHDT,174.033,T*29
$PYRTM,2024,121.640214233403,12.749861643542
$GNGGA,152154.50,3240.67534766,N,11713.85979132,W,2,14,0.7,6.784,M,-35.713,M,5.4,0135*67
$PYRTM,2024,121.640214233403,12.749861643542
$GNHDT,173.948,T*2B
$PYRTM,2024,121.640220081215,12.749867491354
$GNGGA,152155.00,3240.67400829,N,11713.85970068,W,2,14,0.7,6.747,M,-35.713,M,6.0,0135*6E
$PYRTM,2024,121.640220081215,12.749867491354
$GNHDT,173.940,T*23
$PYRTM,2024,121.640225807280,12.749873217419
$GNGGA,152155.50,3240.67267325,N,11713.85961064,W,2,14,0.7,6.714,M,-35.713,M,6.4,0135*65
$PYRTM,2024,121.640225807280,12.749873217419
$GNHDT,173.901,T*26
$PYRTM,2024,121.640231660405,12.749879070544
$GNGGA,152156.00,3240.67133602,N,11713.85951817,W,2,14,0.7,6.703,M,-35.713,M,7.0,0135*6D
$PYRTM,2024,121.640231660405,12.749879070544
$GNHDT,174.015,T*2D
$PYRTM,2024,121.640237388299,12.749884798437
$GNGGA,152156.50,3240.66999953,N,11713.85942468,W,2,14,0.7,6.702,M,-35.713,M,7.4,0135*69
$PYRTM,2024,121.640237388299,12.749884798437
$GNHDT,173.859,T*2A
$PYRTM,2024,121.640243230810,12.749890640949
$GNGGA,152157.00,3240.66866253,N,11713.85932102,W,2,14,0.7,6.726,M,-35.713,M,7.0,0135*6B
$PYRTM,2024,121.640243230810,12.749890640949
$GNHDT,173.765,T*2A
$PYRTM,2024,121.640248955764,12.749896365903
$GNGGA,152157.50,3240.66732560,N,11713.85921326,W,2,14,0.7,6.747,M,-35.713,M,7.4,0135*62
$PYRTM,2024,121.640248955764,12.749896365903
$GNHDT,173.985,T*2A
$PYRTM,2024,121.640254804063,12.749902214201
$GNGGA,152158.00,3240.66598637,N,11713.85910164,W,2,14,0.7,6.766,M,-35.713,M,7.0,0135*6A
$PYRTM,2024,121.640254804063,12.749902214201
$GNHDT,173.958,T*2A
$PYRTM,2024,121.640260540023,12.749907950162
$GNGGA,152158.50,3240.66464919,N,11713.85898726,W,2,14,0.7,6.786,M,-35.714,M,7.4,0135*62
$PYRTM,2024,121.640260540023,12.749907950162
$GNHDT,173.920,T*25
$PYRTM,2024,121.640266377222,12.749913787373
$GNGGA,152159.00,3240.66331369,N,11713.85887483,W,2,14,0.7,6.797,M,-35.714,M,4.0,0135*69
$PYRTM,2024,121.640266377222,12.749913787373
$GNHDT,174.095,T*25
$PYRTM,2024,121.640272103958,12.749919514097
$GNGGA,152159.50,3240.66198225,N,11713.85876155,W,2,14,0.7,6.814,M,-35.714,M,4.4,0135*64
$PYRTM,2024,121.640272103958,12.749919514097
$GNHDT,174.171,T*2E
$PYRTM,2024,121.640277953854,12.749925363993
$GNGGA,152200.00,3240.66065662,N,11713.85865621,W,2,14,0.7,6.845,M,-35.714,M,5.0,0135*6D
$PYRTM,2024,121.640277953854,12.749925363993
$GNHDT,174.113,T*2A
$PYRTM,2024,121.640283679271,12.749931089410
$GNGGA,152200.50,3240.65933018,N,11713.85855561,W,2,14,0.7,6.870,M,-35.714,M,5.4,0135*6C
$PYRTM,2024,121.640283679271,12.749931089410
$GNHDT,173.848,T*2A
$PYRTM,2024,121.640289530799,12.749936941389
$GNGGA,152201.00,3240.65800233,N,11713.85846829,W,2,14,0.7,6.866,M,-35.714,M,6.0,0135*61
$PYRTM,2024,121.640289530799,12.749936941389
$GNHDT,173.804,T*22
$PYRTM,2024,121.640295252454,12.749942662593
$GNGGA,152201.50,3240.65666682,N,11713.85838200,W,2,14,0.7,6.844,M,-35.714,M,6.4,0135*68
$PYRTM,2024,121.640295252454,12.749942662593
$GNHDT,173.768,T*27
$PYRTM,2024,121.640301103218,12.749948513356
$GNGGA,152202.00,3240.65532757,N,11713.85829004,W,2,14,0.7,6.794,M,-35.714,M,7.0,0135*64
$PYRTM,2024,121.640301103218,12.749948513356
$GNHDT,173.589,T*2A
$PYRTM,2024,121.640306835799,12.749954245938
$GNGGA,152202.50,3240.65398824,N,11713.85819080,W,2,14,0.7,6.745,M,-35.714,M,7.4,0135*6B
$PYRTM,2024,121.640306835799,12.749954245938
$GNHDT,173.583,T*20
$PYRTM,2024,121.640312674468,12.749960084606
$GNGGA,152203.00,3240.65264607,N,11713.85807459,W,2,14,0.7,6.700,M,-35.714,M,7.0,0135*68
$PYRTM,2024,121.640312674468,12.749960084606
$GNHDT,173.476,T*2B
$PYRTM,2024,121.640318407106,12.749965817245
$GNGGA,152203.50,3240.65130793,N,11713.85794222,W,2,14,0.7,6.685,M,-35.714,M,7.4,0135*64
$PYRTM,2024,121.640318407106,12.749965817245
$GNHDT,173.450,T*2F
$PYRTM,2024,121.640324247257,12.749971657396
$GNGGA,152204.00,3240.64998097,N,11713.85780860,W,2,14,0.7,6.720,M,-35.714,M,7.0,0135*6D
$PYRTM,2024,121.640324247257,12.749971657396
$GNHDT,173.279,T*22
$PYRTM,2024,121.640329978819,12.749977388958
$GNGGA,152204.50,3240.64865901,N,11713.85767803,W,2,14,0.7,6.779,M,-35.715,M,7.4,0135*68
$PYRTM,2024,121.640329978819,12.749977388958
$GNHDT,172.946,T*24
$PYRTM,2024,121.640335826146,12.749983236285
$GNGGA,152205.00,3240.64732761,N,11713.85755588,W,2,14,0.7,6.833,M,-35.715,M,4.0,0135*60
$PYRTM,2024,121.640335826146,12.749983236285
$GNHDT,172.786,T*26
$PYRTM,2024,121.640341553588,12.749988963738
$GNGGA,152205.50,3240.64598736,N,11713.85743791,W,2,14,0.7,6.851,M,-35.715,M,4.4,0135*68
$PYRTM,2024,121.640341553588,12.749988963738
$GNHDT,172.861,T*20
$PYRTM,2024,121.640347399016,12.749994809155
$GNGGA,152206.00,3240.64463343,N,11713.85731807,W,2,14,0.7,6.828,M,-35.715,M,5.0,0135*63
$PYRTM,2024,121.640347399016,12.749994809155
$GNHDT,172.548,T*26
$PYRTM,2024,121.640353121968,12.750000532106
$GNGGA,152206.50,3240.64327937,N,11713.85719575,W,2,14,0.7,6.778,M,-35.715,M,5.4,0135*64
$PYRTM,2024,121.640353121968,12.750000532106
$GNHDT,172.257,T*2F
$PYRTM,2024,121.640358971944,12.750006382083
$GNGGA,152207.00,3240.64193210,N,11713.85706949,W,2,14,0.7,6.733,M,-35.715,M,6.0,0135*66
$PYRTM,2024,121.640358971944,12.750006382083
$GNHDT,172.291,T*25
$PYRTM,2024,121.640364700683,12.750012110822
$GNGGA,152207.50,3240.64060138,N,11713.85693556,W,2,14,0.7,6.725,M,-35.715,M,6.4,0135*6B
$PYRTM,2024,121.640364700683,12.750012110822
$GNHDT,172.081,T*26
$PYRTM,2024,121.640370548125,12.750017958264
$GNGGA,152208.00,3240.63928316,N,11713.85679421,W,2,14,0.7,6.758,M,-35.715,M,7.0,0135*67
$PYRTM,2024,121.640370548125,12.750017958264
$GNHDT,171.900,T*25
$PYRTM,2024,121.640376273079,12.750023683229
$GNGGA,152208.50,3240.63796866,N,11713.85665100,W,2,14,0.7,6.818,M,-35.715,M,7.4,0135*61
$PYRTM,2024,121.640376273079,12.750023683229
$GNHDT,172.282,T*27
$PYRTM,2024,121.640382119201,12.750029529340
$GNGGA,152209.00,3240.63664858,N,11713.85650040,W,2,14,0.7,6.876,M,-35.715,M,7.0,0135*6B
$PYRTM,2024,121.640382119201,12.750029529340
$GNHDT,172.199,T*2E
$PYRTM,2024,121.640387846366,12.750035256505
$GNGGA,152209.50,3240.63532096,N,11713.85634814,W,2,14,0.7,6.901,M,-35.715,M,7.4,0135*6A
$PYRTM,2024,121.640387846366,12.750035256505
$GNHDT,171.990,T*2C
$PYRTM,2024,121.640393691944,12.750041102083
$GNGGA,152210.00,3240.63398980,N,11713.85619638,W,2,14,0.7,6.899,M,-35.715,M,7.0,0135*64
$PYRTM,2024,121.640393691944,12.750041102083
$GNHDT,172.101,T*2F
$PYRTM,2024,121.640399421516,12.750046831655
$GNGGA,152210.50,3240.63265633,N,11713.85604737,W,2,14,0.7,6.866,M,-35.716,M,7.4,0135*60
$PYRTM,2024,121.640399421516,12.750046831655
$GNHDT,172.079,T*21
$PYRTM,2024,121.640405273704,12.750052683854
$GNGGA,152211.00,3240.63132602,N,11713.85590524,W,2,14,0.7,6.831,M,-35.716,M,4.0,0135*6C
$PYRTM,2024,121.640405273704,12.750052683854
$GNHDT,172.111,T*2E
$PYRTM,2024,121.640410996273,12.750058406412
$GNGGA,152211.50,3240.63000383,N,11713.85577028,W,2,14,0.7,6.816,M,-35.716,M,4.4,0135*64
$PYRTM,2024,121.640410996273,12.750058406412
$GNHDT,171.927,T*20
$PYRTM,2024,121.640416844769,12.750064254919
$GNGGA,152212.00,3240.62868669,N,11713.85563501,W,2,14,0.7,6.830,M,-35.716,M,5.0,0135*6E
$PYRTM,2024,121.640416844769,12.750064254919
$GNHDT,171.722,T*2B
$PYRTM,2024,121.640422567674,12.750069977813
$GNGGA,152212.50,3240.62736061,N,11713.85549681,W,2,14,0.7,6.853,M,-35.716,M,5.4,0135*63
$PYRTM,2024,121.640422567674,12.750069977813
$GNHDT,171.714,T*2E
$PYRTM,2024,121.640428414132,12.750075824271
$GNGGA,152213.00,3240.62602673,N,11713.85535613,W,2,14,0.7,6.865,M,-35.716,M,6.0,0135*66
$PYRTM,2024,121.640428414132,12.750075824271
$GNHDT,171.632,T*2B
$PYRTM,2024,121.640434142882,12.750081553021
$GNGGA,152213.50,3240.62469452,N,11713.85520811,W,2,14,0.7,6.870,M,-35.716,M,6.4,0135*65
$PYRTM,2024,121.640434142882,12.750081553021
$GNHDT,171.720,T*29
$PYRTM,2024,121.640439994051,12.750087404190
$GNGGA,152214.00,3240.62336214,N,11713.85505387,W,2,14,0.7,6.866,M,-35.716,M,7.0,0135*6F
$PYRTM,2024,121.640439994051,12.750087404190
$GNHDT,171.690,T*23
$PYRTM,2024,121.640445718819,12.750093128970
$GNGGA,152214.50,3240.62203366,N,11713.85489901,W,2,14,0.7,6.864,M,-35.716,M,7.4,0135*6E
$PYRTM,2024,121.640445718819,12.750093128970
$GNHDT,171.842,T*22
$PYRTM,2024,121.640451564317,12.750098974456
$GNGGA,152215.00,3240.62070649,N,11713.85473771,W,2,14,0.7,6.874,M,-35.716,M,7.0,0135*6D
$PYRTM,2024,121.640451564317,12.750098974456
$GNHDT,171.767,T*2A
$PYRTM,2024,121.640457289907,12.750104700046
$GNGGA,152215.50,3240.61938062,N,11713.85457511,W,2,14,0.7,6.887,M,-35.716,M,7.4,0135*6B
$PYRTM,2024,121.640457289907,12.750104700046
$GNHDT,171.806,T*22
$PYRTM,2024,121.640463138090,12.750110548229
$GNGGA,152216.00,3240.61805703,N,11713.85441530,W,2,14,0.7,6.909,M,-35.716,M,7.0,0135*65
$PYRTM,2024,121.640463138090,12.750110548229
$GNHDT,171.788,T*2B
$PYRTM,2024,121.640468864583,12.750116274722
$GNGGA,152216.50,3240.61673254,N,11713.85425861,W,2,14,0.7,6.933,M,-35.717,M,7.4,0135*6F
$PYRTM,2024,121.640468864583,12.750116274722
$GNHDT,171.880,T*2C
$PYRTM,2024,121.640474711597,12.750122121736
$GNGGA,152217.00,3240.61540810,N,11713.85410604,W,2,14,0.7,6.948,M,-35.717,M,4.0,0135*62
$PYRTM,2024,121.640474711597,12.750122121736
$GNHDT,171.924,T*23
$PYRTM,2024,121.640480438623,12.750127848762
$GNGGA,152217.50,3240.61407884,N,11713.85395376,W,2,14,0.7,6.944,M,-35.717,M,4.4,0135*6A
$PYRTM,2024,121.640480438623,12.750127848762
$GNHDT,171.946,T*27
$PYRTM,2024,121.640486288484,12.750133698843
$GNGGA,152218.00,3240.61274190,N,11713.85379809,W,2,14,0.7,6.925,M,-35.717,M,5.0,0135*6D
$PYRTM,2024,121.640486288484,12.750133698843
$GNHDT,171.906,T*23
$PYRTM,2024,121.640492017882,12.750139428021
$GNGGA,152218.50,3240.61140556,N,11713.85363806,W,2,14,0.7,6.896,M,-35.717,M,5.4,0135*6B
$PYRTM,2024,121.640492017882,12.750139428021
$GNHDT,172.138,T*25
$PYRTM,2024,121.640497864294,12.750145274433
$GNGGA,152219.00,3240.61006801,N,11713.85347341,W,2,14,0.7,6.878,M,-35.717,M,6.0,0135*6A
$PYRTM,2024,121.640497864294,12.750145274433
$GNHDT,172.262,T*29
$PYRTM,2024,121.640503591354,12.750151001505
$GNGGA,152219.50,3240.60873429,N,11713.85330702,W,2,14,0.7,6.873,M,-35.717,M,6.4,0135*6E
$PYRTM,2024,121.640503591354,12.750151001505
$GNHDT,172.232,T*2C
$PYRTM,2024,121.640509438519,12.750156848669
$GNGGA,152220.00,3240.60740189,N,11713.85314850,W,2,14,0.7,6.880,M,-35.717,M,7.0,0135*66
$PYRTM,2024,121.640509438519,12.750156848669
$GNHDT,172.382,T*26
$PYRTM,2024,121.640515162975,12.750162573113
$GNGGA,152220.50,3240.60607465,N,11713.85299435,W,2,14,0.7,6.914,M,-35.717,M,7.4,0135*65
$PYRTM,2024,121.640515162975,12.750162573113
$GNHDT,172.591,T*22
$PYRTM,2024,121.640521009919,12.750168420069
$GNGGA,152221.00,3240.60475650,N,11713.85285391,W,2,14,0.7,6.972,M,-35.717,M,7.0,0135*62
$PYRTM,2024,121.640521009919,12.750168420069
$GNHDT,172.825,T*20
$PYRTM,2024,121.640526736285,12.750174146424
$GNGGA,152221.50,3240.60343525,N,11713.85271322,W,2,14,0.7,7.035,M,-35.717,M,7.4,0135*68
$PYRTM,2024,121.640526736285,12.750174146424
$GNHDT,172.955,T*26
$PYRTM,2024,121.640532582118,12.750179992257
$GNGGA,152222.00,3240.60210263,N,11713.85257260,W,2,14,0.7,7.070,M,-35.717,M,7.0,0135*6A
$PYRTM,2024,121.640532582118,12.750179992257
$GNHDT,172.981,T*2F
$PYRTM,2024,121.640538313160,12.750185723310
$GNGGA,152222.50,3240.60075916,N,11713.85243658,W,2,14,0.7,7.051,M,-35.717,M,7.4,0135*6A
$PYRTM,2024,121.640538313160,12.750185723310
$GNHDT,173.004,T*2A
$PYRTM,2024,121.640544156991,12.750191567130
$GNGGA,152223.00,3240.59941058,N,11713.85229982,W,2,14,0.7,7.004,M,-35.717,M,4.0,0135*6A
$PYRTM,2024,121.640544156991,12.750191567130
$GNHDT,173.081,T*27
$PYRTM,2024,121.640549882986,12.750197293125
$GNGGA,152223.50,3240.59806898,N,11713.85216411,W,2,14,0.7,6.962,M,-35.717,M,4.4,0135*6E
$PYRTM,2024,121.640549882986,12.750197293125
$GNHDT,173.173,T*2B
$PYRTM,2024,121.640555733924,12.750203144062
$GNGGA,152224.00,3240.59673730,N,11713.85203088,W,2,14,0.7,6.929,M,-35.717,M,5.0,0135*67
$PYRTM,2024,121.640555733924,12.750203144062
$GNHDT,173.311,T*2D
$PYRTM,2024,121.640561458889,12.750208869028
$GNGGA,152224.50,3240.59541242,N,11713.85189137,W,2,14,0.7,6.936,M,-35.718,M,5.4,0135*61
$PYRTM,2024,121.640561458889,12.750208869028
$GNHDT,173.260,T*2A
$PYRTM,2024,121.640567300729,12.750214710868
$GNGGA,152225.00,3240.59408637,N,11713.85175489,W,2,14,0.7,6.955,M,-35.718,M,6.0,0135*6E
$PYRTM,2024,121.640567300729,12.750214710868
$GNHDT,173.390,T*24
$PYRTM,2024,121.640573031516,12.750220441655
$GNGGA,152225.50,3240.59275303,N,11713.85162205,W,2,14,0.7,6.962,M,-35.718,M,6.4,0135*61
$PYRTM,2024,121.640573031516,12.750220441655
$GNHDT,173.154,T*2E
$PYRTM,2024,121.640578876875,12.750226287014
$GNGGA,152226.00,3240.59140560,N,11713.85149344,W,2,14,0.7,6.937,M,-35.718,M,7.0,0135*69
$PYRTM,2024,121.640578876875,12.750226287014
$GNHDT,173.104,T*2B
$PYRTM,2024,121.640584603438,12.750232013576
$GNGGA,152226.50,3240.59005383,N,11713.85136095,W,2,14,0.7,6.898,M,-35.718,M,7.4,0135*60
$PYRTM,2024,121.640584603438,12.750232013576
$GNHDT,173.115,T*2B
$PYRTM,2024,121.640590454734,12.750237864873
$GNGGA,152227.00,3240.58870651,N,11713.85122028,W,2,14,0.7,6.851,M,-35.718,M,7.0,0135*67
$PYRTM,2024,121.640590454734,12.750237864873
$GNHDT,173.078,T*21
$PYRTM,2024,121.640596177836,12.750243587975
$GNGGA,152227.50,3240.58736330,N,11713.85107270,W,2,14,0.7,6.820,M,-35.718,M,7.4,0135*67
$PYRTM,2024,121.640596177836,12.750243587975
$GNHDT,172.921,T*25
$PYRTM,2024,121.640602025683,12.750249435822
$GNGGA,152228.00,3240.58602624,N,11713.85092583,W,2,14,0.7,6.811,M,-35.718,M,7.0,0135*6B
$PYRTM,2024,121.640602025683,12.750249435822
$GNHDT,172.799,T*28
$PYRTM,2024,121.640607753924,12.750255164074
$GNGGA,152228.50,3240.58469772,N,11713.85077823,W,2,14,0.7,6.842,M,-35.718,M,7.4,0135*6D
$PYRTM,2024,121.640607753924,12.750255164074
$GNHDT,172.803,T*24
$PYRTM,2024,121.640613602546,12.750261012685
$GNGGA,152229.00,3240.58337225,N,11713.85063331,W,2,14,0.7,6.890,M,-35.718,M,4.0,0135*67
$PYRTM,2024,121.640613602546,12.750261012685
$GNHDT,172.817,T*21
$PYRTM,2024,121.640619329120,12.750266739271
$GNGGA,152229.50,3240.58203933,N,11713.85048516,W,2,14,0.7,6.931,M,-35.718,M,4.4,0135*6C
$PYRTM,2024,121.640619329120,12.750266739271
$GNHDT,172.572,T*2F
$PYRTM,2024,121.640625173819,12.750272583970
$GNGGA,152230.00,3240.58069319,N,11713.85033828,W,2,14,0.7,6.943,M,-35.718,M,5.0,0135*61
$PYRTM,2024,121.640625173819,12.750272583970
$GNHDT,172.577,T*2A
$PYRTM,2024,121.640630899201,12.750278309340
$GNGGA,152230.50,3240.57934924,N,11713.85019119,W,2,14,0.7,6.921,M,-35.719,M,5.4,0135*6C
$PYRTM,2024,121.640630899201,12.750278309340
$GNHDT,172.643,T*2E
$PYRTM,2024,121.640636747917,12.750284158056
$GNGGA,152231.00,3240.57801451,N,11713.85005029,W,2,14,0.7,6.908,M,-35.719,M,6.0,0135*63
$PYRTM,2024,121.640636747917,12.750284158056
$GNHDT,172.654,T*28
$PYRTM,2024,121.640642476956,12.750289887106
$GNGGA,152231.50,3240.57668895,N,11713.84991415,W,2,14,0.7,6.908,M,-35.719,M,6.4,0135*69
$PYRTM,2024,121.640642476956,12.750289887106
$GNHDT,172.536,T*2F
$PYRTM,2024,121.640648325139,12.750295735278
$GNGGA,152232.00,3240.57536801,N,11713.84978127,W,2,14,0.7,6.915,M,-35.719,M,7.0,0135*60
$PYRTM,2024,121.640648325139,12.750295735278
$GNHDT,172.399,T*2C
$PYRTM,2024,121.640654051400,12.750301461539
$GNGGA,152232.50,3240.57404868,N,11713.84964578,W,2,14,0.7,6.935,M,-35.719,M,7.4,0135*6F
$PYRTM,2024,121.640654051400,12.750301461539
$GNHDT,172.461,T*2C
$PYRTM,2024,121.640659897488,12.750307307627
$GNGGA,152233.00,3240.57272723,N,11713.84950470,W,2,14,0.7,6.956,M,-35.719,M,7.0,0135*63
$PYRTM,2024,121.640659897488,12.750307307627
$GNHDT,172.659,T*25
$PYRTM,2024,121.640665623113,12.750313033252
$GNGGA,152233.50,3240.57140550,N,11713.84935973,W,2,14,0.7,6.976,M,-35.719,M,7.4,0135*69
$PYRTM,2024,121.640665623113,12.750313033252
$GNHDT,172.693,T*23
$PYRTM,2024,121.640671474190,12.750318884329
$GNGGA,152234.00,3240.57008561,N,11713.84921578,W,2,14,0.7,6.986,M,-35.719,M,7.0,0135*6D
$PYRTM,2024,121.640671474190,12.750318884329
$GNHDT,172.903,T*25
$PYRTM,2024,121.640677204479,12.750324614630
$GNGGA,152234.50,3240.56876561,N,11713.84907071,W,2,14,0.7,6.985,M,-35.719,M,7.4,0135*67
$PYRTM,2024,121.640677204479,12.750324614630
$GNHDT,172.903,T*25
$PYRTM,2024,121.640683046065,12.750330456215
$GNGGA,152235.00,3240.56744177,N,11713.84892485,W,2,14,0.7,6.967,M,-35.719,M,4.0,0135*67
$PYRTM,2024,121.640683046065,12.750330456215
$GNHDT,173.061,T*29
$PYRTM,2024,121.640688775093,12.750336185231
$GNGGA,152235.50,3240.56610712,N,11713.84877994,W,2,14,0.7,6.933,M,-35.719,M,4.4,0135*64
$PYRTM,2024,121.640688775093,12.750336185231
$GNHDT,173.167,T*2E
$PYRTM,2024,121.640694624572,12.750342034711
$GNGGA,152236.00,3240.56476965,N,11713.84863845,W,2,14,0.7,6.895,M,-35.719,M,5.0,0135*6E
$PYRTM,2024,121.640694624572,12.750342034711
$GNHDT,173.252,T*2B
$PYRTM,2024,121.640700348125,12.750347758264
$GNGGA,152236.50,3240.56343938,N,11713.84850563,W,2,14,0.7,6.874,M,-35.720,M,5.4,0135*6A
$PYRTM,2024,121.640700348125,12.750347758264
$GNHDT,173.379,T*23
$PYRTM,2024,121.640706190775,12.750353600926
$GNGGA,152237.00,3240.56211386,N,11713.84838241,W,2,14,0.7,6.880,M,-35.720,M,6.0,0135*62
$PYRTM,2024,121.640706190775,12.750353600926
$GNHDT,173.528,T*21
$PYRTM,2024,121.640711923808,12.750359333947
$GNGGA,152237.50,3240.56079065,N,11713.84826399,W,2,14,0.7,6.909,M,-35.720,M,6.4,0135*6A
$PYRTM,2024,121.640711923808,12.750359333947
$GNHDT,173.674,T*2B
$PYRTM,2024,121.640717768461,12.750365178600
$GNGGA,152238.00,3240.55946349,N,11713.84814533,W,2,14,0.7,6.950,M,-35.720,M,7.0,0135*65
$PYRTM,2024,121.640717768461,12.750365178600
$GNHDT,173.875,T*24
$PYRTM,2024,121.640723492975,12.750370903125
$GNGGA,152238.50,3240.55812948,N,11713.84802414,W,2,14,0.7,6.983,M,-35.720,M,7.4,0135*62
$PYRTM,2024,121.640723492975,12.750370903125
$GNHDT,173.939,T*2D
$PYRTM,2024,121.640729343681,12.750376753819
$GNGGA,152239.00,3240.55678590,N,11713.84790159,W,2,14,0.7,6.985,M,-35.720,M,7.0,0135*67
$PYRTM,2024,121.640729343681,12.750376753819
$GNHDT,174.020,T*2B
$PYRTM,2024,121.640735068229,12.750382478368
$GNGGA,152239.50,3240.55544473,N,11713.84778492,W,2,14,0.7,6.968,M,-35.720,M,7.4,0135*61
$PYRTM,2024,121.640735068229,12.750382478368
$GNHDT,173.901,T*26
$PYRTM,2024,121.640740917512,12.750388327650
$GNGGA,152240.00,3240.55410814,N,11713.84766234,W,2,14,0.7,6.951,M,-35.720,M,7.0,0135*6C
$PYRTM,2024,121.640740917512,12.750388327650
$GNHDT,173.960,T*21
$PYRTM,2024,121.640746649294,12.750394059433
$GNGGA,152240.50,3240.55277986,N,11713.84753679,W,2,14,0.7,6.949,M,-35.720,M,7.4,0135*62
$PYRTM,2024,121.640746649294,12.750394059433
$GNHDT,173.980,T*2F
$PYRTM,2024,121.640752493576,12.750399903727
$GNGGA,152241.00,3240.55145563,N,11713.84740776,W,2,14,0.7,6.960,M,-35.720,M,4.0,0135*63
$PYRTM,2024,121.640752493576,12.750399903727
$GNHDT,173.793,T*23
$PYRTM,2024,121.640758216157,12.750405626308
$GNGGA,152241.50,3240.55013296,N,11713.84727967,W,2,14,0.7,6.982,M,-35.720,M,4.4,0135*6E
$PYRTM,2024,121.640758216157,12.750405626308
$GNHDT,173.939,T*2D
$PYRTM,2024,121.640764064213,12.750411474352
$GNGGA,152242.00,3240.54880729,N,11713.84715715,W,2,14,0.7,6.985,M,-35.720,M,5.0,0135*62
$PYRTM,2024,121.640764064213,12.750411474352
$GNHDT,173.864,T*24
$PYRTM,2024,121.640769790127,12.750417200266
$GNGGA,152242.50,3240.54747934,N,11713.84703844,W,2,14,0.7,6.978,M,-35.721,M,5.4,0135*6A
$PYRTM,2024,121.640769790127,12.750417200266
$GNHDT,174.009,T*20
$PYRTM,2024,121.640775637049,12.750423047187
$GNGGA,152243.00,3240.54614883,N,11713.84691884,W,2,14,0.7,6.950,M,-35.721,M,6.0,0135*6F
$PYRTM,2024,121.640775637049,12.750423047187
$GNHDT,174.025,T*2E
$PYRTM,2024,121.640781366528,12.750428776667
$GNGGA,152243.50,3240.54481527,N,11713.84679304,W,2,14,0.7,6.919,M,-35.721,M,6.4,0135*6B
$PYRTM,2024,121.640781366528,12.750428776667
$GNHDT,173.970,T*20
$PYRTM,2024,121.640787213519,12.750434623657
$GNGGA,152244.00,3240.54347998,N,11713.84666187,W,2,14,0.7,6.878,M,-35.721,M,7.0,0135*68
$PYRTM,2024,121.640787213519,12.750434623657
$GNHDT,174.076,T*28
$PYRTM,2024,121.640792938125,12.750440348264
$GNGGA,152244.50,3240.54215115,N,11713.84653925,W,2,14,0.7,6.863,M,-35.721,M,7.4,0135*6E
$PYRTM,2024,121.640792938125,12.750440348264
$GNHDT,174.289,T*2A
$PYRTM,2024,121.640798790868,12.750446201007
$GNGGA,152245.00,3240.54082581,N,11713.84642217,W,2,14,0.7,6.879,M,-35.721,M,7.0,0135*6A
$PYRTM,2024,121.640798790868,12.750446201007
$GNHDT,174.397,T*24
$PYRTM,2024,121.640804511933,12.750451922072
$GNGGA,152245.50,3240.53950406,N,11713.84631328,W,2,14,0.7,6.913,M,-35.721,M,7.4,0135*60
$PYRTM,2024,121.640804511933,12.750451922072
$GNHDT,174.318,T*23
$PYRTM,2024,121.640810359780,12.750457769919
$GNGGA,152246.00,3240.53818351,N,11713.84621187,W,2,14,0.7,6.970,M,-35.721,M,7.0,0135*69
$PYRTM,2024,121.640810359780,12.750457769919
$GNHDT,174.418,T*24
$PYRTM,2024,121.640816086331,12.750463496470
$GNGGA,152246.50,3240.53686410,N,11713.84611661,W,2,14,0.7,7.033,M,-35.721,M,7.4,0135*60
$PYRTM,2024,121.640816086331,12.750463496470
$GNHDT,174.480,T*25
$PYRTM,2024,121.640821933912,12.750469344051
$GNGGA,152247.00,3240.53554444,N,11713.84603055,W,2,14,0.7,7.077,M,-35.721,M,4.0,0135*6C
$PYRTM,2024,121.640821933912,12.750469344051
$GNHDT,174.491,T*25
$PYRTM,2024,121.640827665301,12.750475075440
$GNGGA,152247.50,3240.53421819,N,11713.84594426,W,2,14,0.7,7.092,M,-35.721,M,4.4,0135*6C
$PYRTM,2024,121.640827665301,12.750475075440
$GNHDT,174.543,T*2B
$PYRTM,2024,121.640833509201,12.750480919340
$GNGGA,152248.00,3240.53288181,N,11713.84584837,W,2,14,0.7,7.060,M,-35.721,M,5.0,0135*6E
$PYRTM,2024,121.640833509201,12.750480919340
$GNHDT,174.569,T*23
$PYRTM,2024,121.640839233669,12.750486643808
$GNGGA,152248.50,3240.53154136,N,11713.84573774,W,2,14,0.7,6.995,M,-35.722,M,5.4,0135*60
$PYRTM,2024,121.640839233669,12.750486643808
$GNHDT,174.609,T*26
$PYRTM,2024,121.640845082836,12.750492492975
$GNGGA,152249.00,3240.53020519,N,11713.84561772,W,2,14,0.7,6.930,M,-35.722,M,6.0,0135*62
$PYRTM,2024,121.640845082836,12.750492492975
$GNHDT,174.719,T*26
$PYRTM,2024,121.640850809468,12.750498219606
$GNGGA,152249.50,3240.52887741,N,11713.84549713,W,2,14,0.7,6.892,M,-35.722,M,6.4,0135*6C
$PYRTM,2024,121.640850809468,12.750498219606
$GNHDT,174.482,T*27
$PYRTM,2024,121.640856659074,12.750504069213
$GNGGA,152250.00,3240.52755465,N,11713.84538220,W,2,14,0.7,6.876,M,-35.722,M,7.0,0135*68
$PYRTM,2024,121.640856659074,12.750504069213
$GNHDT,174.509,T*25
$PYRTM,2024,121.640862384618,12.750509794757
$GNGGA,152250.50,3240.52623613,N,11713.84527154,W,2,14,0.7,6.896,M,-35.722,M,7.4,0135*6A
$PYRTM,2024,121.640862384618,12.750509794757
$GNHDT,174.332,T*2B
$PYRTM,2024,121.640868231238,12.750515641377
$GNGGA,152251.00,3240.52491961,N,11713.84516158,W,2,14,0.7,6.947,M,-35.722,M,7.0,0135*68
$PYRTM,2024,121.640868231238,12.750515641377
$GNHDT,174.364,T*28
$PYRTM,2024,121.640873956979,12.750521367118
$GNGGA,152251.50,3240.52359932,N,11713.84505932,W,2,14,0.7,6.988,M,-35.722,M,7.4,0135*69
$PYRTM,2024,121.640873956979,12.750521367118
$GNHDT,174.144,T*28
$PYRTM,2024,121.640879801667,12.750527211806
$GNGGA,152252.00,3240.52227092,N,11713.84496747,W,2,14,0.7,7.005,M,-35.722,M,7.0,0135*6A
$PYRTM,2024,121.640879801667,12.750527211806
$GNHDT,174.152,T*2F
$PYRTM,2024,121.640885534479,12.750532944618
$GNGGA,152252.50,3240.52093969,N,11713.84487016,W,2,14,0.7,6.998,M,-35.722,M,7.4,0135*64
$PYRTM,2024,121.640885534479,12.750532944618
$GNHDT,174.081,T*20
$PYRTM,2024,121.640891377650,12.750538787789
$GNGGA,152253.00,3240.51960558,N,11713.84476450,W,2,14,0.7,6.967,M,-35.722,M,4.0,0135*67
$PYRTM,2024,121.640891377650,12.750538787789
$GNHDT,174.216,T*2C
$PYRTM,2024,121.640897108403,12.750544518542
$GNGGA,152253.50,3240.51827611,N,11713.84464992,W,2,14,0.7,6.938,M,-35.722,M,4.4,0135*60
$PYRTM,2024,121.640897108403,12.750544518542
$GNHDT,174.249,T*26
$PYRTM,2024,121.640902956516,12.750550366667
$GNGGA,152254.00,3240.51695478,N,11713.84453527,W,2,14,0.7,6.920,M,-35.722,M,5.0,0135*62
$PYRTM,2024,121.640902956516,12.750550366667
$GNHDT,174.405,T*28
$PYRTM,2024,121.640908679005,12.750556089144
$GNGGA,152254.50,3240.51564488,N,11713.84442468,W,2,14,0.7,6.940,M,-35.723,M,5.4,0135*6C
$PYRTM,2024,121.640908679005,12.750556089144
$GNHDT,174.576,T*2D
$PYRTM,2024,121.640914525370,12.750561935521
$GNGGA,152255.00,3240.51434613,N,11713.84431758,W,2,14,0.7,6.988,M,-35.723,M,6.0,0135*6B
$PYRTM,2024,121.640914525370,12.750561935521
$GNHDT,174.661,T*28
$PYRTM,2024,121.640920254572,12.750567664711
$GNGGA,152255.50,3240.51305065,N,11713.84421317,W,2,14,0.7,7.058,M,-35.723,M,6.4,0135*63
$PYRTM,2024,121.640920254572,12.750567664711
$GNHDT,174.688,T*2F
$PYRTM,2024,121.640926101748,12.750573511887
$GNGGA,152256.00,3240.51175336,N,11713.84411266,W,2,14,0.7,7.118,M,-35.723,M,7.0,0135*61
$PYRTM,2024,121.640926101748,12.750573511887
$GNHDT,174.779,T*20
$PYRTM,2024,121.640931829572,12.750579239711
$GNGGA,152256.50,3240.51043869,N,11713.84401454,W,2,14,0.7,7.125,M,-35.723,M,7.4,0135*6D
$PYRTM,2024,121.640931829572,12.750579239711
$GNHDT,174.995,T*2C
$PYRTM,2024,121.640937678137,12.750585088287
$GNGGA,152257.00,3240.50910638,N,11713.84391583,W,2,14,0.7,7.069,M,-35.723,M,7.0,0135*65
$PYRTM,2024,121.640937678137,12.750585088287
$GNHDT,175.086,T*26
$PYRTM,2024,121.640943400926,12.750590811065
$GNGGA,152257.50,3240.50776936,N,11713.84381814,W,2,14,0.7,6.961,M,-35.723,M,7.4,0135*69
$PYRTM,2024,121.640943400926,12.750590811065
$GNHDT,174.985,T*2D
$PYRTM,2024,121.640949248507,12.750596658646
$GNGGA,152258.00,3240.50643573,N,11713.84371463,W,2,14,0.7,6.855,M,-35.723,M,7.0,0135*68
$PYRTM,2024,121.640949248507,12.750596658646
$GNHDT,174.966,T*20
$PYRTM,2024,121.640954976215,12.750602386354
$GNGGA,152258.50,3240.50511210,N,11713.84361301,W,2,14,0.7,6.798,M,-35.723,M,7.4,0135*63
$PYRTM,2024,121.640954976215,12.750602386354
$GNHDT,174.923,T*21
$PYRTM,2024,121.640960821586,12.750608231725
$GNGGA,152259.00,3240.50380464,N,11713.84352155,W,2,14,0.7,6.806,M,-35.723,M,4.0,0135*60
$PYRTM,2024,121.640960821586,12.750608231725
$GNHDT,174.924,T*26
$PYRTM,2024,121.640966561991,12.750613972130
$GNGGA,152259.50,3240.50250877,N,11713.84343923,W,2,14,0.7,6.889,M,-35.723,M,4.4,0135*6D
$PYRTM,2024,121.640966561991,12.750613972130
$GNHDT,175.270,T*2D
$PYRTM,2024,121.640972401493,12.750619811632
$GNGGA,152300.00,3240.50121427,N,11713.84336405,W,2,14,0.7,7.000,M,-35.723,M,5.0,0135*6F
$PYRTM,2024,121.640972401493,12.750619811632
$GNHDT,175.077,T*28
$PYRTM,2024,121.640978127882,12.750625538021
$GNGGA,152300.50,3240.49990792,N,11713.84329366,W,2,14,0.7,7.104,M,-35.723,M,5.4,0135*60
$PYRTM,2024,121.640978127882,12.750625538021
$GNHDT,175.238,T*21
$PYRTM,2024,121.640983970845,12.750631380984
$GNGGA,152301.00,3240.49858440,N,11713.84322497,W,2,14,0.7,7.147,M,-35.723,M,6.0,0135*6F
$PYRTM,2024,121.640983970845,12.750631380984
$GNHDT,175.329,T*20
$PYRTM,2024,121.640989702199,12.750637112338
$GNGGA,152301.50,3240.49725472,N,11713.84315278,W,2,14,0.7,7.135,M,-35.723,M,6.4,0135*6C
$PYRTM,2024,121.640989702199,12.750637112338
$GNHDT,175.295,T*26
$PYRTM,2024,121.640995543380,12.750642953519
$GNGGA,152302.00,3240.49592672,N,11713.84307618,W,2,14,0.7,7.088,M,-35.723,M,7.0,0135*65
$PYRTM,2024,121.640995543380,12.750642953519
$GNHDT,175.492,T*27
$PYRTM,2024,121.641001272338,12.750648682488
$GNGGA,152302.50,3240.49460663,N,11713.84298256,W,2,14,0.7,7.041,M,-35.724,M,7.4,0135*63
$PYRTM,2024,121.641001272338,12.750648682488
$GNHDT,175.267,T*2B
$PYRTM,2024,121.641007124421,12.750654534560
$GNGGA,152303.00,3240.49329345,N,11713.84287331,W,2,14,0.7,7.008,M,-35.724,M,7.0,0135*6B
$PYRTM,2024,121.641007124421,12.750654534560
$GNHDT,175.117,T*2F
$PYRTM,2024,121.641012845451,12.750660255590
$GNGGA,152303.50,3240.49198520,N,11713.84275506,W,2,14,0.7,6.996,M,-35.724,M,7.4,0135*67
$PYRTM,2024,121.641012845451,12.750660255590
$GNHDT,174.964,T*22
$PYRTM,2024,121.641018696933,12.750666107072
$GNGGA,152304.00,3240.49067159,N,11713.84263762,W,2,14,0.7,6.980,M,-35.724,M,7.0,0135*6A
$PYRTM,2024,121.641018696933,12.750666107072
$GNHDT,174.848,T*2D
$PYRTM,2024,121.641024424502,12.750671834641
$GNGGA,152304.50,3240.48934462,N,11713.84253165,W,2,14,0.7,6.951,M,-35.724,M,7.4,0135*66
$PYRTM,2024,121.641024424502,12.750671834641
$GNHDT,174.660,T*29
$PYRTM,2024,121.641030272141,12.750677682280
$GNGGA,152305.00,3240.48801139,N,11713.84243851,W,2,14,0.7,6.898,M,-35.724,M,4.0,0135*62
$PYRTM,2024,121.641030272141,12.750677682280
$GNHDT,174.686,T*21
$PYRTM,2024,121.641036001921,12.750683412060
$GNGGA,152305.50,3240.48668558,N,11713.84235789,W,2,14,0.7,6.864,M,-35.724,M,4.4,0135*69
$PYRTM,2024,121.641036001921,12.750683412060
$GNHDT,174.830,T*22
$PYRTM,2024,121.641041847824,12.750689257963
$GNGGA,152306.00,3240.48537023,N,11713.84228645,W,2,14,0.7,6.866,M,-35.724,M,5.0,0135*65
$PYRTM,2024,121.641041847824,12.750689257963
$GNHDT,174.886,T*2F
$PYRTM,2024,121.641047569618,12.750694979757
$GNGGA,152306.50,3240.48406303,N,11713.84222111,W,2,14,0.7,6.906,M,-35.724,M,5.4,0135*6D
$PYRTM,2024,121.641047569618,12.750694979757
$GNHDT,175.187,T*26
$PYRTM,2024,121.641053418299,12.750700828449
$GNGGA,152307.00,3240.48275837,N,11713.84215351,W,2,14,0.7,6.982,M,-35.724,M,6.0,0135*6E
$PYRTM,2024,121.641053418299,12.750700828449
$GNHDT,175.016,T*2F
$PYRTM,2024,121.641059145926,12.750706556065
$GNGGA,152307.50,3240.48144836,N,11713.84207227,W,2,14,0.7,7.056,M,-35.724,M,6.4,0135*6D
$PYRTM,2024,121.641059145926,12.750706556065
$GNHDT,175.006,T*2E
$PYRTM,2024,121.641064994016,12.750712404155
$GNGGA,152308.00,3240.48013098,N,11713.84197418,W,2,14,0.7,7.117,M,-35.724,M,7.0,0135*69
$PYRTM,2024,121.641064994016,12.750712404155
$GNHDT,175.068,T*26
$PYRTM,2024,121.641070715069,12.750718125208
$GNGGA,152308.50,3240.47881051,N,11713.84186587,W,2,14,0.7,7.144,M,-35.725,M,7.4,0135*61
$PYRTM,2024,121.641070715069,12.750718125208
$GNHDT,175.143,T*2E
$PYRTM,2024,121.641076568958,12.750723979097
$GNGGA,152309.00,3240.47748437,N,11713.84175418,W,2,14,0.7,7.117,M,-35.725,M,7.0,0135*62
$PYRTM,2024,121.641076568958,12.750723979097
$GNHDT,175.001,T*29
$PYRTM,2024,121.641082295463,12.750729705602
$GNGGA,152309.50,3240.47615332,N,11713.84164951,W,2,14,0.7,7.049,M,-35.725,M,7.4,0135*62
$PYRTM,2024,121.641082295463,12.750729705602
$GNHDT,175.137,T*2D
$PYRTM,2024,121.641088137465,12.750735547604
$GNGGA,152310.00,3240.47482956,N,11713.84154837,W,2,14,0.7,6.987,M,-35.725,M,7.0,0135*67
$PYRTM,2024,121.641088137465,12.750735547604
$GNHDT,175.045,T*29
$PYRTM,2024,121.641093865567,12.750741275706
$GNGGA,152310.50,3240.47351963,N,11713.84145797,W,2,14,0.7,6.955,M,-35.725,M,7.4,0135*63
$PYRTM,2024,121.641093865567,12.750741275706
$GNHDT,174.854,T*20
$PYRTM,2024,121.641099713877,12.750747124016
$GNGGA,152311.00,3240.47221311,N,11713.84138034,W,2,14,0.7,6.953,M,-35.725,M,4.0,0135*6B
$PYRTM,2024,121.641099713877,12.750747124016
$GNHDT,174.787,T*21
$PYRTM,2024,121.641105438171,12.750752848322
$GNGGA,152311.50,3240.47090115,N,11713.84131202,W,2,14,0.7,6.956,M,-35.725,M,4.4,0135*6F
$PYRTM,2024,121.641105438171,12.750752848322
$GNHDT,174.697,T*21
$PYRTM,2024,121.641111286806,12.750758696944
$GNGGA,152312.00,3240.46957762,N,11713.84124977,W,2,14,0.7,6.943,M,-35.725,M,5.0,0135*60
$PYRTM,2024,121.641111286806,12.750758696944
$GNHDT,174.687,T*20
$PYRTM,2024,121.641117014653,12.750764424803
$GNGGA,152312.50,3240.46824439,N,11713.84117736,W,2,14,0.7,6.921,M,-35.725,M,5.4,0135*66
$PYRTM,2024,121.641117014653,12.750764424803
$GNHDT,174.638,T*24
$PYRTM,2024,121.641122867118,12.750770277257
$GNGGA,152313.00,3240.46690866,N,11713.84109418,W,2,14,0.7,6.906,M,-35.725,M,6.0,0135*67
$PYRTM,2024,121.641122867118,12.750770277257
$GNHDT,174.616,T*28
$PYRTM,2024,121.641128588333,12.750775998472
$GNGGA,152313.50,3240.46558333,N,11713.84100368,W,2,14,0.7,6.913,M,-35.725,M,6.4,0135*67
$PYRTM,2024,121.641128588333,12.750775998472
$GNHDT,174.588,T*2C
$PYRTM,2024,121.641134434236,12.750781844375
$GNGGA,152314.00,3240.46426812,N,11713.84090921,W,2,14,0.7,6.962,M,-35.725,M,7.0,0135*69
$PYRTM,2024,121.641134434236,12.750781844375
$GNHDT,174.717,T*28
$PYRTM,2024,121.641140162419,12.750787572558
$GNGGA,152314.50,3240.46296361,N,11713.84080936,W,2,14,0.7,7.047,M,-35.726,M,7.4,0135*61
$PYRTM,2024,121.641140162419,12.750787572558
$GNHDT,174.450,T*28
$PYRTM,2024,121.641146012245,12.750793422384
$GNGGA,152315.00,3240.46166446,N,11713.84070661,W,2,14,0.7,7.155,M,-35.726,M,7.0,0135*6F
$PYRTM,2024,121.641146012245,12.750793422384
$GNHDT,174.345,T*2B
$PYRTM,2024,121.641151738484,12.750799148623
$GNGGA,152315.50,3240.46036262,N,11713.84060528,W,2,14,0.7,7.247,M,-35.726,M,7.4,0135*65
$PYRTM,2024,121.641151738484,12.750799148623
$GNHDT,174.308,T*22
$PYRTM,2024,121.641157580324,12.750804990463
$GNGGA,152316.00,3240.45905035,N,11713.84050980,W,2,14,0.7,7.284,M,-35.726,M,7.0,0135*6F
$PYRTM,2024,121.641157580324,12.750804990463
$GNHDT,173.973,T*23
$PYRTM,2024,121.641163310301,12.750810720451
$GNGGA,152316.50,3240.45772482,N,11713.84041623,W,2,14,0.7,7.244,M,-35.726,M,7.4,0135*62
$PYRTM,2024,121.641163310301,12.750810720451
$GNHDT,173.964,T*25
$PYRTM,2024,121.641169156759,12.750816566898
$GNGGA,152317.00,3240.45639125,N,11713.84031618,W,2,14,0.7,7.141,M,-35.726,M,4.0,0135*6E
$PYRTM,2024,121.641169156759,12.750816566898
$GNHDT,173.865,T*25
$PYRTM,2024,121.641174883206,12.750822293345
$GNGGA,152317.50,3240.45506083,N,11713.84020624,W,2,14,0.7,7.026,M,-35.726,M,4.4,0135*62
$PYRTM,2024,121.641174883206,12.750822293345
$GNHDT,173.503,T*28
$PYRTM,2024,121.641180739664,12.750828149803
$GNGGA,152318.00,3240.45373416,N,11713.84009270,W,2,14,0.7,6.919,M,-35.726,M,5.0,0135*6B
$PYRTM,2024,121.641180739664,12.750828149803
$GNHDT,173.492,T*21
$PYRTM,2024,121.641186456863,12.750833867002
$GNGGA,152318.50,3240.45241632,N,11713.83998307,W,2,14,0.7,6.849,M,-35.726,M,5.4,0135*6D
$PYRTM,2024,121.641186456863,12.750833867002
$GNHDT,173.197,T*21
$PYRTM,2024,121.641192310556,12.750839720694
$GNGGA,152319.00,3240.45110652,N,11713.83987071,W,2,14,0.7,6.841,M,-35.726,M,6.0,0135*6B
$PYRTM,2024,121.641192310556,12.750839720694
$GNHDT,173.074,T*2D
$PYRTM,2024,121.641198036551,12.750845446690
$GNGGA,152319.50,3240.44979965,N,11713.83974991,W,2,14,0.7,6.878,M,-35.726,M,6.4,0135*66
$PYRTM,2024,121.641198036551,12.750845446690
$GNHDT,173.138,T*24
$PYRTM,2024,121.641203881262,12.750851291400
$GNGGA,152320.00,3240.44848872,N,11713.83962429,W,2,14,0.7,6.939,M,-35.726,M,7.0,0135*65
$PYRTM,2024,121.641203881262,12.750851291400
$GNHDT,173.108,T*27
$PYRTM,2024,121.641209611065,12.750857021204
$GNGGA,152320.50,3240.44717078,N,11713.83950082,W,2,14,0.7,6.996,M,-35.727,M,7.4,0135*63
$PYRTM,2024,121.641209611065,12.750857021204
$GNHDT,173.251,T*28
$PYRTM,2024,121.641215452488,12.750862862627
$GNGGA,152321.00,3240.44584610,N,11713.83937885,W,2,14,0.7,7.026,M,-35.727,M,7.0,0135*6E
$PYRTM,2024,121.641215452488,12.750862862627
$GNHDT,173.548,T*27
$PYRTM,2024,121.641221181933,12.750868592072
$GNGGA,152321.50,3240.44453001,N,11713.83925718,W,2,14,0.7,7.054,M,-35.727,M,7.4,0135*6F
$PYRTM,2024,121.641221181933,12.750868592072
$GNHDT,173.442,T*2C
$PYRTM,2024,121.641227028715,12.750874438854
$GNGGA,152322.00,3240.44323183,N,11713.83913375,W,2,14,0.7,7.106,M,-35.727,M,7.0,0135*6A
$PYRTM,2024,121.641227028715,12.750874438854
$GNHDT,173.436,T*2F
$PYRTM,2024,121.641232755532,12.750880165671
$GNGGA,152322.50,3240.44194767,N,11713.83900953,W,2,14,0.7,7.175,M,-35.727,M,7.4,0135*61
$PYRTM,2024,121.641232755532,12.750880165671
$GNHDT,173.554,T*2A
$PYRTM,2024,121.641238600081,12.750886010220
$GNGGA,152323.00,3240.44067031,N,11713.83889350,W,2,14,0.7,7.243,M,-35.727,M,4.0,0135*64
$PYRTM,2024,121.641238600081,12.750886010220
$GNHDT,173.702,T*2B
$PYRTM,2024,121.641244330556,12.750891740706
$GNGGA,152323.50,3240.43938444,N,11713.83877488,W,2,14,0.7,7.276,M,-35.727,M,4.4,0135*62
$PYRTM,2024,121.641244330556,12.750891740706
$GNHDT,173.916,T*20
$PYRTM,2024,121.641250176377,12.750897586528
