$PYRTM,2024,126.916666729201,18.026314139340
$GNGGA,220000.00,3357.62791862,N,11928.37758857,W,2,13,0.8,7.535,M,-37.531,M,4.0,0131*68
$PYRTM,2024,126.916666729201,18.026314139340
$GNHDT,80.403,T*14
$PYRTM,2024,126.916672454907,18.026319865035
$GNGGA,220000.50,3357.62809334,N,11928.37611641,W,2,13,0.8,7.572,M,-37.531,M,4.4,0131*69
$PYRTM,2024,126.916672454907,18.026319865035
$GNHDT,80.402,T*15
$PYRTM,2024,126.916678301690,18.026325711829
$GNGGA,220001.00,3357.62827432,N,11928.37463828,W,2,13,0.8,7.643,M,-37.531,M,5.0,0131*62
$PYRTM,2024,126.916678301690,18.026325711829
$GNHDT,80.432,T*16
$PYRTM,2024,126.916684030845,18.026331440995
$GNGGA,220001.50,3357.62846622,N,11928.37315472,W,2,13,0.8,7.746,M,-37.531,M,5.4,0131*66
$PYRTM,2024,126.916684030845,18.026331440995
$GNHDT,80.516,T*11
$PYRTM,2024,126.916689876620,18.026337286759
$GNGGA,220002.00,3357.62867169,N,11928.37166406,W,2,13,0.8,7.875,M,-37.531,M,6.0,0131*66
$PYRTM,2024,126.916689876620,18.026337286759
$GNHDT,80.486,T*19
$PYRTM,2024,126.916695604606,18.026343014757
$GNGGA,220002.50,3357.62889271,N,11928.37017638,W,2,13,0.8,7.993,M,-37.531,M,6.4,0131*6C
$PYRTM,2024,126.916695604606,18.026343014757
$GNHDT,80.432,T*16
$PYRTM,2024,126.916701452928,18.026348863067
$GNGGA,220003.00,3357.62912670,N,11928.36869165,W,2,13,0.8,8.084,M,-37.531,M,7.0,0131*64
$PYRTM,2024,126.916701452928,18.026348863067
$GNHDT,80.288,T*11
$PYRTM,2024,126.916707179398,18.026354589549
$GNGGA,220003.50,3357.62936204,N,11928.36721841,W,2,13,0.8,8.130,M,-37.531,M,7.4,0131*66
$PYRTM,2024,126.916707179398,18.026354589549
$GNHDT,80.144,T*12
$PYRTM,2024,126.916713024931,18.026360435069
$GNGGA,220004.00,3357.62958338,N,11928.36575915,W,2,13,0.8,8.146,M,-37.531,M,7.0,0131*64
$PYRTM,2024,126.916713024931,18.026360435069
$GNHDT,79.991,T*14
$PYRTM,2024,126.916718751840,18.026366161991
$GNGGA,220004.50,3357.62979118,N,11928.36431411,W,2,13,0.8,8.119,M,-37.531,M,7.4,0131*64
$PYRTM,2024,126.916718751840,18.026366161991
$GNHDT,79.638,T*18
$PYRTM,2024,126.916724604711,18.026372014850
$GNGGA,220005.00,3357.62999312,N,11928.36288362,W,2,13,0.8,8.052,M,-37.531,M,7.0,0131*6B
$PYRTM,2024,126.916724604711,18.026372014850
$GNHDT,79.351,T*12
$PYRTM,2024,126.916730327650,18.026377737789
$GNGGA,220005.50,3357.63019968,N,11928.36146320,W,2,13,0.8,7.956,M,-37.531,M,7.4,0131*68
$PYRTM,2024,126.916730327650,18.026377737789
$GNHDT,79.154,T*15
$PYRTM,2024,126.916736174549,18.026383584688
$GNGGA,220006.00,3357.63040999,N,11928.36005728,W,2,13,0.8,7.839,M,-37.531,M,4.0,0131*69
$PYRTM,2024,126.916736174549,18.026383584688
$GNHDT,78.999,T*1D
$PYRTM,2024,126.916741906019,18.026389316157
$GNGGA,220006.50,3357.63062082,N,11928.35866857,W,2,13,0.8,7.731,M,-37.531,M,4.4,0131*65
$PYRTM,2024,126.916741906019,18.026389316157
$GNHDT,78.772,T*16
$PYRTM,2024,126.916747744931,18.026395155069
$GNGGA,220007.00,3357.63083201,N,11928.35730498,W,2,13,0.8,7.659,M,-37.531,M,5.0,0131*6E
$PYRTM,2024,126.916747744931,18.026395155069
$GNHDT,78.673,T*16
$PYRTM,2024,126.916753474803,18.026400884954
$GNGGA,220007.50,3357.63103807,N,11928.35595787,W,2,13,0.8,7.623,M,-37.531,M,5.4,0131*67
$PYRTM,2024,126.916753474803,18.026400884954
$GNHDT,78.641,T*17
$PYRTM,2024,126.916759322697,18.026406732836
$GNGGA,220008.00,3357.63123961,N,11928.35462208,W,2,13,0.8,7.628,M,-37.531,M,6.0,0131*69
$PYRTM,2024,126.916759322697,18.026406732836
$GNHDT,78.672,T*17
$PYRTM,2024,126.916765047488,18.026412457627
$GNGGA,220008.50,3357.63144447,N,11928.35327957,W,2,13,0.8,7.643,M,-37.531,M,6.4,0131*6A
$PYRTM,2024,126.916765047488,18.026412457627
$GNHDT,78.604,T*16
$PYRTM,2024,126.916770895394,18.026418305532
$GNGGA,220009.00,3357.63166450,N,11928.35192685,W,2,13,0.8,7.648,M,-37.531,M,7.0,0131*6A
$PYRTM,2024,126.916770895394,18.026418305532
$GNHDT,78.585,T*1C
$PYRTM,2024,126.916776623299,18.026424033438
$GNGGA,220009.50,3357.63189730,N,11928.35056186,W,2,13,0.8,7.625,M,-37.531,M,7.4,0131*69
$PYRTM,2024,126.916776623299,18.026424033438
$GNHDT,78.566,T*11
$PYRTM,2024,126.916782473241,18.026429883380
$GNGGA,220010.00,3357.63212694,N,11928.34918353,W,2,13,0.8,7.586,M,-37.531,M,7.0,0131*6C
$PYRTM,2024,126.916782473241,18.026429883380
$GNHDT,78.689,T*13
$PYRTM,2024,126.916788199398,18.026435609537
$GNGGA,220010.50,3357.63234112,N,11928.34779521,W,2,13,0.8,7.558,M,-37.531,M,7.4,0131*69
$PYRTM,2024,126.916788199398,18.026435609537
$GNHDT,78.732,T*12
$PYRTM,2024,126.916794042963,18.026441453102
$GNGGA,220011.00,3357.63253999,N,11928.34639710,W,2,13,0.8,7.546,M,-37.531,M,7.0,0131*69
$PYRTM,2024,126.916794042963,18.026441453102
$GNHDT,78.806,T*1A
$PYRTM,2024,126.916799770694,18.026447180845
$GNGGA,220011.50,3357.63273167,N,11928.34498686,W,2,13,0.8,7.580,M,-37.531,M,7.4,0131*6E
$PYRTM,2024,126.916799770694,18.026447180845
$GNHDT,78.830,T*1F
$PYRTM,2024,126.916805614803,18.026453024942
$GNGGA,220012.00,3357.63292786,N,11928.34356178,W,2,13,0.8,7.659,M,-37.531,M,4.0,0131*6D
$PYRTM,2024,126.916805614803,18.026453024942
$GNHDT,78.886,T*12
$PYRTM,2024,126.916811347222,18.026458757361
$GNGGA,220012.50,3357.63313258,N,11928.34212849,W,2,13,0.8,7.770,M,-37.531,M,4.4,0131*62
$PYRTM,2024,126.916811347222,18.026458757361
$GNHDT,79.048,T*19
$PYRTM,2024,126.916817192025,18.026464602164
$GNGGA,220013.00,3357.63334776,N,11928.34068332,W,2,13,0.8,7.894,M,-37.531,M,5.0,0131*62
$PYRTM,2024,126.916817192025,18.026464602164
$GNHDT,79.108,T*1C
$PYRTM,2024,126.916822919699,18.026470329838
$GNGGA,220013.50,3357.63357279,N,11928.33922452,W,2,13,0.8,7.991,M,-37.531,M,5.4,0131*69
$PYRTM,2024,126.916822919699,18.026470329838
$GNHDT,79.175,T*16
$PYRTM,2024,126.916828764803,18.026476174942
$GNGGA,220014.00,3357.63380264,N,11928.33775455,W,2,13,0.8,8.061,M,-37.531,M,6.0,0131*68
$PYRTM,2024,126.916828764803,18.026476174942
$GNHDT,79.332,T*17
$PYRTM,2024,126.916834493079,18.026481903218
$GNGGA,220014.50,3357.63404094,N,11928.33628111,W,2,13,0.8,8.098,M,-37.531,M,6.4,0131*65
$PYRTM,2024,126.916834493079,18.026481903218
$GNHDT,79.382,T*1C
$PYRTM,2024,126.916840339340,18.026487749491
$GNGGA,220015.00,3357.63428097,N,11928.33481541,W,2,13,0.8,8.112,M,-37.531,M,7.0,0131*6A
$PYRTM,2024,126.916840339340,18.026487749491
$GNHDT,79.448,T*1D
$PYRTM,2024,126.916846067095,18.026493477234
$GNGGA,220015.50,3357.63450959,N,11928.33336361,W,2,13,0.8,8.118,M,-37.531,M,7.4,0131*6A
$PYRTM,2024,126.916846067095,18.026493477234
$GNHDT,79.448,T*1D
$PYRTM,2024,126.916851912512,18.026499322662
$GNGGA,220016.00,3357.63471678,N,11928.33192778,W,2,13,0.8,8.133,M,-37.531,M,7.0,0131*6E
$PYRTM,2024,126.916851912512,18.026499322662
$GNHDT,79.475,T*13
$PYRTM,2024,126.916857641157,18.026505051296
$GNGGA,220016.50,3357.63491071,N,11928.33049863,W,2,13,0.8,8.126,M,-37.531,M,7.4,0131*68
$PYRTM,2024,126.916857641157,18.026505051296
$GNHDT,79.483,T*1A
$PYRTM,2024,126.916863489155,18.026510899294
$GNGGA,220017.00,3357.63509257,N,11928.32907412,W,2,13,0.8,8.093,M,-37.531,M,7.0,0131*69
$PYRTM,2024,126.916863489155,18.026510899294
$GNHDT,79.525,T*17
$PYRTM,2024,126.916869216192,18.026516626343
$GNGGA,220017.50,3357.63527581,N,11928.32765693,W,2,13,0.8,8.017,M,-37.531,M,7.4,0131*65
$PYRTM,2024,126.916869216192,18.026516626343
$GNHDT,79.400,T*11
$PYRTM,2024,126.916875064919,18.026522475058
$GNGGA,220018.00,3357.63546438,N,11928.32625359,W,2,13,0.8,7.921,M,-37.531,M,4.0,0131*69
$PYRTM,2024,126.916875064919,18.026522475058
$GNHDT,79.375,T*14
$PYRTM,2024,126.916880789641,18.026528199780
$GNGGA,220018.50,3357.63567300,N,11928.32486846,W,2,13,0.8,7.814,M,-37.531,M,4.4,0131*6E
$PYRTM,2024,126.916880789641,18.026528199780
$GNHDT,79.280,T*1F
$PYRTM,2024,126.916886642049,18.026534052199
$GNGGA,220019.00,3357.63589535,N,11928.32349937,W,2,13,0.8,7.719,M,-37.531,M,5.0,0131*6E
$PYRTM,2024,126.916886642049,18.026534052199
$GNHDT,79.138,T*1F
$PYRTM,2024,126.916892362836,18.026539772975
$GNGGA,220019.50,3357.63612407,N,11928.32214241,W,2,13,0.8,7.648,M,-37.531,M,5.4,0131*68
$PYRTM,2024,126.916892362836,18.026539772975
$GNHDT,79.168,T*1A
$PYRTM,2024,126.916898211470,18.026545621609
$GNGGA,220020.00,3357.63635170,N,11928.32078694,W,2,13,0.8,7.588,M,-37.531,M,6.0,0131*6B
$PYRTM,2024,126.916898211470,18.026545621609
$GNHDT,79.256,T*14
$PYRTM,2024,126.916903942720,18.026551352870
$GNGGA,220020.50,3357.63657590,N,11928.31942511,W,2,13,0.8,7.539,M,-37.531,M,6.4,0131*63
$PYRTM,2024,126.916903942720,18.026551352870
$GNHDT,79.233,T*17
$PYRTM,2024,126.916909782025,18.026557192164
$GNGGA,220021.00,3357.63678723,N,11928.31805908,W,2,13,0.8,7.494,M,-37.531,M,7.0,0131*65
$PYRTM,2024,126.916909782025,18.026557192164
$GNHDT,79.324,T*10
$PYRTM,2024,126.916915511435,18.026562921574
$GNGGA,220021.50,3357.63698203,N,11928.31668492,W,2,13,0.8,7.448,M,-37.531,M,7.4,0131*67
$PYRTM,2024,126.916915511435,18.026562921574
$GNHDT,79.519,T*18
$PYRTM,2024,126.916921362083,18.026568772222
$GNGGA,220022.00,3357.63715988,N,11928.31529567,W,2,13,0.8,7.409,M,-37.531,M,7.0,0131*61
$PYRTM,2024,126.916921362083,18.026568772222
$GNHDT,79.543,T*17
$PYRTM,2024,126.916927085822,18.026574495961
$GNGGA,220022.50,3357.63732613,N,11928.31389436,W,2,13,0.8,7.375,M,-37.531,M,7.4,0131*6D
$PYRTM,2024,126.916927085822,18.026574495961
$GNHDT,79.497,T*1F
$PYRTM,2024,126.916932933762,18.026580343900
$GNGGA,220023.00,3357.63748857,N,11928.31248022,W,2,13,0.8,7.377,M,-37.531,M,7.0,0131*61
$PYRTM,2024,126.916932933762,18.026580343900
$GNHDT,79.524,T*16
$PYRTM,2024,126.916938665521,18.026586075660
$GNGGA,220023.50,3357.63766693,N,11928.31105687,W,2,13,0.8,7.412,M,-37.531,M,7.4,0131*6D
$PYRTM,2024,126.916938665521,18.026586075660
$GNHDT,79.462,T*15
$PYRTM,2024,126.916944504711,18.026591914850
$GNGGA,220024.00,3357.63786869,N,11928.30962294,W,2,13,0.8,7.492,M,-37.531,M,4.0,0131*6B
$PYRTM,2024,126.916944504711,18.026591914850
$GNHDT,79.325,T*11
$PYRTM,2024,126.916950235567,18.026597645718
$GNGGA,220024.50,3357.63809954,N,11928.30818248,W,2,13,0.8,7.589,M,-37.531,M,4.4,0131*6B
$PYRTM,2024,126.916950235567,18.026597645718
$GNHDT,79.141,T*11
$PYRTM,2024,126.916956083333,18.026603493472
$GNGGA,220025.00,3357.63834867,N,11928.30673876,W,2,13,0.8,7.688,M,-37.531,M,5.0,0131*63
$PYRTM,2024,126.916956083333,18.026603493472
$GNHDT,78.921,T*1E
$PYRTM,2024,126.916961808148,18.026609218299
$GNGGA,220025.50,3357.63860212,N,11928.30529736,W,2,13,0.8,7.777,M,-37.531,M,5.4,0131*6D
$PYRTM,2024,126.916961808148,18.026609218299
$GNHDT,78.871,T*1A
$PYRTM,2024,126.916967653229,18.026615063368
$GNGGA,220026.00,3357.63885597,N,11928.30386595,W,2,13,0.8,7.856,M,-37.531,M,6.0,0131*69
$PYRTM,2024,126.916967653229,18.026615063368
$GNHDT,78.786,T*1D
$PYRTM,2024,126.916973384618,18.026620794757
$GNGGA,220026.50,3357.63908608,N,11928.30244066,W,2,13,0.8,7.920,M,-37.531,M,6.4,0131*6F
$PYRTM,2024,126.916973384618,18.026620794757
$GNHDT,78.642,T*14
$PYRTM,2024,126.916979225220,18.026626635359
$GNGGA,220027.00,3357.63928807,N,11928.30100634,W,2,13,0.8,7.958,M,-37.531,M,7.0,0131*60
$PYRTM,2024,126.916979225220,18.026626635359
$GNHDT,78.557,T*13
$PYRTM,2024,126.916984956470,18.026632366609
$GNGGA,220027.50,3357.63947338,N,11928.29957261,W,2,13,0.8,7.966,M,-37.531,M,7.4,0131*64
$PYRTM,2024,126.916984956470,18.026632366609
$GNHDT,78.417,T*16
$PYRTM,2024,126.916990801042,18.026638211181
$GNGGA,220028.00,3357.63965022,N,11928.29814096,W,2,13,0.8,7.950,M,-37.531,M,7.0,0131*6B
$PYRTM,2024,126.916990801042,18.026638211181
$GNHDT,78.278,T*19
$PYRTM,2024,126.916996532465,18.026643942604
$GNGGA,220028.50,3357.63983866,N,11928.29672317,W,2,13,0.8,7.910,M,-37.531,M,7.4,0131*6A
$PYRTM,2024,126.916996532465,18.026643942604
$GNHDT,78.411,T*10
$PYRTM,2024,126.917002378160,18.026649788299
$GNGGA,220029.00,3357.64003789,N,11928.29531700,W,2,13,0.8,7.868,M,-37.531,M,7.0,0131*6A
$PYRTM,2024,126.917002378160,18.026649788299
$GNHDT,78.453,T*16
$PYRTM,2024,126.917008102998,18.026655513137
$GNGGA,220029.50,3357.64025565,N,11928.29392185,W,2,13,0.8,7.828,M,-37.531,M,7.4,0131*6F
$PYRTM,2024,126.917008102998,18.026655513137
$GNHDT,78.590,T*18
$PYRTM,2024,126.917013949919,18.026661360058
$GNGGA,220030.00,3357.64048376,N,11928.29253325,W,2,13,0.8,7.808,M,-37.531,M,4.0,0131*6C
$PYRTM,2024,126.917013949919,18.026661360058
$GNHDT,78.751,T*17
$PYRTM,2024,126.917019678160,18.026667088299
$GNGGA,220030.50,3357.64071952,N,11928.29115258,W,2,13,0.8,7.802,M,-37.531,M,4.4,0131*6B
$PYRTM,2024,126.917019678160,18.026667088299
$GNHDT,79.058,T*18
$PYRTM,2024,126.917025522731,18.026672932882
$GNGGA,220031.00,3357.64095025,N,11928.28977350,W,2,13,0.8,7.807,M,-37.531,M,5.0,0131*68
$PYRTM,2024,126.917025522731,18.026672932882
$GNHDT,79.302,T*14
$PYRTM,2024,126.917031252789,18.026678662928
$GNGGA,220031.50,3357.64117479,N,11928.28839719,W,2,13,0.8,7.828,M,-37.531,M,5.4,0131*60
$PYRTM,2024,126.917031252789,18.026678662928
$GNHDT,79.525,T*17
$PYRTM,2024,126.917037096736,18.026684506875
$GNGGA,220032.00,3357.64138934,N,11928.28702361,W,2,13,0.8,7.856,M,-37.531,M,6.0,0131*6D
$PYRTM,2024,126.917037096736,18.026684506875
$GNHDT,79.820,T*1F
$PYRTM,2024,126.917042824919,18.026690235058
$GNGGA,220032.50,3357.64159534,N,11928.28564609,W,2,13,0.8,7.897,M,-37.531,M,6.4,0131*63
$PYRTM,2024,126.917042824919,18.026690235058
$GNHDT,80.182,T*18
$PYRTM,2024,126.917048679549,18.026696089688
$GNGGA,220033.00,3357.64179428,N,11928.28426070,W,2,13,0.8,7.934,M,-37.531,M,7.0,0131*6B
$PYRTM,2024,126.917048679549,18.026696089688
$GNHDT,80.397,T*1E
$PYRTM,2024,126.917054399838,18.026701809977
$GNGGA,220033.50,3357.64200041,N,11928.28285200,W,2,13,0.8,7.944,M,-37.531,M,7.4,0131*61
$PYRTM,2024,126.917054399838,18.026701809977
$GNHDT,80.575,T*14
$PYRTM,2024,126.917060247465,18.026707657604
$GNGGA,220034.00,3357.64220864,N,11928.28142563,W,2,13,0.8,7.910,M,-37.531,M,7.0,0131*61
$PYRTM,2024,126.917060247465,18.026707657604
$GNHDT,80.587,T*19
$PYRTM,2024,126.917065975220,18.026713385359
$GNGGA,220034.50,3357.64241316,N,11928.27998505,W,2,13,0.8,7.849,M,-37.531,M,7.4,0131*64
$PYRTM,2024,126.917065975220,18.026713385359
$GNHDT,80.711,T*14
$PYRTM,2024,126.917071818380,18.026719228519
$GNGGA,220035.00,3357.64261453,N,11928.27853643,W,2,13,0.8,7.782,M,-37.531,M,7.0,0131*6F
$PYRTM,2024,126.917071818380,18.026719228519
$GNHDT,80.694,T*18
$PYRTM,2024,126.917077548935,18.026724959074
$GNGGA,220035.50,3357.64281780,N,11928.27709177,W,2,13,0.8,7.736,M,-37.531,M,7.4,0131*62
$PYRTM,2024,126.917077548935,18.026724959074
$GNHDT,80.385,T*1D
$PYRTM,2024,126.917083396956,18.026730807095
$GNGGA,220036.00,3357.64302431,N,11928.27564976,W,2,13,0.8,7.726,M,-37.531,M,4.0,0131*61
$PYRTM,2024,126.917083396956,18.026730807095
$GNHDT,80.170,T*15
$PYRTM,2024,126.917089124109,18.026736534259
$GNGGA,220036.50,3357.64323526,N,11928.27421176,W,2,13,0.8,7.745,M,-37.531,M,4.4,0131*69
$PYRTM,2024,126.917089124109,18.026736534259
$GNHDT,79.857,T*1F
$PYRTM,2024,126.917094975220,18.026742385359
$GNGGA,220037.00,3357.64344657,N,11928.27277777,W,2,13,0.8,7.792,M,-37.531,M,5.0,0131*64
$PYRTM,2024,126.917094975220,18.026742385359
$GNHDT,79.595,T*1C
$PYRTM,2024,126.917100696944,18.026748107083
$GNGGA,220037.50,3357.64365538,N,11928.27134506,W,2,13,0.8,7.838,M,-37.531,M,5.4,0131*63
$PYRTM,2024,126.917100696944,18.026748107083
$GNHDT,79.289,T*16
$PYRTM,2024,126.917106544711,18.026753954850
$GNGGA,220038.00,3357.64385705,N,11928.26991249,W,2,13,0.8,7.852,M,-37.531,M,6.0,0131*6A
$PYRTM,2024,126.917106544711,18.026753954850
$GNHDT,79.087,T*1A
$PYRTM,2024,126.917112273588,18.026759683727
$GNGGA,220038.50,3357.64404762,N,11928.26848321,W,2,13,0.8,7.834,M,-37.531,M,6.4,0131*6E
$PYRTM,2024,126.917112273588,18.026759683727
$GNHDT,78.948,T*11
$PYRTM,2024,126.917118120451,18.026765530590
$GNGGA,220039.00,3357.64422610,N,11928.26706495,W,2,13,0.8,7.786,M,-37.531,M,7.0,0131*64
$PYRTM,2024,126.917118120451,18.026765530590
$GNHDT,78.824,T*1A
$PYRTM,2024,126.917123847928,18.026771258067
$GNGGA,220039.50,3357.64439895,N,11928.26566150,W,2,13,0.8,7.721,M,-37.531,M,7.4,0131*69
$PYRTM,2024,126.917123847928,18.026771258067
$GNHDT,78.982,T*17
$PYRTM,2024,126.917129695567,18.026777105706
$GNGGA,220040.00,3357.64456765,N,11928.26427326,W,2,13,0.8,7.644,M,-37.531,M,7.0,0131*6A
$PYRTM,2024,126.917129695567,18.026777105706
$GNHDT,79.100,T*14
$PYRTM,2024,126.917135418391,18.026782828530
$GNGGA,220040.50,3357.64474487,N,11928.26289587,W,2,13,0.8,7.589,M,-37.531,M,7.4,0131*69
$PYRTM,2024,126.917135418391,18.026782828530
$GNHDT,79.091,T*1D
$PYRTM,2024,126.917141270937,18.026788681076
$GNGGA,220041.00,3357.64493317,N,11928.26153225,W,2,13,0.8,7.559,M,-37.531,M,7.0,0131*68
$PYRTM,2024,126.917141270937,18.026788681076
$GNHDT,79.295,T*1B
$PYRTM,2024,126.917146992894,18.026794403032
$GNGGA,220041.50,3357.64513808,N,11928.26017841,W,2,13,0.8,7.543,M,-37.531,M,7.4,0131*67
$PYRTM,2024,126.917146992894,18.026794403032
$GNHDT,79.359,T*1A
$PYRTM,2024,126.917152842593,18.026800252731
$GNGGA,220042.00,3357.64535272,N,11928.25882115,W,2,13,0.8,7.532,M,-37.531,M,4.0,0131*6C
$PYRTM,2024,126.917152842593,18.026800252731
$GNHDT,79.409,T*18
$PYRTM,2024,126.917158568090,18.026805978229
$GNGGA,220042.50,3357.64557517,N,11928.25745558,W,2,13,0.8,7.523,M,-37.531,M,4.4,0131*64
$PYRTM,2024,126.917158568090,18.026805978229
$GNHDT,79.612,T*10
$PYRTM,2024,126.917164418380,18.026811828519
$GNGGA,220043.00,3357.64579808,N,11928.25608669,W,2,13,0.8,7.508,M,-37.531,M,5.0,0131*6A
$PYRTM,2024,126.917164418380,18.026811828519
$GNHDT,79.748,T*1E
$PYRTM,2024,126.917170141632,18.026817551771
$GNGGA,220043.50,3357.64601704,N,11928.25471161,W,2,13,0.8,7.497,M,-37.531,M,5.4,0131*60
$PYRTM,2024,126.917170141632,18.026817551771
$GNHDT,79.670,T*14
$PYRTM,2024,126.917175992500,18.026823402639
$GNGGA,220044.00,3357.64623702,N,11928.25332739,W,2,13,0.8,7.463,M,-37.531,M,6.0,0131*63
$PYRTM,2024,126.917175992500,18.026823402639
$GNHDT,79.641,T*16
$PYRTM,2024,126.917181719074,18.026829129213
$GNGGA,220044.50,3357.64644939,N,11928.25192979,W,2,13,0.8,7.430,M,-37.531,M,6.4,0131*61
$PYRTM,2024,126.917181719074,18.026829129213
$GNHDT,79.713,T*10
$PYRTM,2024,126.917187565417,18.026834975556
$GNGGA,220045.00,3357.64665123,N,11928.25051870,W,2,13,0.8,7.414,M,-37.531,M,7.0,0131*60
$PYRTM,2024,126.917187565417,18.026834975556
$GNHDT,79.638,T*18
$PYRTM,2024,126.917193291505,18.026840701644
$GNGGA,220045.50,3357.64684522,N,11928.24909654,W,2,13,0.8,7.419,M,-37.531,M,7.4,0131*6B
$PYRTM,2024,126.917193291505,18.026840701644
$GNHDT,79.567,T*11
$PYRTM,2024,126.917199136725,18.026846546863
$GNGGA,220046.00,3357.64704212,N,11928.24766846,W,2,13,0.8,7.464,M,-37.531,M,7.0,0131*64
$PYRTM,2024,126.917199136725,18.026846546863
$GNHDT,79.484,T*1D
$PYRTM,2024,126.917204864340,18.026852274479
$GNGGA,220046.50,3357.64725465,N,11928.24623215,W,2,13,0.8,7.514,M,-37.531,M,7.4,0131*6A
$PYRTM,2024,126.917204864340,18.026852274479
$GNHDT,79.351,T*12
$PYRTM,2024,126.917210713692,18.026858123831
$GNGGA,220047.00,3357.64748827,N,11928.24479256,W,2,13,0.8,7.567,M,-37.531,M,7.0,0131*65
$PYRTM,2024,126.917210713692,18.026858123831
$GNHDT,79.176,T*15
$PYRTM,2024,126.917216439062,18.026863849201
$GNGGA,220047.50,3357.64773302,N,11928.24335244,W,2,13,0.8,7.603,M,-37.531,M,7.4,0131*6D
$PYRTM,2024,126.917216439062,18.026863849201
$GNHDT,79.044,T*15
$PYRTM,2024,126.917222288715,18.026869698854
$GNGGA,220048.00,3357.64796951,N,11928.24191574,W,2,13,0.8,7.617,M,-37.531,M,4.0,0131*6A
$PYRTM,2024,126.917222288715,18.026869698854
$GNHDT,78.834,T*1B
$PYRTM,2024,126.917228011539,18.026875421678
$GNGGA,220048.50,3357.64818485,N,11928.24048000,W,2,13,0.8,7.610,M,-37.531,M,4.4,0131*62
$PYRTM,2024,126.917228011539,18.026875421678
$GNHDT,78.703,T*10
$PYRTM,2024,126.917233860208,18.026881270347
$GNGGA,220049.00,3357.64837479,N,11928.23904763,W,2,13,0.8,7.607,M,-37.531,M,5.0,0131*6F
$PYRTM,2024,126.917233860208,18.026881270347
$GNHDT,78.571,T*17
$PYRTM,2024,126.917239586238,18.026886996377
$GNGGA,220049.50,3357.64854621,N,11928.23762094,W,2,13,0.8,7.603,M,-37.531,M,5.4,0131*61
$PYRTM,2024,126.917239586238,18.026886996377
$GNHDT,78.626,T*16
$PYRTM,2024,126.917245438993,18.026892849132
$GNGGA,220050.00,3357.64871482,N,11928.23621006,W,2,13,0.8,7.619,M,-37.531,M,6.0,0131*61
$PYRTM,2024,126.917245438993,18.026892849132
$GNHDT,78.555,T*11
$PYRTM,2024,126.917251160359,18.026898570509
$GNGGA,220050.50,3357.64889801,N,11928.23481605,W,2,13,0.8,7.645,M,-37.531,M,6.4,0131*64
$PYRTM,2024,126.917251160359,18.026898570509
$GNHDT,78.502,T*13
$PYRTM,2024,126.917257008310,18.026904418461
$GNGGA,220051.00,3357.64909570,N,11928.23343805,W,2,13,0.8,7.699,M,-37.531,M,7.0,0131*61
$PYRTM,2024,126.917257008310,18.026904418461
$GNHDT,78.636,T*17
$PYRTM,2024,126.917262735868,18.026910146007
$GNGGA,220051.50,3357.64931313,N,11928.23207198,W,2,13,0.8,7.762,M,-37.531,M,7.4,0131*61
$PYRTM,2024,126.917262735868,18.026910146007
$GNHDT,78.790,T*1A
$PYRTM,2024,126.917268582431,18.026915992581
$GNGGA,220052.00,3357.64954500,N,11928.23071737,W,2,13,0.8,7.822,M,-37.531,M,7.0,0131*6F
$PYRTM,2024,126.917268582431,18.026915992581
$GNHDT,78.932,T*1C
$PYRTM,2024,126.917274308160,18.026921718299
$GNGGA,220052.50,3357.64977887,N,11928.22936606,W,2,13,0.8,7.862,M,-37.531,M,7.4,0131*61
$PYRTM,2024,126.917274308160,18.026921718299
$GNHDT,79.021,T*16
$PYRTM,2024,126.917280158056,18.026927568194
$GNGGA,220053.00,3357.65000338,N,11928.22800924,W,2,13,0.8,7.886,M,-37.531,M,7.0,0131*67
$PYRTM,2024,126.917280158056,18.026927568194
$GNHDT,79.275,T*15
$PYRTM,2024,126.917285885174,18.026933295312
$GNGGA,220053.50,3357.65021320,N,11928.22664277,W,2,13,0.8,7.867,M,-37.531,M,7.4,0131*62
$PYRTM,2024,126.917285885174,18.026933295312
$GNHDT,79.582,T*1A
$PYRTM,2024,126.917291732546,18.026939142685
$GNGGA,220054.00,3357.65041114,N,11928.22526755,W,2,13,0.8,7.839,M,-37.531,M,4.0,0131*6F
$PYRTM,2024,126.917291732546,18.026939142685
$GNHDT,79.717,T*14
$PYRTM,2024,126.917297454873,18.026944865012
$GNGGA,220054.50,3357.65060226,N,11928.22388645,W,2,13,0.8,7.783,M,-37.531,M,4.4,0131*63
$PYRTM,2024,126.917297454873,18.026944865012
$GNHDT,79.854,T*1C
$PYRTM,2024,126.917303306030,18.026950716169
$GNGGA,220055.00,3357.65079673,N,11928.22249797,W,2,13,0.8,7.738,M,-37.531,M,5.0,0131*6C
$PYRTM,2024,126.917303306030,18.026950716169
$GNHDT,79.887,T*12
$PYRTM,2024,126.917309028970,18.026956439109
$GNGGA,220055.50,3357.65100384,N,11928.22109838,W,2,13,0.8,7.711,M,-37.531,M,5.4,0131*69
$PYRTM,2024,126.917309028970,18.026956439109
$GNHDT,80.061,T*14
$PYRTM,2024,126.917314883854,18.026962293993
$GNGGA,220056.00,3357.65123251,N,11928.21968289,W,2,13,0.8,7.696,M,-37.531,M,6.0,0131*62
$PYRTM,2024,126.917314883854,18.026962293993
$GNHDT,80.049,T*1E
$PYRTM,2024,126.917320603356,18.026968013495
$GNGGA,220056.50,3357.65147994,N,11928.21825313,W,2,13,0.8,7.686,M,-37.531,M,6.4,0131*68
$PYRTM,2024,126.917320603356,18.026968013495
$GNHDT,80.039,T*19
$PYRTM,2024,126.917326450972,18.026973861111
$GNGGA,220057.00,3357.65174005,N,11928.21681199,W,2,13,0.8,7.683,M,-37.531,M,7.0,0131*6D
$PYRTM,2024,126.917326450972,18.026973861111
$GNHDT,80.077,T*13
$PYRTM,2024,126.917332184248,18.026979594387
$GNGGA,220057.50,3357.65200138,N,11928.21536416,W,2,13,0.8,7.682,M,-37.531,M,7.4,0131*6F
$PYRTM,2024,126.917332184248,18.026979594387
$GNHDT,79.875,T*1F
$PYRTM,2024,126.917338027072,18.026985437211
$GNGGA,220058.00,3357.65225511,N,11928.21391825,W,2,13,0.8,7.690,M,-37.531,M,7.0,0131*6D
$PYRTM,2024,126.917338027072,18.026985437211
$GNHDT,79.748,T*1E
$PYRTM,2024,126.917343751748,18.026991161887
$GNGGA,220058.50,3357.65249034,N,11928.21247460,W,2,13,0.8,7.718,M,-37.531,M,7.4,0131*62
$PYRTM,2024,126.917343751748,18.026991161887
$GNHDT,79.549,T*1D
$PYRTM,2024,126.917349600671,18.026997010810
$GNGGA,220059.00,3357.65270317,N,11928.21103298,W,2,13,0.8,7.756,M,-37.530,M,7.0,0131*63
$PYRTM,2024,126.917349600671,18.026997010810
$GNHDT,79.401,T*10
$PYRTM,2024,126.917355324815,18.027002734965
$GNGGA,220059.50,3357.65289616,N,11928.20959087,W,2,13,0.8,7.793,M,-37.530,M,7.4,0131*63
$PYRTM,2024,126.917355324815,18.027002734965
$GNHDT,79.248,T*1B
$PYRTM,2024,126.917361173067,18.027008583206
$GNGGA,220100.00,3357.65308039,N,11928.20814618,W,2,13,0.8,7.805,M,-37.530,M,4.0,0131*67
$PYRTM,2024,126.917361173067,18.027008583206
$GNHDT,79.042,T*13
$PYRTM,2024,126.917366905556,18.027014315694
$GNGGA,220100.50,3357.65326425,N,11928.20670133,W,2,13,0.8,7.770,M,-37.530,M,4.4,0131*6C
$PYRTM,2024,126.917366905556,18.027014315694
$GNHDT,78.983,T*16
$PYRTM,2024,126.917372744039,18.027020154178
$GNGGA,220101.00,3357.65344812,N,11928.20526977,W,2,13,0.8,7.702,M,-37.530,M,5.0,0131*6C
$PYRTM,2024,126.917372744039,18.027020154178
$GNHDT,78.853,T*1A
$PYRTM,2024,126.917378475336,18.027025885475
$GNGGA,220101.50,3357.65364037,N,11928.20385665,W,2,13,0.8,7.623,M,-37.530,M,5.4,0131*61
$PYRTM,2024,126.917378475336,18.027025885475
$GNHDT,78.653,T*14
$PYRTM,2024,126.917384320243,18.027031730382
$GNGGA,220102.00,3357.65384323,N,11928.20247045,W,2,13,0.8,7.565,M,-37.530,M,6.0,0131*62
$PYRTM,2024,126.917384320243,18.027031730382
$GNHDT,78.604,T*16
$PYRTM,2024,126.917390048044,18.027037458183
$GNGGA,220102.50,3357.65405810,N,11928.20110606,W,2,13,0.8,7.531,M,-37.530,M,6.4,0131*67
$PYRTM,2024,126.917390048044,18.027037458183
$GNHDT,78.500,T*11
$PYRTM,2024,126.917395895220,18.027043305359
$GNGGA,220103.00,3357.65427682,N,11928.19975782,W,2,13,0.8,7.533,M,-37.530,M,7.0,0131*6D
$PYRTM,2024,126.917395895220,18.027043305359
$GNHDT,78.633,T*12
$PYRTM,2024,126.917401626701,18.027049036840
$GNGGA,220103.50,3357.65449181,N,11928.19840637,W,2,13,0.8,7.531,M,-37.530,M,7.4,0131*6A
$PYRTM,2024,126.917401626701,18.027049036840
$GNHDT,78.347,T*14
$PYRTM,2024,126.917407466840,18.027054876979
$GNGGA,220104.00,3357.65468852,N,11928.19704651,W,2,13,0.8,7.511,M,-37.530,M,7.0,0131*65
$PYRTM,2024,126.917407466840,18.027054876979
$GNHDT,78.429,T*1B
$PYRTM,2024,126.917413197616,18.027060607755
$GNGGA,220104.50,3357.65487336,N,11928.19568146,W,2,13,0.8,7.491,M,-37.530,M,7.4,0131*6C
$PYRTM,2024,126.917413197616,18.027060607755
$GNHDT,78.609,T*1B
$PYRTM,2024,126.917419040231,18.027066450370
$GNGGA,220105.00,3357.65505254,N,11928.19432066,W,2,13,0.8,7.479,M,-37.530,M,7.0,0131*69
$PYRTM,2024,126.917419040231,18.027066450370
$GNHDT,78.727,T*16
$PYRTM,2024,126.917424776505,18.027072186655
$GNGGA,220105.50,3357.65524231,N,11928.19297031,W,2,13,0.8,7.497,M,-37.530,M,7.4,0131*63
$PYRTM,2024,126.917424776505,18.027072186655
$GNHDT,78.953,T*1B
$PYRTM,2024,126.917430617431,18.027078027581
$GNGGA,220106.00,3357.65544169,N,11928.19162081,W,2,13,0.8,7.558,M,-37.530,M,4.0,0131*6A
$PYRTM,2024,126.917430617431,18.027078027581
$GNHDT,79.153,T*12
$PYRTM,2024,126.917436344664,18.027083754803
$GNGGA,220106.50,3357.65565323,N,11928.19026072,W,2,13,0.8,7.626,M,-37.530,M,4.4,0131*63
$PYRTM,2024,126.917436344664,18.027083754803
$GNHDT,79.291,T*1F
$PYRTM,2024,126.917442190937,18.027089601076
$GNGGA,220107.00,3357.65586633,N,11928.18887476,W,2,13,0.8,7.685,M,-37.530,M,5.0,0131*60
$PYRTM,2024,126.917442190937,18.027089601076
$GNHDT,79.512,T*13
$PYRTM,2024,126.917447920752,18.027095330891
$GNGGA,220107.50,3357.65608753,N,11928.18746166,W,2,13,0.8,7.721,M,-37.530,M,5.4,0131*6A
$PYRTM,2024,126.917447920752,18.027095330891
$GNHDT,79.571,T*16
$PYRTM,2024,126.917453769560,18.027101179699
$GNGGA,220108.00,3357.65630863,N,11928.18602902,W,2,13,0.8,7.728,M,-37.530,M,6.0,0131*62
$PYRTM,2024,126.917453769560,18.027101179699
$GNHDT,79.679,T*1D
$PYRTM,2024,126.917459492917,18.027106903056
$GNGGA,220108.50,3357.65653158,N,11928.18458956,W,2,13,0.8,7.744,M,-37.530,M,6.4,0131*61
$PYRTM,2024,126.917459492917,18.027106903056
$GNHDT,79.683,T*18
$PYRTM,2024,126.917465343542,18.027112753681
$GNGGA,220109.00,3357.65675537,N,11928.18315042,W,2,13,0.8,7.776,M,-37.530,M,7.0,0131*6A
$PYRTM,2024,126.917465343542,18.027112753681
$GNHDT,79.765,T*11
$PYRTM,2024,126.917471066458,18.027118476597
$GNGGA,220109.50,3357.65698687,N,11928.18170946,W,2,13,0.8,7.809,M,-37.530,M,7.4,0131*6B
$PYRTM,2024,126.917471066458,18.027118476597
$GNHDT,79.717,T*14
$PYRTM,2024,126.917476913565,18.027124323704
$GNGGA,220110.00,3357.65722920,N,11928.18026579,W,2,13,0.8,7.851,M,-37.530,M,7.0,0131*6F
$PYRTM,2024,126.917476913565,18.027124323704
$GNHDT,79.625,T*14
$PYRTM,2024,126.917482645961,18.027130056100
$GNGGA,220110.50,3357.65746653,N,11928.17882191,W,2,13,0.8,7.888,M,-37.530,M,7.4,0131*68
$PYRTM,2024,126.917482645961,18.027130056100
$GNHDT,79.282,T*1D
$PYRTM,2024,126.917488485382,18.027135895521
$GNGGA,220111.00,3357.65769041,N,11928.17737884,W,2,13,0.8,7.909,M,-37.530,M,7.0,0131*64
$PYRTM,2024,126.917488485382,18.027135895521
$GNHDT,79.126,T*10
$PYRTM,2024,126.917494216181,18.027141626319
$GNGGA,220111.50,3357.65790248,N,11928.17593775,W,2,13,0.8,7.906,M,-37.530,M,7.4,0131*6A
$PYRTM,2024,126.917494216181,18.027141626319
$GNHDT,79.043,T*12
$PYRTM,2024,126.917500065127,18.027147475266
$GNGGA,220112.00,3357.65810489,N,11928.17450335,W,2,13,0.8,7.873,M,-37.530,M,4.0,0131*6A
$PYRTM,2024,126.917500065127,18.027147475266
$GNHDT,79.169,T*1B
$PYRTM,2024,126.917505788750,18.027153198889
$GNGGA,220112.50,3357.65830338,N,11928.17307999,W,2,13,0.8,7.812,M,-37.530,M,4.4,0131*6A
$PYRTM,2024,126.917505788750,18.027153198889
$GNHDT,79.152,T*13
$PYRTM,2024,126.917511641007,18.027159051146
$GNGGA,220113.00,3357.65849935,N,11928.17167084,W,2,13,0.8,7.741,M,-37.530,M,5.0,0131*6A
$PYRTM,2024,126.917511641007,18.027159051146
$GNHDT,79.385,T*1B
$PYRTM,2024,126.917517371586,18.027164781725
$GNGGA,220113.50,3357.65870298,N,11928.17027749,W,2,13,0.8,7.665,M,-37.530,M,5.4,0131*69
$PYRTM,2024,126.917517371586,18.027164781725
$GNHDT,79.412,T*12
$PYRTM,2024,126.917523209688,18.027170619838
$GNGGA,220114.00,3357.65891357,N,11928.16890783,W,2,13,0.8,7.619,M,-37.530,M,6.0,0131*69
$PYRTM,2024,126.917523209688,18.027170619838
$GNHDT,79.406,T*17
$PYRTM,2024,126.917528937454,18.027176347593
$GNGGA,220114.50,3357.65912817,N,11928.16755378,W,2,13,0.8,7.592,M,-37.530,M,6.4,0131*6B
$PYRTM,2024,126.917528937454,18.027176347593
$GNHDT,79.405,T*14
$PYRTM,2024,126.917534785660,18.027182195799
$GNGGA,220115.00,3357.65934495,N,11928.16620750,W,2,13,0.8,7.586,M,-37.530,M,7.0,0131*60
$PYRTM,2024,126.917534785660,18.027182195799
$GNHDT,79.409,T*18
$PYRTM,2024,126.917540512708,18.027187922847
$GNGGA,220115.50,3357.65955626,N,11928.16485618,W,2,13,0.8,7.559,M,-37.530,M,7.4,0131*6E
$PYRTM,2024,126.917540512708,18.027187922847
$GNHDT,79.451,T*15
$PYRTM,2024,126.917546358056,18.027193768194
$GNGGA,220116.00,3357.65975238,N,11928.16349484,W,2,13,0.8,7.511,M,-37.530,M,7.0,0131*69
$PYRTM,2024,126.917546358056,18.027193768194
$GNHDT,79.465,T*12
$PYRTM,2024,126.917552089421,18.027199499560
$GNGGA,220116.50,3357.65993862,N,11928.16212404,W,2,13,0.8,7.458,M,-37.530,M,7.4,0131*6E
$PYRTM,2024,126.917552089421,18.027199499560
$GNHDT,79.464,T*13
$PYRTM,2024,126.917557929282,18.027205339421
$GNGGA,220117.00,3357.66012748,N,11928.16075315,W,2,13,0.8,7.416,M,-37.530,M,7.0,0131*64
$PYRTM,2024,126.917557929282,18.027205339421
$GNHDT,79.406,T*17
$PYRTM,2024,126.917563659491,18.027211069630
$GNGGA,220117.50,3357.66032377,N,11928.15938092,W,2,13,0.8,7.421,M,-37.530,M,7.4,0131*64
$PYRTM,2024,126.917563659491,18.027211069630
$GNHDT,79.453,T*17
$PYRTM,2024,126.917569506644,18.027216916782
$GNGGA,220118.00,3357.66052689,N,11928.15800742,W,2,13,0.8,7.492,M,-37.530,M,4.0,0131*63
$PYRTM,2024,126.917569506644,18.027216916782
$GNHDT,79.425,T*16
$PYRTM,2024,126.917575236296,18.027222646435
$GNGGA,220118.50,3357.66074221,N,11928.15662422,W,2,13,0.8,7.615,M,-37.530,M,4.4,0131*62
$PYRTM,2024,126.917575236296,18.027222646435
$GNHDT,79.410,T*10
$PYRTM,2024,126.917581084213,18.027228494352
$GNGGA,220119.00,3357.66096580,N,11928.15521972,W,2,13,0.8,7.749,M,-37.530,M,5.0,0131*67
$PYRTM,2024,126.917581084213,18.027228494352
$GNHDT,79.309,T*1F
$PYRTM,2024,126.917586810845,18.027234220984
$GNGGA,220119.50,3357.66119402,N,11928.15379337,W,2,13,0.8,7.841,M,-37.530,M,5.4,0131*6C
$PYRTM,2024,126.917586810845,18.027234220984
$GNHDT,79.219,T*1F
$PYRTM,2024,126.917592652963,18.027240063113
$GNGGA,220120.00,3357.66142168,N,11928.15235123,W,2,13,0.8,7.903,M,-37.530,M,6.0,0131*6A
$PYRTM,2024,126.917592652963,18.027240063113
$GNHDT,79.191,T*1C
$PYRTM,2024,126.917598386597,18.027245796736
$GNGGA,220120.50,3357.66164336,N,11928.15090642,W,2,13,0.8,7.917,M,-37.530,M,6.4,0131*6E
$PYRTM,2024,126.917598386597,18.027245796736
$GNHDT,79.253,T*11
$PYRTM,2024,126.917604232014,18.027251642153
$GNGGA,220121.00,3357.66186115,N,11928.14946438,W,2,13,0.8,7.913,M,-37.530,M,7.0,0131*68
$PYRTM,2024,126.917604232014,18.027251642153
$GNHDT,79.145,T*15
$PYRTM,2024,126.917609959444,18.027257369583
$GNGGA,220121.50,3357.66208032,N,11928.14802120,W,2,13,0.8,7.895,M,-37.530,M,7.4,0131*6A
$PYRTM,2024,126.917609959444,18.027257369583
$GNHDT,79.147,T*17
$PYRTM,2024,126.917615802905,18.027263213044
$GNGGA,220122.00,3357.66230576,N,11928.14658174,W,2,13,0.8,7.882,M,-37.530,M,7.0,0131*60
$PYRTM,2024,126.917615802905,18.027263213044
$GNHDT,79.049,T*18
$PYRTM,2024,126.917621529306,18.027268939456
$GNGGA,220122.50,3357.66253352,N,11928.14515069,W,2,13,0.8,7.870,M,-37.530,M,7.4,0131*6E
$PYRTM,2024,126.917621529306,18.027268939456
$GNHDT,78.933,T*1D
$PYRTM,2024,126.917627380729,18.027274790880
$GNGGA,220123.00,3357.66276460,N,11928.14373256,W,2,13,0.8,7.863,M,-37.530,M,7.0,0131*65
$PYRTM,2024,126.917627380729,18.027274790880
$GNHDT,78.824,T*1A
$PYRTM,2024,126.917633106296,18.027280516435
$GNGGA,220123.50,3357.66299962,N,11928.14231991,W,2,13,0.8,7.846,M,-37.530,M,7.4,0131*6A
$PYRTM,2024,126.917633106296,18.027280516435
$GNHDT,78.762,T*17
$PYRTM,2024,126.917638947870,18.027286358021
$GNGGA,220124.00,3357.66323131,N,11928.14091336,W,2,13,0.8,7.819,M,-37.530,M,4.0,0131*64
$PYRTM,2024,126.917638947870,18.027286358021
$GNHDT,78.665,T*11
$PYRTM,2024,126.917644678056,18.027292088206
$GNGGA,220124.50,3357.66345818,N,11928.13951287,W,2,13,0.8,7.770,M,-37.530,M,4.4,0131*6E
$PYRTM,2024,126.917644678056,18.027292088206
$GNHDT,78.530,T*12
$PYRTM,2024,126.917650526933,18.027297937072
$GNGGA,220125.00,3357.66367124,N,11928.13812212,W,2,13,0.8,7.708,M,-37.530,M,5.0,0131*6C
$PYRTM,2024,126.917650526933,18.027297937072
$GNHDT,78.521,T*12
$PYRTM,2024,126.917656253113,18.027303663252
$GNGGA,220125.50,3357.66387457,N,11928.13674504,W,2,13,0.8,7.642,M,-37.530,M,5.4,0131*63
$PYRTM,2024,126.917656253113,18.027303663252
$GNHDT,78.701,T*12
$PYRTM,2024,126.917662099387,18.027309509525
$GNGGA,220126.00,3357.66407097,N,11928.13537627,W,2,13,0.8,7.572,M,-37.530,M,6.0,0131*63
$PYRTM,2024,126.917662099387,18.027309509525
$GNHDT,78.844,T*1C
$PYRTM,2024,126.917667827743,18.027315237882
$GNGGA,220126.50,3357.66427096,N,11928.13401604,W,2,13,0.8,7.523,M,-37.530,M,6.4,0131*60
$PYRTM,2024,126.917667827743,18.027315237882
$GNHDT,79.012,T*16
$PYRTM,2024,126.917673670428,18.027321080567
$GNGGA,220127.00,3357.66446889,N,11928.13266195,W,2,13,0.8,7.495,M,-37.530,M,7.0,0131*64
$PYRTM,2024,126.917673670428,18.027321080567
$GNHDT,79.190,T*1D
$PYRTM,2024,126.917679399907,18.027326810046
$GNGGA,220127.50,3357.66466506,N,11928.13131112,W,2,13,0.8,7.493,M,-37.530,M,7.4,0131*65
$PYRTM,2024,126.917679399907,18.027326810046
$GNHDT,79.382,T*1C
$PYRTM,2024,126.917685247593,18.027332657731
$GNGGA,220128.00,3357.66485956,N,11928.12995492,W,2,13,0.8,7.510,M,-37.530,M,7.0,0131*6F
$PYRTM,2024,126.917685247593,18.027332657731
$GNHDT,79.531,T*12
$PYRTM,2024,126.917690973854,18.027338383993
$GNGGA,220128.50,3357.66505912,N,11928.12858251,W,2,13,0.8,7.508,M,-37.530,M,7.4,0131*67
$PYRTM,2024,126.917690973854,18.027338383993
$GNHDT,79.773,T*16
$PYRTM,2024,126.917696822187,18.027344232326
$GNGGA,220129.00,3357.66525762,N,11928.12719667,W,2,13,0.8,7.483,M,-37.530,M,7.0,0131*65
$PYRTM,2024,126.917696822187,18.027344232326
$GNHDT,79.839,T*17
$PYRTM,2024,126.917702553252,18.027349963380
$GNGGA,220129.50,3357.66545494,N,11928.12580286,W,2,13,0.8,7.439,M,-37.530,M,7.4,0131*60
$PYRTM,2024,126.917702553252,18.027349963380
$GNHDT,79.847,T*1E
$PYRTM,2024,126.917708396470,18.027355806609
$GNGGA,220130.00,3357.66564824,N,11928.12440470,W,2,13,0.8,7.410,M,-37.530,M,4.0,0131*67
$PYRTM,2024,126.917708396470,18.027355806609
$GNHDT,79.946,T*1E
$PYRTM,2024,126.917714123461,18.027361533611
$GNGGA,220130.50,3357.66584859,N,11928.12300918,W,2,13,0.8,7.423,M,-37.530,M,4.4,0131*62
$PYRTM,2024,126.917714123461,18.027361533611
$GNHDT,79.986,T*12
$PYRTM,2024,126.917719967153,18.027367377303
$GNGGA,220131.00,3357.66606070,N,11928.12160896,W,2,13,0.8,7.486,M,-37.530,M,5.0,0131*65
$PYRTM,2024,126.917719967153,18.027367377303
$GNHDT,79.807,T*1A
$PYRTM,2024,126.917725701887,18.027373112025
$GNGGA,220131.50,3357.66627757,N,11928.12020400,W,2,13,0.8,7.596,M,-37.530,M,5.4,0131*63
$PYRTM,2024,126.917725701887,18.027373112025
$GNHDT,79.666,T*13
$PYRTM,2024,126.917731546273,18.027378956412
$GNGGA,220132.00,3357.66649638,N,11928.11879231,W,2,13,0.8,7.721,M,-37.530,M,6.0,0131*6F
$PYRTM,2024,126.917731546273,18.027378956412
$GNHDT,79.536,T*15
$PYRTM,2024,126.917737273160,18.027384683299
$GNGGA,220132.50,3357.66670647,N,11928.11736650,W,2,13,0.8,7.807,M,-37.530,M,6.4,0131*60
$PYRTM,2024,126.917737273160,18.027384683299
$GNHDT,79.375,T*14
$PYRTM,2024,126.917743118935,18.027390529074
$GNGGA,220133.00,3357.66690932,N,11928.11593594,W,2,13,0.8,7.842,M,-37.530,M,7.0,0131*65
$PYRTM,2024,126.917743118935,18.027390529074
$GNHDT,79.399,T*16
$PYRTM,2024,126.917748846655,18.027396256794
$GNGGA,220133.50,3357.66710587,N,11928.11450783,W,2,13,0.8,7.820,M,-37.530,M,7.4,0131*61
$PYRTM,2024,126.917748846655,18.027396256794
$GNHDT,79.427,T*14
$PYRTM,2024,126.917754691898,18.027402102326
$GNGGA,220134.00,3357.66729729,N,11928.11309561,W,2,13,0.8,7.773,M,-37.530,M,7.0,0131*67
$PYRTM,2024,126.917754691898,18.027402102326
$GNHDT,79.482,T*1B
$PYRTM,2024,126.917760419074,18.027407829213
$GNGGA,220134.50,3357.66748263,N,11928.11169429,W,2,13,0.8,7.719,M,-37.530,M,7.4,0131*6F
$PYRTM,2024,126.917760419074,18.027407829213
$GNHDT,79.442,T*17
$PYRTM,2024,126.917766267662,18.027413677801
$GNGGA,220135.00,3357.66766173,N,11928.11029608,W,2,13,0.8,7.664,M,-37.530,M,7.0,0131*6E
$PYRTM,2024,126.917766267662,18.027413677801
$GNHDT,79.545,T*11
$PYRTM,2024,126.917771993252,18.027419403391
$GNGGA,220135.50,3357.66784114,N,11928.10889410,W,2,13,0.8,7.594,M,-37.530,M,7.4,0131*66
$PYRTM,2024,126.917771993252,18.027419403391
$GNHDT,79.608,T*1B
$PYRTM,2024,126.917777836574,18.027425246713
$GNGGA,220136.00,3357.66802465,N,11928.10748722,W,2,13,0.8,7.521,M,-37.530,M,4.0,0131*6B
$PYRTM,2024,126.917777836574,18.027425246713
$GNHDT,79.493,T*1B
$PYRTM,2024,126.917783568345,18.027430978484
$GNGGA,220136.50,3357.66821563,N,11928.10608076,W,2,13,0.8,7.451,M,-37.530,M,4.4,0131*69
$PYRTM,2024,126.917783568345,18.027430978484
$GNHDT,79.417,T*17
$PYRTM,2024,126.917789413704,18.027436823854
$GNGGA,220137.00,3357.66841649,N,11928.10467975,W,2,13,0.8,7.416,M,-37.530,M,5.0,0131*67
$PYRTM,2024,126.917789413704,18.027436823854
$GNHDT,79.410,T*10
$PYRTM,2024,126.917795142269,18.027442552407
$GNGGA,220137.50,3357.66863200,N,11928.10328930,W,2,13,0.8,7.429,M,-37.530,M,5.4,0131*6E
$PYRTM,2024,126.917795142269,18.027442552407
$GNHDT,79.352,T*11
$PYRTM,2024,126.917800988519,18.027448398657
$GNGGA,220138.00,3357.66885500,N,11928.10190527,W,2,13,0.8,7.487,M,-37.530,M,6.0,0131*63
$PYRTM,2024,126.917800988519,18.027448398657
$GNHDT,79.211,T*17
$PYRTM,2024,126.917806715394,18.027454125532
$GNGGA,220138.50,3357.66908383,N,11928.10052670,W,2,13,0.8,7.584,M,-37.530,M,6.4,0131*67
$PYRTM,2024,126.917806715394,18.027454125532
$GNHDT,79.117,T*12
$PYRTM,2024,126.917812562546,18.027459972685
$GNGGA,220139.00,3357.66931139,N,11928.09915009,W,2,13,0.8,7.707,M,-37.530,M,7.0,0131*6C
$PYRTM,2024,126.917812562546,18.027459972685
$GNHDT,79.041,T*10
$PYRTM,2024,126.917818292662,18.027465702801
$GNGGA,220139.50,3357.66954077,N,11928.09777370,W,2,13,0.8,7.823,M,-37.530,M,7.4,0131*6B
$PYRTM,2024,126.917818292662,18.027465702801
$GNHDT,78.862,T*18
$PYRTM,2024,126.917824136262,18.027471546400
$GNGGA,220140.00,3357.66976482,N,11928.09638960,W,2,13,0.8,7.900,M,-37.530,M,7.0,0131*6B
$PYRTM,2024,126.917824136262,18.027471546400
$GNHDT,78.661,T*15
$PYRTM,2024,126.917829864676,18.027477274815
$GNGGA,220140.50,3357.66997597,N,11928.09499481,W,2,13,0.8,7.935,M,-37.530,M,7.4,0131*6D
$PYRTM,2024,126.917829864676,18.027477274815
$GNHDT,78.605,T*17
$PYRTM,2024,126.917835708264,18.027483118403
$GNGGA,220141.00,3357.67018155,N,11928.09358615,W,2,13,0.8,7.906,M,-37.530,M,7.0,0131*6D
$PYRTM,2024,126.917835708264,18.027483118403
$GNHDT,78.477,T*10
$PYRTM,2024,126.917841436424,18.027488846562
$GNGGA,220141.50,3357.67039328,N,11928.09217161,W,2,13,0.8,7.839,M,-37.530,M,7.4,0131*64
$PYRTM,2024,126.917841436424,18.027488846562
$GNHDT,78.469,T*1F
$PYRTM,2024,126.917847284699,18.027494694838
$GNGGA,220142.00,3357.67061367,N,11928.09075767,W,2,13,0.8,7.779,M,-37.530,M,4.0,0131*6E
$PYRTM,2024,126.917847284699,18.027494694838
$GNHDT,78.426,T*14
$PYRTM,2024,126.917853014618,18.027500424757
$GNGGA,220142.50,3357.67085124,N,11928.08935570,W,2,13,0.8,7.767,M,-37.530,M,4.4,0131*67
$PYRTM,2024,126.917853014618,18.027500424757
$GNHDT,78.502,T*13
$PYRTM,2024,126.917858858113,18.027506268252
$GNGGA,220143.00,3357.67110165,N,11928.08796765,W,2,13,0.8,7.818,M,-37.530,M,5.0,0131*68
$PYRTM,2024,126.917858858113,18.027506268252
$GNHDT,78.672,T*17
$PYRTM,2024,126.917864586505,18.027511996644
$GNGGA,220143.50,3357.67136355,N,11928.08658891,W,2,13,0.8,7.931,M,-37.530,M,5.4,0131*61
$PYRTM,2024,126.917864586505,18.027511996644
$GNHDT,78.790,T*1A
$PYRTM,2024,126.917870432396,18.027517842546
$GNGGA,220144.00,3357.67162680,N,11928.08521037,W,2,13,0.8,8.067,M,-37.530,M,6.0,0131*64
$PYRTM,2024,126.917870432396,18.027517842546
$GNHDT,78.923,T*1C
$PYRTM,2024,126.917876159618,18.027523569769
$GNGGA,220144.50,3357.67188136,N,11928.08381959,W,2,13,0.8,8.153,M,-37.530,M,6.4,0131*60
$PYRTM,2024,126.917876159618,18.027523569769
$GNHDT,78.944,T*1D
$PYRTM,2024,126.917882006968,18.027529417106
$GNGGA,220145.00,3357.67211773,N,11928.08240790,W,2,13,0.8,8.157,M,-37.530,M,7.0,0131*66
$PYRTM,2024,126.917882006968,18.027529417106
$GNHDT,79.034,T*12
$PYRTM,2024,126.917887733484,18.027535143623
$GNGGA,220145.50,3357.67233759,N,11928.08098730,W,2,13,0.8,8.063,M,-37.530,M,7.4,0131*64
$PYRTM,2024,126.917887733484,18.027535143623
$GNHDT,79.277,T*17
$PYRTM,2024,126.917893584560,18.027540994711
$GNGGA,220146.00,3357.67254026,N,11928.07956601,W,2,13,0.8,7.912,M,-37.530,M,7.0,0131*6F
$PYRTM,2024,126.917893584560,18.027540994711
$GNHDT,79.540,T*14
$PYRTM,2024,126.917899311748,18.027546721887
$GNGGA,220146.50,3357.67273993,N,11928.07815219,W,2,13,0.8,7.755,M,-37.530,M,7.4,0131*6A
$PYRTM,2024,126.917899311748,18.027546721887
$GNHDT,79.691,T*1B
$PYRTM,2024,126.917905155972,18.027552566111
$GNGGA,220147.00,3357.67293867,N,11928.07674627,W,2,13,0.8,7.614,M,-37.530,M,7.0,0131*6A
$PYRTM,2024,126.917905155972,18.027552566111
$GNHDT,79.846,T*1F
$PYRTM,2024,126.917910884387,18.027558294525
$GNGGA,220147.50,3357.67314344,N,11928.07534680,W,2,13,0.8,7.519,M,-37.530,M,7.4,0131*6B
$PYRTM,2024,126.917910884387,18.027558294525
$GNHDT,79.908,T*14
$PYRTM,2024,126.917916731678,18.027564141829
$GNGGA,220148.00,3357.67334890,N,11928.07396112,W,2,13,0.8,7.474,M,-37.530,M,4.0,0131*6E
$PYRTM,2024,126.917916731678,18.027564141829
$GNHDT,80.007,T*14
$PYRTM,2024,126.917922461817,18.027569871956
$GNGGA,220148.50,3357.67354995,N,11928.07257824,W,2,13,0.8,7.469,M,-37.530,M,4.4,0131*61
$PYRTM,2024,126.917922461817,18.027569871956
$GNHDT,80.175,T*10
$PYRTM,2024,126.917928300324,18.027575710463
$GNGGA,220149.00,3357.67374317,N,11928.07119151,W,2,13,0.8,7.464,M,-37.530,M,5.0,0131*6D
$PYRTM,2024,126.917928300324,18.027575710463
$GNHDT,80.269,T*1E
$PYRTM,2024,126.917934029664,18.027581439803
$GNGGA,220149.50,3357.67392145,N,11928.06979068,W,2,13,0.8,7.412,M,-37.530,M,5.4,0131*64
$PYRTM,2024,126.917934029664,18.027581439803
$GNHDT,80.420,T*15
$PYRTM,2024,126.917939877986,18.027587288137
$GNGGA,220150.00,3357.67408047,N,11928.06837680,W,2,13,0.8,7.313,M,-37.530,M,6.0,0131*64
$PYRTM,2024,126.917939877986,18.027587288137
$GNHDT,80.385,T*1D
$PYRTM,2024,126.917945607789,18.027593017928
$GNGGA,220150.50,3357.67423041,N,11928.06695925,W,2,13,0.8,7.200,M,-37.530,M,6.4,0131*6F
$PYRTM,2024,126.917945607789,18.027593017928
$GNHDT,80.220,T*13
$PYRTM,2024,126.917951451424,18.027598861562
$GNGGA,220151.00,3357.67437630,N,11928.06555534,W,2,13,0.8,7.135,M,-37.530,M,7.0,0131*6D
$PYRTM,2024,126.917951451424,18.027598861562
$GNHDT,80.048,T*1F
$PYRTM,2024,126.917957181111,18.027604591262
$GNGGA,220151.50,3357.67453362,N,11928.06417655,W,2,13,0.8,7.153,M,-37.530,M,7.4,0131*6F
$PYRTM,2024,126.917957181111,18.027604591262
$GNHDT,79.820,T*1F
$PYRTM,2024,126.917963025451,18.027610435590
$GNGGA,220152.00,3357.67470571,N,11928.06282055,W,2,13,0.8,7.271,M,-37.530,M,7.0,0131*67
$PYRTM,2024,126.917963025451,18.027610435590
$GNHDT,79.676,T*12
$PYRTM,2024,126.917968753160,18.027616163299
$GNGGA,220152.50,3357.67489521,N,11928.06147664,W,2,13,0.8,7.443,M,-37.530,M,7.4,0131*6C
$PYRTM,2024,126.917968753160,18.027616163299
$GNHDT,79.615,T*17
$PYRTM,2024,126.917974602245,18.027622012384
$GNGGA,220153.00,3357.67509432,N,11928.06012580,W,2,13,0.8,7.614,M,-37.530,M,7.0,0131*6E
$PYRTM,2024,126.917974602245,18.027622012384
$GNHDT,79.524,T*16
$PYRTM,2024,126.917980331007,18.027627741146
$GNGGA,220153.50,3357.67529872,N,11928.05875819,W,2,13,0.8,7.727,M,-37.530,M,7.4,0131*63
$PYRTM,2024,126.917980331007,18.027627741146
$GNHDT,79.428,T*1B
$PYRTM,2024,126.917986173796,18.027633583935
$GNGGA,220154.00,3357.67549963,N,11928.05737667,W,2,13,0.8,7.765,M,-37.530,M,4.0,0131*69
$PYRTM,2024,126.917986173796,18.027633583935
$GNHDT,79.436,T*14
$PYRTM,2024,126.917991899988,18.027639310127
$GNGGA,220154.50,3357.67569471,N,11928.05598046,W,2,13,0.8,7.756,M,-37.530,M,4.4,0131*66
$PYRTM,2024,126.917991899988,18.027639310127
$GNHDT,79.312,T*15
$PYRTM,2024,126.917997750197,18.027645160336
$GNGGA,220155.00,3357.67588715,N,11928.05457978,W,2,13,0.8,7.729,M,-37.530,M,5.0,0131*67
$PYRTM,2024,126.917997750197,18.027645160336
$GNHDT,79.148,T*18
$PYRTM,2024,126.918003473333,18.027650883484
$GNGGA,220155.50,3357.67607642,N,11928.05317713,W,2,13,0.8,7.716,M,-37.530,M,5.4,0131*6D
$PYRTM,2024,126.918003473333,18.027650883484
$GNHDT,79.212,T*14
$PYRTM,2024,126.918009324896,18.027656735035
$GNGGA,220156.00,3357.67627152,N,11928.05177804,W,2,13,0.8,7.767,M,-37.530,M,6.0,0131*63
$PYRTM,2024,126.918009324896,18.027656735035
$GNHDT,79.221,T*14
$PYRTM,2024,126.918015050255,18.027662460405
$GNGGA,220156.50,3357.67648362,N,11928.05037615,W,2,13,0.8,7.866,M,-37.530,M,6.4,0131*6F
$PYRTM,2024,126.918015050255,18.027662460405
$GNHDT,79.200,T*17
$PYRTM,2024,126.918020894387,18.027668304525
$GNGGA,220157.00,3357.67671793,N,11928.04896227,W,2,13,0.8,7.993,M,-37.530,M,7.0,0131*62
$PYRTM,2024,126.918020894387,18.027668304525
$GNHDT,79.229,T*1C
$PYRTM,2024,126.918026626111,18.027674036250
$GNGGA,220157.50,3357.67697212,N,11928.04752703,W,2,13,0.8,8.100,M,-37.530,M,7.4,0131*6E
$PYRTM,2024,126.918026626111,18.027674036250
$GNHDT,79.232,T*16
$PYRTM,2024,126.918032467639,18.027679877778
$GNGGA,220158.00,3357.67724349,N,11928.04607198,W,2,13,0.8,8.165,M,-37.530,M,7.0,0131*60
$PYRTM,2024,126.918032467639,18.027679877778
$GNHDT,79.217,T*11
$PYRTM,2024,126.918038201377,18.027685611528
$GNGGA,220158.50,3357.67751387,N,11928.04460835,W,2,13,0.8,8.185,M,-37.530,M,7.4,0131*62
$PYRTM,2024,126.918038201377,18.027685611528
$GNHDT,79.280,T*1F
$PYRTM,2024,126.918044044745,18.027691454884
$GNGGA,220159.00,3357.67777679,N,11928.04314549,W,2,13,0.8,8.169,M,-37.530,M,7.0,0131*62
$PYRTM,2024,126.918044044745,18.027691454884
$GNHDT,79.296,T*18
$PYRTM,2024,126.918049774618,18.027697184757
$GNGGA,220159.50,3357.67802368,N,11928.04168479,W,2,13,0.8,8.123,M,-37.530,M,7.4,0131*6E
$PYRTM,2024,126.918049774618,18.027697184757
$GNHDT,79.253,T*11
$PYRTM,2024,126.918055620255,18.027703030394
$GNGGA,220200.00,3357.67825382,N,11928.04022873,W,2,13,0.8,8.064,M,-37.530,M,4.0,0131*69
$PYRTM,2024,126.918055620255,18.027703030394
$GNHDT,79.138,T*1F
$PYRTM,2024,126.918061343391,18.027708753530
$GNGGA,220200.50,3357.67847878,N,11928.03878279,W,2,13,0.8,7.994,M,-37.530,M,4.4,0131*6B
$PYRTM,2024,126.918061343391,18.027708753530
$GNHDT,78.878,T*13
$PYRTM,2024,126.918067188750,18.027714598889
$GNGGA,220201.00,3357.67871312,N,11928.03735008,W,2,13,0.8,7.927,M,-37.530,M,5.0,0131*62
$PYRTM,2024,126.918067188750,18.027714598889
$GNHDT,78.644,T*12
$PYRTM,2024,126.918072918808,18.027720328947
$GNGGA,220201.50,3357.67896182,N,11928.03593339,W,2,13,0.8,7.833,M,-37.530,M,5.4,0131*6A
$PYRTM,2024,126.918072918808,18.027720328947
$GNHDT,78.335,T*11
$PYRTM,2024,126.918078763032,18.027726173160
$GNGGA,220202.00,3357.67923128,N,11928.03452148,W,2,13,0.8,7.732,M,-37.530,M,6.0,0131*62
$PYRTM,2024,126.918078763032,18.027726173160
$GNHDT,78.072,T*11
$PYRTM,2024,126.918084492176,18.027731902315
$GNGGA,220202.50,3357.67948764,N,11928.03312154,W,2,13,0.8,7.617,M,-37.530,M,6.4,0131*68
$PYRTM,2024,126.918084492176,18.027731902315
$GNHDT,77.939,T*18
$PYRTM,2024,126.918090343542,18.027737753692
$GNGGA,220203.00,3357.67972796,N,11928.03173794,W,2,13,0.8,7.495,M,-37.530,M,7.0,0131*6A
$PYRTM,2024,126.918090343542,18.027737753692
$GNHDT,77.819,T*1B
$PYRTM,2024,126.918096069745,18.027743479884
$GNGGA,220203.50,3357.67994398,N,11928.03038352,W,2,13,0.8,7.410,M,-37.530,M,7.4,0131*64
$PYRTM,2024,126.918096069745,18.027743479884
$GNHDT,77.721,T*1F
$PYRTM,2024,126.918101913356,18.027749323495
$GNGGA,220204.00,3357.68014420,N,11928.02905972,W,2,13,0.8,7.373,M,-37.530,M,7.0,0131*64
$PYRTM,2024,126.918101913356,18.027749323495
$GNHDT,77.758,T*11
$PYRTM,2024,126.918107648183,18.027755058322
$GNGGA,220204.50,3357.68034836,N,11928.02774385,W,2,13,0.8,7.377,M,-37.530,M,7.4,0131*62
$PYRTM,2024,126.918107648183,18.027755058322
$GNHDT,77.846,T*11
$PYRTM,2024,126.918113487153,18.027760897292
$GNGGA,220205.00,3357.68054746,N,11928.02643772,W,2,13,0.8,7.406,M,-37.530,M,7.0,0131*64
$PYRTM,2024,126.918113487153,18.027760897292
$GNHDT,78.130,T*16
$PYRTM,2024,126.918119213993,18.027766624132
$GNGGA,220205.50,3357.68074186,N,11928.02512423,W,2,13,0.8,7.438,M,-37.530,M,7.4,0131*60
$PYRTM,2024,126.918119213993,18.027766624132
$GNHDT,78.283,T*1D
$PYRTM,2024,126.918125061493,18.027772471632
$GNGGA,220206.00,3357.68092287,N,11928.02380551,W,2,13,0.8,7.460,M,-37.530,M,4.0,0131*6F
$PYRTM,2024,126.918125061493,18.027772471632
$GNHDT,78.715,T*17
$PYRTM,2024,126.918130793900,18.027778204039
$GNGGA,220206.50,3357.68109634,N,11928.02246996,W,2,13,0.8,7.473,M,-37.530,M,4.4,0131*6F
$PYRTM,2024,126.918130793900,18.027778204039
$GNHDT,78.988,T*1D
$PYRTM,2024,126.918136635799,18.027784045938
$GNGGA,220207.00,3357.68125922,N,11928.02111968,W,2,13,0.8,7.489,M,-37.530,M,5.0,0131*6D
$PYRTM,2024,126.918136635799,18.027784045938
$GNHDT,79.380,T*1E
$PYRTM,2024,126.918142364120,18.027789774259
$GNGGA,220207.50,3357.68141748,N,11928.01975247,W,2,13,0.8,7.521,M,-37.530,M,5.4,0131*60
$PYRTM,2024,126.918142364120,18.027789774259
$GNHDT,79.794,T*1F
$PYRTM,2024,126.918148209306,18.027795619444
$GNGGA,220208.00,3357.68158348,N,11928.01836105,W,2,13,0.8,7.565,M,-37.530,M,6.0,0131*62
$PYRTM,2024,126.918148209306,18.027795619444
$GNHDT,80.110,T*13
$PYRTM,2024,126.918153946389,18.027801356528
$GNGGA,220208.50,3357.68177225,N,11928.01694951,W,2,13,0.8,7.629,M,-37.530,M,6.4,0131*60
$PYRTM,2024,126.918153946389,18.027801356528
$GNHDT,80.488,T*17
$PYRTM,2024,126.918159782870,18.027807193009
$GNGGA,220209.00,3357.68198671,N,11928.01551907,W,2,13,0.8,7.711,M,-37.530,M,7.0,0131*66
$PYRTM,2024,126.918159782870,18.027807193009
$GNHDT,80.686,T*1B
$PYRTM,2024,126.918165511111,18.027812921250
$GNGGA,220209.50,3357.68222785,N,11928.01407127,W,2,13,0.8,7.798,M,-37.530,M,7.4,0131*66
$PYRTM,2024,126.918165511111,18.027812921250
$GNHDT,80.657,T*17
$PYRTM,2024,126.918171364387,18.027818774537
$GNGGA,220210.00,3357.68248223,N,11928.01260688,W,2,13,0.8,7.875,M,-37.530,M,7.0,0131*63
$PYRTM,2024,126.918171364387,18.027818774537
$GNHDT,80.593,T*1C
$PYRTM,2024,126.918177085926,18.027824496065
$GNGGA,220210.50,3357.68272982,N,11928.01113710,W,2,13,0.8,7.928,M,-37.530,M,7.4,0131*65
$PYRTM,2024,126.918177085926,18.027824496065
$GNHDT,80.661,T*12
$PYRTM,2024,126.918182934144,18.027830344282
$GNGGA,220211.00,3357.68295240,N,11928.00966834,W,2,13,0.8,7.970,M,-37.530,M,7.0,0131*66
$PYRTM,2024,126.918182934144,18.027830344282
$GNHDT,80.643,T*12
$PYRTM,2024,126.918188661296,18.027836071435
$GNGGA,220211.50,3357.68315423,N,11928.00820046,W,2,13,0.8,7.997,M,-37.530,M,7.4,0131*6A
$PYRTM,2024,126.918188661296,18.027836071435
$GNHDT,80.616,T*12
$PYRTM,2024,126.918194505613,18.027841915764
$GNGGA,220212.00,3357.68333968,N,11928.00672524,W,2,13,0.8,7.990,M,-37.530,M,4.0,0131*62
$PYRTM,2024,126.918194505613,18.027841915764
$GNHDT,80.475,T*15
$PYRTM,2024,126.918200242720,18.027847652859
$GNGGA,220212.50,3357.68352918,N,11928.00524322,W,2,13,0.8,7.946,M,-37.530,M,4.4,0131*68
$PYRTM,2024,126.918200242720,18.027847652859
$GNHDT,80.317,T*16
$PYRTM,2024,126.918206078646,18.027853488785
$GNGGA,220213.00,3357.68372765,N,11928.00377209,W,2,13,0.8,7.854,M,-37.530,M,5.0,0131*65
$PYRTM,2024,126.918206078646,18.027853488785
$GNHDT,80.056,T*10
$PYRTM,2024,126.918211809062,18.027859219213
$GNGGA,220213.50,3357.68393703,N,11928.00232538,W,2,13,0.8,7.756,M,-37.530,M,5.4,0131*63
$PYRTM,2024,126.918211809062,18.027859219213
$GNHDT,79.627,T*16
$PYRTM,2024,126.918217651794,18.027865061933
$GNGGA,220214.00,3357.68414736,N,11928.00090908,W,2,13,0.8,7.657,M,-37.530,M,6.0,0131*6D
$PYRTM,2024,126.918217651794,18.027865061933
$GNHDT,79.127,T*11
$PYRTM,2024,126.918223382083,18.027870792222
$GNGGA,220214.50,3357.68437142,N,11927.99951032,W,2,13,0.8,7.566,M,-37.530,M,6.4,0131*62
$PYRTM,2024,126.918223382083,18.027870792222
$GNHDT,78.802,T*1E
$PYRTM,2024,126.918229228310,18.027876638449
$GNGGA,220215.00,3357.68459862,N,11927.99812816,W,2,13,0.8,7.468,M,-37.530,M,7.0,0131*67
$PYRTM,2024,126.918229228310,18.027876638449
$GNHDT,78.403,T*13
$PYRTM,2024,126.918234956366,18.027882366505
$GNGGA,220215.50,3357.68482330,N,11927.99676773,W,2,13,0.8,7.392,M,-37.530,M,7.4,0131*6E
$PYRTM,2024,126.918234956366,18.027882366505
$GNHDT,78.378,T*18
$PYRTM,2024,126.918240806343,18.027888216481
$GNGGA,220216.00,3357.68505023,N,11927.99542242,W,2,13,0.8,7.307,M,-37.530,M,7.0,0131*6C
$PYRTM,2024,126.918240806343,18.027888216481
$GNHDT,78.215,T*12
$PYRTM,2024,126.918246532164,18.027893942303
$GNGGA,220216.50,3357.68525328,N,11927.99410922,W,2,13,0.8,7.247,M,-37.530,M,7.4,0131*69
$PYRTM,2024,126.918246532164,18.027893942303
$GNHDT,78.020,T*16
$PYRTM,2024,126.918252377731,18.027899787870
$GNGGA,220217.00,3357.68544185,N,11927.99280644,W,2,13,0.8,7.210,M,-37.530,M,7.0,0131*69
$PYRTM,2024,126.918252377731,18.027899787870
$GNHDT,77.908,T*1A
$PYRTM,2024,126.918258104109,18.027905514248
$GNGGA,220217.50,3357.68562691,N,11927.99149866,W,2,13,0.8,7.192,M,-37.530,M,7.4,0131*6F
$PYRTM,2024,126.918258104109,18.027905514248
$GNHDT,77.962,T*16
$PYRTM,2024,126.918263955937,18.027911366076
$GNGGA,220218.00,3357.68580390,N,11927.99019061,W,2,13,0.8,7.227,M,-37.530,M,4.0,0131*6C
$PYRTM,2024,126.918263955937,18.027911366076
$GNHDT,77.919,T*1A
$PYRTM,2024,126.918269678299,18.027917088437
$GNGGA,220218.50,3357.68597971,N,11927.98887569,W,2,13,0.8,7.290,M,-37.530,M,4.4,0131*61
$PYRTM,2024,126.918269678299,18.027917088437
$GNHDT,77.965,T*11
$PYRTM,2024,126.918275526319,18.027922936458
$GNGGA,220219.00,3357.68615300,N,11927.98755091,W,2,13,0.8,7.403,M,-37.530,M,5.0,0131*6B
$PYRTM,2024,126.918275526319,18.027922936458
$GNHDT,78.280,T*1E
$PYRTM,2024,126.918281254028,18.027928664167
$GNGGA,220219.50,3357.68633166,N,11927.98620790,W,2,13,0.8,7.517,M,-37.530,M,5.4,0131*6D
$PYRTM,2024,126.918281254028,18.027928664167
$GNHDT,78.494,T*1D
$PYRTM,2024,126.918287100532,18.027934510671
$GNGGA,220220.00,3357.68651538,N,11927.98483776,W,2,13,0.8,7.606,M,-37.530,M,6.0,0131*6E
$PYRTM,2024,126.918287100532,18.027934510671
$GNHDT,78.766,T*13
$PYRTM,2024,126.918292827454,18.027940237593
$GNGGA,220220.50,3357.68670992,N,11927.98344228,W,2,13,0.8,7.670,M,-37.530,M,6.4,0131*63
$PYRTM,2024,126.918292827454,18.027940237593
$GNHDT,79.256,T*14
$PYRTM,2024,126.918298670150,18.027946080289
$GNGGA,220221.00,3357.68691807,N,11927.98202934,W,2,13,0.8,7.731,M,-37.530,M,7.0,0131*61
$PYRTM,2024,126.918298670150,18.027946080289
$GNHDT,79.559,T*1C
$PYRTM,2024,126.918304403773,18.027951813912
$GNGGA,220221.50,3357.68714374,N,11927.98060103,W,2,13,0.8,7.803,M,-37.530,M,7.4,0131*67
$PYRTM,2024,126.918304403773,18.027951813912
$GNHDT,79.887,T*12
$PYRTM,2024,126.918310249769,18.027957659907
$GNGGA,220222.00,3357.68738477,N,11927.97916025,W,2,13,0.8,7.895,M,-37.530,M,7.0,0131*62
$PYRTM,2024,126.918310249769,18.027957659907
$GNHDT,80.241,T*14
$PYRTM,2024,126.918315974294,18.027963384433
$GNGGA,220222.50,3357.68763449,N,11927.97771165,W,2,13,0.8,7.982,M,-37.530,M,7.4,0131*6D
$PYRTM,2024,126.918315974294,18.027963384433
$GNHDT,80.508,T*1E
$PYRTM,2024,126.918321821366,18.027969231505
$GNGGA,220223.00,3357.68788385,N,11927.97625864,W,2,13,0.8,8.066,M,-37.530,M,7.0,0131*6B
$PYRTM,2024,126.918321821366,18.027969231505
$GNHDT,80.627,T*10
$PYRTM,2024,126.918327548171,18.027974958310
$GNGGA,220223.50,3357.68812569,N,11927.97480294,W,2,13,0.8,8.115,M,-37.530,M,7.4,0131*6F
$PYRTM,2024,126.918327548171,18.027974958310
$GNHDT,80.689,T*14
$PYRTM,2024,126.918333401910,18.027980812049
$GNGGA,220224.00,3357.68835134,N,11927.97334288,W,2,13,0.8,8.118,M,-37.530,M,4.0,0131*6B
$PYRTM,2024,126.918333401910,18.027980812049
$GNHDT,80.703,T*17
$PYRTM,2024,126.918339123634,18.027986533773
$GNGGA,220224.50,3357.68856548,N,11927.97188657,W,2,13,0.8,8.060,M,-37.530,M,4.4,0131*6D
$PYRTM,2024,126.918339123634,18.027986533773
$GNHDT,80.522,T*16
$PYRTM,2024,126.918344972512,18.027992382650
$GNGGA,220225.00,3357.68877340,N,11927.97044016,W,2,13,0.8,7.943,M,-37.530,M,5.0,0131*64
$PYRTM,2024,126.918344972512,18.027992382650
$GNHDT,80.302,T*12
$PYRTM,2024,126.918350700417,18.027998110556
$GNGGA,220225.50,3357.68898041,N,11927.96900951,W,2,13,0.8,7.813,M,-37.530,M,5.4,0131*60
$PYRTM,2024,126.918350700417,18.027998110556
$GNHDT,80.016,T*14
$PYRTM,2024,126.918356543993,18.028003954132
$GNGGA,220226.00,3357.68918683,N,11927.96760644,W,2,13,0.8,7.698,M,-37.530,M,6.0,0131*6E
$PYRTM,2024,126.918356543993,18.028003954132
$GNHDT,79.725,T*15
$PYRTM,2024,126.918362270359,18.028009680498
$GNGGA,220226.50,3357.68940024,N,11927.96623198,W,2,13,0.8,7.615,M,-37.530,M,6.4,0131*6C
$PYRTM,2024,126.918362270359,18.028009680498
$GNHDT,79.349,T*1B
$PYRTM,2024,126.918368118148,18.028015528299
$GNGGA,220227.00,3357.68961414,N,11927.96487974,W,2,13,0.8,7.583,M,-37.530,M,7.0,0131*63
$PYRTM,2024,126.918368118148,18.028015528299
$GNHDT,79.041,T*10
$PYRTM,2024,126.918379688530,18.028027098669
$GNGGA,220228.00,3357.69002801,N,11927.96219800,W,2,13,0.8,7.539,M,-37.530,M,7.0,0131*6B
$PYRTM,2024,126.918379688530,18.028027098669
$GNHDT,78.750,T*16
$PYRTM,2024,126.918385418368,18.028032828507
$GNGGA,220228.50,3357.69021805,N,11927.96086304,W,2,13,0.8,7.499,M,-37.530,M,7.4,0131*6F
$PYRTM,2024,126.918385418368,18.028032828507
$GNHDT,78.623,T*13
$PYRTM,2024,126.918391267662,18.028038677801
$GNGGA,220229.00,3357.69039350,N,11927.95953133,W,2,13,0.8,7.434,M,-37.530,M,7.0,0131*6E
$PYRTM,2024,126.918391267662,18.028038677801
$GNHDT,78.636,T*17
$PYRTM,2024,126.918396992373,18.028044402512
$GNGGA,220229.50,3357.69056080,N,11927.95819270,W,2,13,0.8,7.357,M,-37.530,M,7.4,0131*61
$PYRTM,2024,126.918396992373,18.028044402512
$GNHDT,78.794,T*1E
$PYRTM,2024,126.918402841933,18.028050252083
$GNGGA,220230.00,3357.69071771,N,11927.95684479,W,2,13,0.8,7.304,M,-37.530,M,4.0,0131*64
$PYRTM,2024,126.918402841933,18.028050252083
$GNHDT,78.934,T*1A
