$PYRTM,2024,127.833333411204,18.942980821343
$GNGGA,200000.00,3330.29765938,N,11848.71826378,W,2,11,1.1,8.143,M,-37.768,M,4.0,0131*6A
$PYRTM,2024,127.833333411204,18.942980821343
$GNHDT,130.727,T*2B
$PYRTM,2024,127.833339138854,18.942986549005
$GNGGA,200000.50,3330.29692126,N,11848.71726456,W,2,11,1.1,8.136,M,-37.768,M,4.4,0131*63
$PYRTM,2024,127.833339138854,18.942986549005
$GNHDT,130.770,T*29
$PYRTM,2024,127.833344980752,18.942992390891
$GNGGA,200001.00,3330.29617742,N,11848.71628599,W,2,11,1.1,8.107,M,-37.768,M,5.0,0131*64
$PYRTM,2024,127.833344980752,18.942992390891
$GNHDT,130.815,T*25
$PYRTM,2024,127.833350714375,18.942998124525
$GNGGA,200001.50,3330.29543059,N,11848.71532815,W,2,11,1.1,8.095,M,-37.768,M,5.4,0131*61
$PYRTM,2024,127.833350714375,18.942998124525
$GNHDT,130.993,T*2A
$PYRTM,2024,127.833356555174,18.943003965312
$GNGGA,200002.00,3330.29468653,N,11848.71437558,W,2,11,1.1,8.087,M,-37.768,M,6.0,0131*67
$PYRTM,2024,127.833356555174,18.943003965312
$GNHDT,130.993,T*2A
$PYRTM,2024,127.833362285556,18.943009695694
$GNGGA,200002.50,3330.29395885,N,11848.71341057,W,2,11,1.1,8.102,M,-37.768,M,6.4,0131*66
$PYRTM,2024,127.833362285556,18.943009695694
$GNHDT,131.136,T*2C
$PYRTM,2024,127.833368128669,18.943015538808
$GNGGA,200003.00,3330.29324430,N,11848.71242822,W,2,11,1.1,8.135,M,-37.768,M,7.0,0131*63
$PYRTM,2024,127.833368128669,18.943015538808
$GNHDT,131.117,T*2F
$PYRTM,2024,127.833373863137,18.943021273275
$GNGGA,200003.50,3330.29254125,N,11848.71142206,W,2,11,1.1,8.160,M,-37.768,M,7.4,0131*6A
$PYRTM,2024,127.833373863137,18.943021273275
$GNHDT,131.061,T*2F
$PYRTM,2024,127.833379701887,18.943027112025
$GNGGA,200004.00,3330.29184719,N,11848.71039292,W,2,11,1.1,8.164,M,-37.768,M,7.0,0131*6F
$PYRTM,2024,127.833379701887,18.943027112025
$GNHDT,131.000,T*28
$PYRTM,2024,127.833385438762,18.943032848912
$GNGGA,200004.50,3330.29115525,N,11848.70935657,W,2,11,1.1,8.144,M,-37.768,M,7.4,0131*60
$PYRTM,2024,127.833385438762,18.943032848912
$GNHDT,130.962,T*24
$PYRTM,2024,127.833391275856,18.943038685995
$GNGGA,200005.00,3330.29045956,N,11848.70832895,W,2,11,1.1,8.100,M,-37.768,M,7.0,0131*6A
$PYRTM,2024,127.833391275856,18.943038685995
$GNHDT,130.741,T*2B
$PYRTM,2024,127.833397010046,18.943044420185
$GNGGA,200005.50,3330.28975401,N,11848.70733147,W,2,11,1.1,8.072,M,-37.768,M,7.4,0131*63
$PYRTM,2024,127.833397010046,18.943044420185
$GNHDT,130.941,T*25
$PYRTM,2024,127.833402854711,18.943050264850
$GNGGA,200006.00,3330.28903103,N,11848.70636021,W,2,11,1.1,8.057,M,-37.768,M,4.0,0131*66
$PYRTM,2024,127.833402854711,18.943050264850
$GNHDT,130.795,T*22
$PYRTM,2024,127.833408583507,18.943055993646
$GNGGA,200006.50,3330.28829413,N,11848.70540355,W,2,11,1.1,8.059,M,-37.768,M,4.4,0131*66
$PYRTM,2024,127.833408583507,18.943055993646
$GNHDT,130.420,T*2F
$PYRTM,2024,127.833414422847,18.943061832986
$GNGGA,200007.00,3330.28754299,N,11848.70445820,W,2,11,1.1,8.076,M,-37.768,M,5.0,0131*66
$PYRTM,2024,127.833414422847,18.943061832986
$GNHDT,130.035,T*2F
$PYRTM,2024,127.833420160799,18.943067570938
$GNGGA,200007.50,3330.28678732,N,11848.70350562,W,2,11,1.1,8.105,M,-37.768,M,5.4,0131*61
$PYRTM,2024,127.833420160799,18.943067570938
$GNHDT,129.938,T*23
$PYRTM,2024,127.833426001644,18.943073411782
$GNGGA,200008.00,3330.28603463,N,11848.70253306,W,2,11,1.1,8.133,M,-37.768,M,6.0,0131*64
$PYRTM,2024,127.833426001644,18.943073411782
$GNHDT,129.863,T*2C
$PYRTM,2024,127.833431733044,18.943079143183
$GNGGA,200008.50,3330.28529748,N,11848.70152499,W,2,11,1.1,8.177,M,-37.768,M,6.4,0131*67
$PYRTM,2024,127.833431733044,18.943079143183
$GNHDT,129.948,T*24
$PYRTM,2024,127.833437574144,18.943084984282
$GNGGA,200009.00,3330.28458187,N,11848.70048009,W,2,11,1.1,8.230,M,-37.768,M,7.0,0131*63
$PYRTM,2024,127.833437574144,18.943084984282
$GNHDT,129.949,T*25
$PYRTM,2024,127.833443308056,18.943090718194
$GNGGA,200009.50,3330.28388166,N,11848.69941354,W,2,11,1.1,8.274,M,-37.768,M,7.4,0131*64
$PYRTM,2024,127.833443308056,18.943090718194
$GNHDT,129.890,T*20
$PYRTM,2024,127.833449146007,18.943096556146
$GNGGA,200010.00,3330.28319447,N,11848.69834723,W,2,11,1.1,8.318,M,-37.768,M,7.0,0131*6F
$PYRTM,2024,127.833449146007,18.943096556146
$GNHDT,129.940,T*2C
$PYRTM,2024,127.833454882014,18.943102292153
$GNGGA,200010.50,3330.28250216,N,11848.69729904,W,2,11,1.1,8.338,M,-37.768,M,7.4,0131*6A
$PYRTM,2024,127.833454882014,18.943102292153
$GNHDT,130.038,T*22
$PYRTM,2024,127.833460723218,18.943108133356
$GNGGA,200011.00,3330.28179198,N,11848.69627552,W,2,11,1.1,8.310,M,-37.768,M,7.0,0131*6D
$PYRTM,2024,127.833460723218,18.943108133356
$GNHDT,129.963,T*2D
$PYRTM,2024,127.833466455556,18.943113865694
$GNGGA,200011.50,3330.28105129,N,11848.69527241,W,2,11,1.1,8.221,M,-37.768,M,7.4,0131*68
$PYRTM,2024,127.833466455556,18.943113865694
$GNHDT,129.918,T*21
$PYRTM,2024,127.833472295891,18.943119706030
$GNGGA,200012.00,3330.28028351,N,11848.69427444,W,2,11,1.1,8.078,M,-37.768,M,4.0,0131*66
$PYRTM,2024,127.833472295891,18.943119706030
$GNHDT,129.808,T*21
$PYRTM,2024,127.833478031771,18.943125441910
$GNGGA,200012.50,3330.27950710,N,11848.69327264,W,2,11,1.1,7.912,M,-37.767,M,4.4,0131*69
$PYRTM,2024,127.833478031771,18.943125441910
$GNHDT,129.824,T*2F
$PYRTM,2024,127.833483870637,18.943131280775
$GNGGA,200013.00,3330.27873362,N,11848.69225930,W,2,11,1.1,7.754,M,-37.767,M,5.0,0131*6C
$PYRTM,2024,127.833483870637,18.943131280775
$GNHDT,129.722,T*26
$PYRTM,2024,127.833489605856,18.943137015995
$GNGGA,200013.50,3330.27798253,N,11848.69123647,W,2,11,1.1,7.648,M,-37.767,M,5.4,0131*62
$PYRTM,2024,127.833489605856,18.943137015995
$GNHDT,129.565,T*27
$PYRTM,2024,127.833495445359,18.943142855498
$GNGGA,200014.00,3330.27725820,N,11848.69020969,W,2,11,1.1,7.632,M,-37.767,M,6.0,0131*63
$PYRTM,2024,127.833495445359,18.943142855498
$GNHDT,129.405,T*20
$PYRTM,2024,127.833501180174,18.943148590313
$GNGGA,200014.50,3330.27655022,N,11848.68918793,W,2,11,1.1,7.716,M,-37.767,M,6.4,0131*61
$PYRTM,2024,127.833501180174,18.943148590313
$GNHDT,129.413,T*27
$PYRTM,2024,127.833507018877,18.943154429016
$GNGGA,200015.00,3330.27585141,N,11848.68816556,W,2,11,1.1,7.867,M,-37.767,M,7.0,0131*67
$PYRTM,2024,127.833507018877,18.943154429016
$GNHDT,129.429,T*2E
$PYRTM,2024,127.833512752697,18.943160162836
$GNGGA,200015.50,3330.27515835,N,11848.68714426,W,2,11,1.1,8.055,M,-37.767,M,7.4,0131*68
$PYRTM,2024,127.833512752697,18.943160162836
$GNHDT,129.485,T*28
$PYRTM,2024,127.833518594873,18.943166005012
$GNGGA,200016.00,3330.27446317,N,11848.68611583,W,2,11,1.1,8.221,M,-37.767,M,7.0,0131*6D
$PYRTM,2024,127.833518594873,18.943166005012
$GNHDT,129.514,T*21
$PYRTM,2024,127.833524329664,18.943171739803
$GNGGA,200016.50,3330.27375037,N,11848.68509236,W,2,11,1.1,8.316,M,-37.767,M,7.4,0131*6C
$PYRTM,2024,127.833524329664,18.943171739803
$GNHDT,129.594,T*29
$PYRTM,2024,127.833530167523,18.943177577662
$GNGGA,200017.00,3330.27300882,N,11848.68409430,W,2,11,1.1,8.323,M,-37.767,M,7.0,0131*6F
$PYRTM,2024,127.833530167523,18.943177577662
$GNHDT,129.734,T*21
$PYRTM,2024,127.833535902373,18.943183312512
$GNGGA,200017.50,3330.27224731,N,11848.68311862,W,2,11,1.1,8.248,M,-37.767,M,7.4,0131*67
$PYRTM,2024,127.833535902373,18.943183312512
$GNHDT,129.778,T*29
$PYRTM,2024,127.833541744873,18.943189155012
$GNGGA,200018.00,3330.27148837,N,11848.68215251,W,2,11,1.1,8.157,M,-37.767,M,4.0,0131*68
$PYRTM,2024,127.833541744873,18.943189155012
$GNHDT,129.961,T*2F
$PYRTM,2024,127.833547481771,18.943194891921
$GNGGA,200018.50,3330.27074407,N,11848.68118492,W,2,11,1.1,8.095,M,-37.767,M,4.4,0131*60
$PYRTM,2024,127.833547481771,18.943194891921
$GNHDT,130.090,T*20
$PYRTM,2024,127.833553314873,18.943200725012
$GNGGA,200019.00,3330.27001591,N,11848.68019895,W,2,11,1.1,8.078,M,-37.767,M,5.0,0131*65
$PYRTM,2024,127.833553314873,18.943200725012
$GNHDT,130.277,T*2B
$PYRTM,2024,127.833559049063,18.943206459201
$GNGGA,200019.50,3330.26930499,N,11848.67919056,W,2,11,1.1,8.112,M,-37.767,M,5.4,0131*6B
$PYRTM,2024,127.833559049063,18.943206459201
$GNHDT,130.368,T*24
$PYRTM,2024,127.833564892488,18.943212302627
$GNGGA,200020.00,3330.26861597,N,11848.67815819,W,2,11,1.1,8.186,M,-37.767,M,6.0,0131*6A
$PYRTM,2024,127.833564892488,18.943212302627
$GNHDT,130.471,T*2B
$PYRTM,2024,127.833570625590,18.943218035741
$GNGGA,200020.50,3330.26793894,N,11848.67711730,W,2,11,1.1,8.271,M,-37.767,M,6.4,0131*63
$PYRTM,2024,127.833570625590,18.943218035741
$GNHDT,130.608,T*27
$PYRTM,2024,127.833576467373,18.943223877512
$GNGGA,200021.00,3330.26725494,N,11848.67607982,W,2,11,1.1,8.320,M,-37.767,M,7.0,0131*67
$PYRTM,2024,127.833576467373,18.943223877512
$GNHDT,130.768,T*20
$PYRTM,2024,127.833582198692,18.943229608831
$GNGGA,200021.50,3330.26654751,N,11848.67505434,W,2,11,1.1,8.313,M,-37.767,M,7.4,0131*6A
$PYRTM,2024,127.833582198692,18.943229608831
$GNHDT,130.720,T*2C
$PYRTM,2024,127.833588036794,18.943235446933
$GNGGA,200022.00,3330.26580848,N,11848.67404959,W,2,11,1.1,8.232,M,-37.767,M,7.0,0131*61
$PYRTM,2024,127.833588036794,18.943235446933
$GNHDT,130.754,T*2F
$PYRTM,2024,127.833593771088,18.943241181227
$GNGGA,200022.50,3330.26504291,N,11848.67306942,W,2,11,1.1,8.115,M,-37.767,M,7.4,0131*6B
$PYRTM,2024,127.833593771088,18.943241181227
$GNHDT,130.702,T*2C
$PYRTM,2024,127.833599611701,18.943247021840
$GNGGA,200023.00,3330.26426934,N,11848.67211238,W,2,11,1.1,8.024,M,-37.767,M,7.0,0131*6C
$PYRTM,2024,127.833599611701,18.943247021840
$GNHDT,130.623,T*2E
$PYRTM,2024,127.833605342824,18.943252752963
$GNGGA,200023.50,3330.26350798,N,11848.67115775,W,2,11,1.1,8.023,M,-37.767,M,7.4,0131*6F
$PYRTM,2024,127.833605342824,18.943252752963
$GNHDT,130.464,T*2F
$PYRTM,2024,127.833611185914,18.943258596053
$GNGGA,200024.00,3330.26276335,N,11848.67018994,W,2,11,1.1,8.120,M,-37.767,M,4.0,0131*63
$PYRTM,2024,127.833611185914,18.943258596053
$GNHDT,130.503,T*2F
$PYRTM,2024,127.833616919086,18.943264329225
$GNGGA,200024.50,3330.26202860,N,11848.66919263,W,2,11,1.1,8.256,M,-37.767,M,4.4,0131*62
$PYRTM,2024,127.833616919086,18.943264329225
$GNHDT,130.665,T*2C
$PYRTM,2024,127.833622761644,18.943270171782
$GNGGA,200025.00,3330.26130043,N,11848.66816117,W,2,11,1.1,8.386,M,-37.767,M,5.0,0131*6A
$PYRTM,2024,127.833622761644,18.943270171782
$GNHDT,130.840,T*25
$PYRTM,2024,127.833628492940,18.943275903079
$GNGGA,200025.50,3330.26057360,N,11848.66710757,W,2,11,1.1,8.481,M,-37.767,M,5.4,0131*62
$PYRTM,2024,127.833628492940,18.943275903079
$GNHDT,131.198,T*28
$PYRTM,2024,127.833634333993,18.943281744132
$GNGGA,200026.00,3330.25984869,N,11848.66605026,W,2,11,1.1,8.539,M,-37.767,M,6.0,0131*63
$PYRTM,2024,127.833634333993,18.943281744132
$GNHDT,131.477,T*2C
$PYRTM,2024,127.833640068322,18.943287478461
$GNGGA,200026.50,3330.25912972,N,11848.66499438,W,2,11,1.1,8.563,M,-37.767,M,6.4,0131*65
$PYRTM,2024,127.833640068322,18.943287478461
$GNHDT,131.519,T*25
$PYRTM,2024,127.833645906771,18.943293316910
$GNGGA,200027.00,3330.25841377,N,11848.66393558,W,2,11,1.1,8.561,M,-37.767,M,7.0,0131*64
$PYRTM,2024,127.833645906771,18.943293316910
$GNHDT,131.530,T*2E
$PYRTM,2024,127.833651642153,18.943299052303
$GNGGA,200027.50,3330.25769359,N,11848.66288141,W,2,11,1.1,8.506,M,-37.767,M,7.4,0131*6A
$PYRTM,2024,127.833651642153,18.943299052303
$GNHDT,131.279,T*24
$PYRTM,2024,127.833657482454,18.943304892593
$GNGGA,200028.00,3330.25695268,N,11848.66183916,W,2,11,1.1,8.369,M,-37.767,M,7.0,0131*68
$PYRTM,2024,127.833657482454,18.943304892593
$GNHDT,131.111,T*29
$PYRTM,2024,127.833663216377,18.943310626528
$GNGGA,200028.50,3330.25618470,N,11848.66082146,W,2,11,1.1,8.189,M,-37.767,M,7.4,0131*62
$PYRTM,2024,127.833663216377,18.943310626528
$GNHDT,130.756,T*2D
$PYRTM,2024,127.833669054664,18.943316464803
$GNGGA,200029.00,3330.25540436,N,11848.65982661,W,2,11,1.1,7.981,M,-37.767,M,7.0,0131*69
$PYRTM,2024,127.833669054664,18.943316464803
$GNHDT,130.437,T*29
$PYRTM,2024,127.833674791065,18.943322201204
$GNGGA,200029.50,3330.25462118,N,11848.65883938,W,2,11,1.1,7.814,M,-37.767,M,7.4,0131*6E
$PYRTM,2024,127.833674791065,18.943322201204
$GNHDT,130.066,T*29
$PYRTM,2024,127.833680633808,18.943328043958
$GNGGA,200030.00,3330.25384594,N,11848.65785301,W,2,11,1.1,7.710,M,-37.767,M,4.0,0131*69
$PYRTM,2024,127.833680633808,18.943328043958
$GNHDT,129.864,T*2B
$PYRTM,2024,127.833686370081,18.943333780220
$GNGGA,200030.50,3330.25309292,N,11848.65685315,W,2,11,1.1,7.702,M,-37.767,M,4.4,0131*6B
$PYRTM,2024,127.833686370081,18.943333780220
$GNHDT,129.622,T*27
$PYRTM,2024,127.833692208044,18.943339618183
$GNGGA,200031.00,3330.25236600,N,11848.65583189,W,2,11,1.1,7.778,M,-37.767,M,5.0,0131*67
$PYRTM,2024,127.833692208044,18.943339618183
$GNHDT,129.671,T*21
$PYRTM,2024,127.833697938414,18.943345348553
$GNGGA,200031.50,3330.25165609,N,11848.65480058,W,2,11,1.1,7.922,M,-37.767,M,5.4,0131*64
$PYRTM,2024,127.833697938414,18.943345348553
$GNHDT,130.080,T*21
$PYRTM,2024,127.833703785475,18.943351195613
$GNGGA,200032.00,3330.25095793,N,11848.65376616,W,2,11,1.1,8.090,M,-37.767,M,6.0,0131*64
$PYRTM,2024,127.833703785475,18.943351195613
$GNHDT,130.310,T*2B
$PYRTM,2024,127.833709516713,18.943356926852
$GNGGA,200032.50,3330.25025677,N,11848.65273483,W,2,11,1.1,8.244,M,-37.767,M,6.4,0131*64
$PYRTM,2024,127.833709516713,18.943356926852
$GNHDT,130.197,T*26
$PYRTM,2024,127.833715354618,18.943362764757
$GNGGA,200033.00,3330.24953465,N,11848.65172429,W,2,11,1.1,8.338,M,-37.767,M,7.0,0131*65
$PYRTM,2024,127.833715354618,18.943362764757
$GNHDT,130.209,T*22
$PYRTM,2024,127.833721085602,18.943368495741
$GNGGA,200033.50,3330.24879037,N,11848.65073718,W,2,11,1.1,8.352,M,-37.767,M,7.4,0131*63
$PYRTM,2024,127.833721085602,18.943368495741
$GNHDT,130.141,T*2D
$PYRTM,2024,127.833726925475,18.943374335613
$GNGGA,200034.00,3330.24802300,N,11848.64977511,W,2,11,1.1,8.267,M,-37.767,M,7.0,0131*6E
$PYRTM,2024,127.833726925475,18.943374335613
$GNHDT,130.040,T*2D
$PYRTM,2024,127.833732659479,18.943380069618
$GNGGA,200034.50,3330.24724902,N,11848.64883180,W,2,11,1.1,8.132,M,-37.767,M,7.4,0131*69
$PYRTM,2024,127.833732659479,18.943380069618
$GNHDT,129.912,T*2B
$PYRTM,2024,127.833738500521,18.943385910660
$GNGGA,200035.00,3330.24648010,N,11848.64790193,W,2,11,1.1,7.985,M,-37.767,M,7.0,0131*6C
$PYRTM,2024,127.833738500521,18.943385910660
$GNHDT,129.914,T*2D
$PYRTM,2024,127.833744238785,18.943391648924
$GNGGA,200035.50,3330.24574217,N,11848.64695242,W,2,11,1.1,7.890,M,-37.767,M,7.4,0131*6A
$PYRTM,2024,127.833744238785,18.943391648924
$GNHDT,129.845,T*28
$PYRTM,2024,127.833750073681,18.943397483819
$GNGGA,200036.00,3330.24503834,N,11848.64596536,W,2,11,1.1,7.871,M,-37.767,M,4.0,0131*6B
$PYRTM,2024,127.833750073681,18.943397483819
$GNHDT,129.915,T*2C
$PYRTM,2024,127.833755809977,18.943403220116
$GNGGA,200036.50,3330.24436821,N,11848.64493226,W,2,11,1.1,7.932,M,-37.767,M,4.4,0131*6D
$PYRTM,2024,127.833755809977,18.943403220116
$GNHDT,130.379,T*24
$PYRTM,2024,127.833761650810,18.943409060949
$GNGGA,200037.00,3330.24371097,N,11848.64386187,W,2,11,1.1,8.041,M,-37.767,M,5.0,0131*64
$PYRTM,2024,127.833761650810,18.943409060949
$GNHDT,130.405,T*28
$PYRTM,2024,127.833767385127,18.943414795266
$GNGGA,200037.50,3330.24304484,N,11848.64278744,W,2,11,1.1,8.167,M,-37.767,M,5.4,0131*6D
$PYRTM,2024,127.833767385127,18.943414795266
$GNHDT,130.408,T*25
$PYRTM,2024,127.833773223762,18.943420633912
$GNGGA,200038.00,3330.24236310,N,11848.64172484,W,2,11,1.1,8.285,M,-37.767,M,6.0,0131*63
$PYRTM,2024,127.833773223762,18.943420633912
$GNHDT,130.475,T*2F
$PYRTM,2024,127.833778957118,18.943426367257
$GNGGA,200038.50,3330.24165071,N,11848.64068883,W,2,11,1.1,8.416,M,-37.767,M,6.4,0131*6E
$PYRTM,2024,127.833778957118,18.943426367257
$GNHDT,130.514,T*29
$PYRTM,2024,127.833784795660,18.943432205810
$GNGGA,200039.00,3330.24090670,N,11848.63967636,W,2,11,1.1,8.544,M,-37.767,M,7.0,0131*64
$PYRTM,2024,127.833784795660,18.943432205810
$GNHDT,130.571,T*2A
$PYRTM,2024,127.833790529676,18.943437939826
$GNGGA,200039.50,3330.24013225,N,11848.63867778,W,2,11,1.1,8.635,M,-37.767,M,7.4,0131*65
$PYRTM,2024,127.833790529676,18.943437939826
$GNHDT,130.694,T*22
$PYRTM,2024,127.833796372708,18.943443782847
$GNGGA,200040.00,3330.23933767,N,11848.63768087,W,2,11,1.1,8.682,M,-37.767,M,7.0,0131*6E
$PYRTM,2024,127.833796372708,18.943443782847
$GNHDT,130.803,T*22
$PYRTM,2024,127.833802102824,18.943449512963
$GNGGA,200040.50,3330.23852432,N,11848.63666881,W,2,11,1.1,8.653,M,-37.767,M,7.4,0131*67
$PYRTM,2024,127.833802102824,18.943449512963
$GNHDT,130.843,T*26
$PYRTM,2024,127.833807943715,18.943455353854
$GNGGA,200041.00,3330.23770025,N,11848.63564138,W,2,11,1.1,8.553,M,-37.767,M,7.0,0131*63
$PYRTM,2024,127.833807943715,18.943455353854
$GNHDT,131.134,T*2E
$PYRTM,2024,127.833813678021,18.943461088160
$GNGGA,200041.50,3330.23689050,N,11848.63458723,W,2,11,1.1,8.427,M,-37.767,M,7.4,0131*67
$PYRTM,2024,127.833813678021,18.943461088160
$GNHDT,131.454,T*2D
$PYRTM,2024,127.833819519502,18.943466929641
$GNGGA,200042.00,3330.23611203,N,11848.63350502,W,2,11,1.1,8.310,M,-37.767,M,4.0,0131*6E
$PYRTM,2024,127.833819519502,18.943466929641
$GNHDT,131.724,T*29
$PYRTM,2024,127.833825252488,18.943472662627
$GNGGA,200042.50,3330.23536770,N,11848.63240222,W,2,11,1.1,8.245,M,-37.767,M,4.4,0131*6C
$PYRTM,2024,127.833825252488,18.943472662627
$GNHDT,131.964,T*23
$PYRTM,2024,127.833831093102,18.943478503241
$GNGGA,200043.00,3330.23464719,N,11848.63129935,W,2,11,1.1,8.224,M,-37.767,M,5.0,0131*62
$PYRTM,2024,127.833831093102,18.943478503241
$GNHDT,131.930,T*22
$PYRTM,2024,127.833836832789,18.943484242928
$GNGGA,200043.50,3330.23393107,N,11848.63022475,W,2,11,1.1,8.226,M,-37.767,M,5.4,0131*64
$PYRTM,2024,127.833836832789,18.943484242928
$GNHDT,131.934,T*26
$PYRTM,2024,127.833842668958,18.943490079097
$GNGGA,200044.00,3330.23320884,N,11848.62918531,W,2,11,1.1,8.199,M,-37.767,M,6.0,0131*6C
$PYRTM,2024,127.833842668958,18.943490079097
$GNHDT,131.318,T*22
$PYRTM,2024,127.833848401447,18.943495811586
$GNGGA,200044.50,3330.23247304,N,11848.62818372,W,2,11,1.1,8.128,M,-37.767,M,6.4,0131*64
$PYRTM,2024,127.833848401447,18.943495811586
$GNHDT,130.887,T*2E
$PYRTM,2024,127.833854240289,18.943501650440
$GNGGA,200045.00,3330.23172156,N,11848.62721411,W,2,11,1.1,7.984,M,-37.767,M,7.0,0131*63
$PYRTM,2024,127.833854240289,18.943501650440
$GNHDT,130.248,T*27
$PYRTM,2024,127.833859978194,18.943507388333
$GNGGA,200045.50,3330.23096362,N,11848.62627252,W,2,11,1.1,7.785,M,-37.767,M,7.4,0131*65
$PYRTM,2024,127.833859978194,18.943507388333
$GNHDT,129.654,T*26
$PYRTM,2024,127.833865815197,18.943513225347
$GNGGA,200046.00,3330.23021509,N,11848.62534059,W,2,11,1.1,7.561,M,-37.767,M,7.0,0131*60
$PYRTM,2024,127.833865815197,18.943513225347
$GNHDT,128.947,T*2A
$PYRTM,2024,127.833871551042,18.943518961181
$GNGGA,200046.50,3330.22948609,N,11848.62440612,W,2,11,1.1,7.398,M,-37.767,M,7.4,0131*6E
$PYRTM,2024,127.833871551042,18.943518961181
$GNHDT,128.459,T*28
$PYRTM,2024,127.833877392523,18.943524802662
$GNGGA,200047.00,3330.22878684,N,11848.62346357,W,2,11,1.1,7.341,M,-37.767,M,7.0,0131*68
$PYRTM,2024,127.833877392523,18.943524802662
$GNHDT,127.720,T*2A
$PYRTM,2024,127.833883124699,18.943530534838
$GNGGA,200047.50,3330.22811419,N,11848.62251924,W,2,11,1.1,7.418,M,-37.767,M,7.4,0131*62
$PYRTM,2024,127.833883124699,18.943530534838
$GNHDT,127.466,T*2B
$PYRTM,2024,127.833888967014,18.943536377153
$GNGGA,200048.00,3330.22744957,N,11848.62156233,W,2,11,1.1,7.611,M,-37.767,M,4.0,0131*65
$PYRTM,2024,127.833888967014,18.943536377153
$GNHDT,127.446,T*29
$PYRTM,2024,127.833894701111,18.943542111250
$GNGGA,200048.50,3330.22677354,N,11848.62059829,W,2,11,1.1,7.851,M,-37.767,M,4.4,0131*69
$PYRTM,2024,127.833894701111,18.943542111250
$GNHDT,127.677,T*29
$PYRTM,2024,127.833900539028,18.943547949167
$GNGGA,200049.00,3330.22607274,N,11848.61962039,W,2,11,1.1,8.077,M,-37.767,M,5.0,0131*64
$PYRTM,2024,127.833900539028,18.943547949167
$GNHDT,128.018,T*29
$PYRTM,2024,127.833906271748,18.943553681887
$GNGGA,200049.50,3330.22534012,N,11848.61862156,W,2,11,1.1,8.247,M,-37.767,M,5.4,0131*6C
$PYRTM,2024,127.833906271748,18.943553681887
$GNHDT,128.170,T*26
$PYRTM,2024,127.833912116042,18.943559526181
$GNGGA,200050.00,3330.22458534,N,11848.61759170,W,2,11,1.1,8.339,M,-37.767,M,6.0,0131*67
$PYRTM,2024,127.833912116042,18.943559526181
$GNHDT,128.510,T*24
$PYRTM,2024,127.833917845127,18.943565255266
$GNGGA,200050.50,3330.22382407,N,11848.61652746,W,2,11,1.1,8.419,M,-37.767,M,6.4,0131*6B
$PYRTM,2024,127.833917845127,18.943565255266
$GNHDT,128.749,T*2A
$PYRTM,2024,127.833923686910,18.943571097049
$GNGGA,200051.00,3330.22307873,N,11848.61542024,W,2,11,1.1,8.505,M,-37.767,M,7.0,0131*65
$PYRTM,2024,127.833923686910,18.943571097049
$GNHDT,129.048,T*2D
$PYRTM,2024,127.833929419873,18.943576830012
$GNGGA,200051.50,3330.22235773,N,11848.61426683,W,2,11,1.1,8.607,M,-37.767,M,7.4,0131*62
$PYRTM,2024,127.833929419873,18.943576830012
$GNHDT,129.187,T*2F
$PYRTM,2024,127.833935261169,18.943582671319
$GNGGA,200052.00,3330.22165955,N,11848.61306992,W,2,11,1.1,8.711,M,-37.767,M,7.0,0131*60
$PYRTM,2024,127.833935261169,18.943582671319
$GNHDT,129.321,T*21
$PYRTM,2024,127.833940999491,18.943588409630
$GNGGA,200052.50,3330.22097767,N,11848.61185388,W,2,11,1.1,8.784,M,-37.767,M,7.4,0131*66
$PYRTM,2024,127.833940999491,18.943588409630
$GNHDT,129.531,T*26
$PYRTM,2024,127.833946848437,18.943594258576
$GNGGA,200053.00,3330.22029502,N,11848.61063853,W,2,11,1.1,8.781,M,-37.766,M,7.0,0131*62
$PYRTM,2024,127.833946848437,18.943594258576
$GNHDT,129.404,T*21
$PYRTM,2024,127.833952568449,18.943599978588
$GNGGA,200053.50,3330.21960292,N,11848.60946152,W,2,11,1.1,8.714,M,-37.766,M,7.4,0131*61
$PYRTM,2024,127.833952568449,18.943599978588
$GNHDT,129.230,T*20
$PYRTM,2024,127.833958409572,18.943605819711
$GNGGA,200054.00,3330.21888322,N,11848.60833699,W,2,11,1.1,8.567,M,-37.766,M,4.0,0131*6C
$PYRTM,2024,127.833958409572,18.943605819711
$GNHDT,129.172,T*25
$PYRTM,2024,127.833964140914,18.943611551053
$GNGGA,200054.50,3330.21813997,N,11848.60727559,W,2,11,1.1,8.389,M,-37.766,M,4.4,0131*68
$PYRTM,2024,127.833964140914,18.943611551053
$GNHDT,128.953,T*2F
$PYRTM,2024,127.833969981146,18.943617391285
$GNGGA,200055.00,3330.21738689,N,11848.60627203,W,2,11,1.1,8.206,M,-37.766,M,5.0,0131*60
$PYRTM,2024,127.833969981146,18.943617391285
$GNHDT,128.782,T*2D
$PYRTM,2024,127.833975721991,18.943623132130
$GNGGA,200055.50,3330.21664392,N,11848.60530539,W,2,11,1.1,8.070,M,-37.766,M,5.4,0131*6E
$PYRTM,2024,127.833975721991,18.943623132130
$GNHDT,128.793,T*2D
$PYRTM,2024,127.833981558287,18.943628968426
$GNGGA,200056.00,3330.21592981,N,11848.60436231,W,2,11,1.1,7.984,M,-37.766,M,6.0,0131*68
$PYRTM,2024,127.833981558287,18.943628968426
$GNHDT,128.714,T*22
$PYRTM,2024,127.833987290544,18.943634700683
$GNGGA,200056.50,3330.21524830,N,11848.60341448,W,2,11,1.1,7.956,M,-37.766,M,6.4,0131*6F
$PYRTM,2024,127.833987290544,18.943634700683
$GNHDT,128.859,T*24
$PYRTM,2024,127.833993134132,18.943640544271
$GNGGA,200057.00,3330.21459634,N,11848.60245525,W,2,11,1.1,7.963,M,-37.766,M,7.0,0131*66
$PYRTM,2024,127.833993134132,18.943640544271
$GNHDT,128.869,T*27
$PYRTM,2024,127.833998866933,18.943646277072
$GNGGA,200057.50,3330.21396292,N,11848.60149047,W,2,11,1.1,7.979,M,-37.766,M,7.4,0131*6E
$PYRTM,2024,127.833998866933,18.943646277072
$GNHDT,129.176,T*21
$PYRTM,2024,127.834004708148,18.943652118287
$GNGGA,200058.00,3330.21332766,N,11848.60053795,W,2,11,1.1,7.960,M,-37.766,M,7.0,0131*6A
$PYRTM,2024,127.834004708148,18.943652118287
$GNHDT,129.240,T*27
$PYRTM,2024,127.834010437836,18.943657847986
$GNGGA,200058.50,3330.21266620,N,11848.59960198,W,2,11,1.1,7.915,M,-37.766,M,7.4,0131*62
$PYRTM,2024,127.834010437836,18.943657847986
$GNHDT,129.784,T*2A
$PYRTM,2024,127.834016278993,18.943663689132
$GNGGA,200059.00,3330.21196943,N,11848.59868080,W,2,11,1.1,7.841,M,-37.766,M,7.0,0131*65
$PYRTM,2024,127.834016278993,18.943663689132
$GNHDT,130.013,T*2B
$PYRTM,2024,127.834022014769,18.943669424907
$GNGGA,200059.50,3330.21123972,N,11848.59776686,W,2,11,1.1,7.785,M,-37.766,M,7.4,0131*6F
$PYRTM,2024,127.834022014769,18.943669424907
$GNHDT,130.382,T*20
$PYRTM,2024,127.834027855845,18.943675265984
$GNGGA,200100.00,3330.21048955,N,11848.59684692,W,2,11,1.1,7.772,M,-37.766,M,4.0,0131*68
$PYRTM,2024,127.834027855845,18.943675265984
$GNHDT,130.807,T*26
$PYRTM,2024,127.834033585868,18.943680996007
$GNGGA,200100.50,3330.20973197,N,11848.59590476,W,2,11,1.1,7.834,M,-37.766,M,4.4,0131*6C
$PYRTM,2024,127.834033585868,18.943680996007
$GNHDT,131.063,T*2D
$PYRTM,2024,127.834039426956,18.943686837095
$GNGGA,200101.00,3330.20898140,N,11848.59491842,W,2,11,1.1,7.967,M,-37.766,M,5.0,0131*6F
$PYRTM,2024,127.834039426956,18.943686837095
$GNHDT,131.447,T*2F
$PYRTM,2024,127.834045161285,18.943692571424
$GNGGA,200101.50,3330.20824235,N,11848.59389536,W,2,11,1.1,8.160,M,-37.766,M,5.4,0131*68
$PYRTM,2024,127.834045161285,18.943692571424
$GNHDT,131.975,T*23
$PYRTM,2024,127.834051002824,18.943698412963
$GNGGA,200102.00,3330.20749334,N,11848.59284284,W,2,11,1.1,8.342,M,-37.766,M,6.0,0131*6D
$PYRTM,2024,127.834051002824,18.943698412963
$GNHDT,132.429,T*24
$PYRTM,2024,127.834056745764,18.943704155903
$GNGGA,200102.50,3330.20672971,N,11848.59177483,W,2,11,1.1,8.468,M,-37.766,M,6.4,0131*6F
$PYRTM,2024,127.834056745764,18.943704155903
$GNHDT,132.700,T*2C
$PYRTM,2024,127.834062577743,18.943709987882
$GNGGA,200103.00,3330.20594918,N,11848.59069143,W,2,11,1.1,8.493,M,-37.766,M,7.0,0131*69
$PYRTM,2024,127.834062577743,18.943709987882
$GNHDT,132.867,T*22
$PYRTM,2024,127.834068310463,18.943715720602
$GNGGA,200103.50,3330.20515871,N,11848.58960989,W,2,11,1.1,8.440,M,-37.766,M,7.4,0131*6E
$PYRTM,2024,127.834068310463,18.943715720602
$GNHDT,133.023,T*2B
$PYRTM,2024,127.834074156470,18.943721566609
$GNGGA,200104.00,3330.20436126,N,11848.58854133,W,2,11,1.1,8.333,M,-37.766,M,7.0,0131*6F
$PYRTM,2024,127.834074156470,18.943721566609
$GNHDT,132.967,T*23
$PYRTM,2024,127.834079890532,18.943727300671
$GNGGA,200104.50,3330.20357432,N,11848.58750085,W,2,11,1.1,8.250,M,-37.766,M,7.4,0131*6D
$PYRTM,2024,127.834079890532,18.943727300671
$GNHDT,132.940,T*26
$PYRTM,2024,127.834085722095,18.943733132234
$GNGGA,200105.00,3330.20280728,N,11848.58647767,W,2,11,1.1,8.216,M,-37.766,M,7.0,0131*60
$PYRTM,2024,127.834085722095,18.943733132234
$GNHDT,132.503,T*2D
$PYRTM,2024,127.834091454641,18.943738864780
$GNGGA,200105.50,3330.20205535,N,11848.58546442,W,2,11,1.1,8.219,M,-37.766,M,7.4,0131*6B
$PYRTM,2024,127.834091454641,18.943738864780
$GNHDT,132.025,T*2C
$PYRTM,2024,127.834097295880,18.943744706019
$GNGGA,200106.00,3330.20132236,N,11848.58444931,W,2,11,1.1,8.250,M,-37.766,M,4.0,0131*6E
$PYRTM,2024,127.834097295880,18.943744706019
$GNHDT,131.260,T*2C
$PYRTM,2024,127.834103030972,18.943750441111
$GNGGA,200106.50,3330.20060617,N,11848.58343895,W,2,11,1.1,8.290,M,-37.766,M,4.4,0131*6D
$PYRTM,2024,127.834103030972,18.943750441111
$GNHDT,130.435,T*2B
$PYRTM,2024,127.834108875382,18.943756285521
$GNGGA,200107.00,3330.19990382,N,11848.58243728,W,2,11,1.1,8.303,M,-37.766,M,5.0,0131*6A
$PYRTM,2024,127.834108875382,18.943756285521
$GNHDT,129.710,T*27
$PYRTM,2024,127.834114605289,18.943762015428
$GNGGA,200107.50,3330.19921238,N,11848.58144674,W,2,11,1.1,8.284,M,-37.766,M,5.4,0131*63
$PYRTM,2024,127.834114605289,18.943762015428
$GNHDT,128.868,T*26
$PYRTM,2024,127.834120448403,18.943767858542
$GNGGA,200108.00,3330.19852744,N,11848.58046409,W,2,11,1.1,8.235,M,-37.766,M,6.0,0131*64
$PYRTM,2024,127.834120448403,18.943767858542
$GNHDT,127.952,T*21
$PYRTM,2024,127.834126178854,18.943773588993
$GNGGA,200108.50,3330.19785209,N,11848.57949376,W,2,11,1.1,8.173,M,-37.766,M,6.4,0131*6B
$PYRTM,2024,127.834126178854,18.943773588993
$GNHDT,127.317,T*2A
$PYRTM,2024,127.834132018495,18.943779428634
$GNGGA,200109.00,3330.19717519,N,11848.57853766,W,2,11,1.1,8.117,M,-37.766,M,7.0,0131*6A
$PYRTM,2024,127.834132018495,18.943779428634
$GNHDT,127.106,T*28
$PYRTM,2024,127.834137753681,18.943785163819
$GNGGA,200109.50,3330.19648909,N,11848.57758818,W,2,11,1.1,8.067,M,-37.766,M,7.4,0131*69
$PYRTM,2024,127.834137753681,18.943785163819
$GNHDT,127.033,T*2F
$PYRTM,2024,127.834143593681,18.943791003819
$GNGGA,200110.00,3330.19579010,N,11848.57664613,W,2,11,1.1,8.025,M,-37.766,M,7.0,0131*6D
$PYRTM,2024,127.834143593681,18.943791003819
$GNHDT,127.090,T*26
$PYRTM,2024,127.834149327581,18.943796737720
$GNGGA,200110.50,3330.19508653,N,11848.57569542,W,2,11,1.1,8.032,M,-37.766,M,7.4,0131*64
$PYRTM,2024,127.834149327581,18.943796737720
$GNHDT,127.234,T*2A
$PYRTM,2024,127.834155166794,18.943802576933
$GNGGA,200111.00,3330.19438704,N,11848.57473002,W,2,11,1.1,8.089,M,-37.766,M,7.0,0131*6E
$PYRTM,2024,127.834155166794,18.943802576933
$GNHDT,127.546,T*28
$PYRTM,2024,127.834160900347,18.943808310486
$GNGGA,200111.50,3330.19368750,N,11848.57372788,W,2,11,1.1,8.193,M,-37.766,M,7.4,0131*65
$PYRTM,2024,127.834160900347,18.943808310486
$GNHDT,127.797,T*26
$PYRTM,2024,127.834166741713,18.943814151852
$GNGGA,200112.00,3330.19298962,N,11848.57268754,W,2,11,1.1,8.310,M,-37.766,M,4.0,0131*67
$PYRTM,2024,127.834166741713,18.943814151852
$GNHDT,128.277,T*22
$PYRTM,2024,127.834172478507,18.943819888646
$GNGGA,200112.50,3330.19229173,N,11848.57160798,W,2,11,1.1,8.399,M,-37.766,M,4.4,0131*6E
$PYRTM,2024,127.834172478507,18.943819888646
$GNHDT,128.709,T*2E
$PYRTM,2024,127.834178323252,18.943825733391
$GNGGA,200113.00,3330.19159304,N,11848.57050244,W,2,11,1.1,8.442,M,-37.766,M,5.0,0131*6E
$PYRTM,2024,127.834178323252,18.943825733391
$GNHDT,129.060,T*27
$PYRTM,2024,127.834184050116,18.943831460255
$GNGGA,200113.50,3330.19088800,N,11848.56938969,W,2,11,1.1,8.429,M,-37.766,M,5.4,0131*62
$PYRTM,2024,127.834184050116,18.943831460255
$GNHDT,129.473,T*21
$PYRTM,2024,127.834189889479,18.943837299618
$GNGGA,200114.00,3330.19017649,N,11848.56828661,W,2,11,1.1,8.392,M,-37.766,M,6.0,0131*62
$PYRTM,2024,127.834189889479,18.943837299618
$GNHDT,129.754,T*27
$PYRTM,2024,127.834195623356,18.943843033495
$GNGGA,200114.50,3330.18945771,N,11848.56720728,W,2,11,1.1,8.347,M,-37.766,M,6.4,0131*65
$PYRTM,2024,127.834195623356,18.943843033495
$GNHDT,130.048,T*25
$PYRTM,2024,127.834201466829,18.943848876968
$GNGGA,200115.00,3330.18873075,N,11848.56615545,W,2,11,1.1,8.311,M,-37.766,M,7.0,0131*6E
$PYRTM,2024,127.834201466829,18.943848876968
$GNHDT,130.332,T*2B
$PYRTM,2024,127.834207197222,18.943854607361
$GNGGA,200115.50,3330.18799744,N,11848.56512463,W,2,11,1.1,8.304,M,-37.766,M,7.4,0131*64
$PYRTM,2024,127.834207197222,18.943854607361
$GNHDT,130.465,T*2E
$PYRTM,2024,127.834213037361,18.943860447500
$GNGGA,200116.00,3330.18726478,N,11848.56409969,W,2,11,1.1,8.300,M,-37.766,M,7.0,0131*66
$PYRTM,2024,127.834213037361,18.943860447500
$GNHDT,130.650,T*2A
$PYRTM,2024,127.834218773414,18.943866183553
$GNGGA,200116.50,3330.18653970,N,11848.56307812,W,2,11,1.1,8.299,M,-37.766,M,7.4,0131*64
$PYRTM,2024,127.834218773414,18.943866183553
$GNHDT,130.697,T*21
$PYRTM,2024,127.834224613669,18.943872023819
$GNGGA,200117.00,3330.18583216,N,11848.56206095,W,2,11,1.1,8.281,M,-37.766,M,7.0,0131*6F
$PYRTM,2024,127.834224613669,18.943872023819
$GNHDT,130.483,T*26
$PYRTM,2024,127.834230343958,18.943877754097
$GNGGA,200117.50,3330.18513283,N,11848.56105819,W,2,11,1.1,8.238,M,-37.766,M,7.4,0131*65
$PYRTM,2024,127.834230343958,18.943877754097
$GNHDT,130.055,T*29
$PYRTM,2024,127.834236185139,18.943883595289
$GNGGA,200118.00,3330.18443519,N,11848.56008133,W,2,11,1.1,8.150,M,-37.766,M,4.0,0131*68
$PYRTM,2024,127.834236185139,18.943883595289
$GNHDT,129.871,T*2F
$PYRTM,2024,127.834241920752,18.943889330891
$GNGGA,200118.50,3330.18373330,N,11848.55913120,W,2,11,1.1,8.030,M,-37.766,M,4.4,0131*65
$PYRTM,2024,127.834241920752,18.943889330891
$GNHDT,129.766,T*26
$PYRTM,2024,127.834247761632,18.943895171771
$GNGGA,200119.00,3330.18302978,N,11848.55820786,W,2,11,1.1,7.893,M,-37.766,M,5.0,0131*61
$PYRTM,2024,127.834247761632,18.943895171771
$GNHDT,129.567,T*25
$PYRTM,2024,127.834253492662,18.943900902801
$GNGGA,200119.50,3330.18231895,N,11848.55731172,W,2,11,1.1,7.784,M,-37.766,M,5.4,0131*68
$PYRTM,2024,127.834253492662,18.943900902801
$GNHDT,129.452,T*22
$PYRTM,2024,127.834259335162,18.943906745301
$GNGGA,200120.00,3330.18159723,N,11848.55643678,W,2,11,1.1,7.723,M,-37.766,M,6.0,0131*6B
$PYRTM,2024,127.834259335162,18.943906745301
$GNHDT,129.367,T*23
$PYRTM,2024,127.834265066505,18.943912476644
$GNGGA,200120.50,3330.18087177,N,11848.55555784,W,2,11,1.1,7.729,M,-37.766,M,6.4,0131*63
$PYRTM,2024,127.834265066505,18.943912476644
$GNHDT,129.497,T*2B
$PYRTM,2024,127.834270907998,18.943918318137
$GNGGA,200121.00,3330.18014848,N,11848.55465897,W,2,11,1.1,7.811,M,-37.766,M,7.0,0131*66
$PYRTM,2024,127.834270907998,18.943918318137
$GNHDT,129.651,T*23
$PYRTM,2024,127.834276640891,18.943924051030
$GNGGA,200121.50,3330.17943012,N,11848.55372530,W,2,11,1.1,7.945,M,-37.766,M,7.4,0131*65
$PYRTM,2024,127.834276640891,18.943924051030
$GNHDT,130.000,T*29
$PYRTM,2024,127.834282486528,18.943929896678
$GNGGA,200122.00,3330.17872244,N,11848.55275659,W,2,11,1.1,8.148,M,-37.766,M,7.0,0131*65
$PYRTM,2024,127.834282486528,18.943929896678
$GNHDT,130.294,T*26
$PYRTM,2024,127.834288215671,18.943935625810
$GNGGA,200122.50,3330.17802717,N,11848.55175704,W,2,11,1.1,8.377,M,-37.766,M,7.4,0131*64
$PYRTM,2024,127.834288215671,18.943935625810
$GNHDT,130.790,T*27
$PYRTM,2024,127.834294055799,18.943941465937
$GNGGA,200123.00,3330.17734355,N,11848.55073935,W,2,11,1.1,8.623,M,-37.766,M,7.0,0131*63
$PYRTM,2024,127.834294055799,18.943941465937
$GNHDT,131.287,T*25
$PYRTM,2024,127.834299790637,18.943947200775
$GNGGA,200123.50,3330.17665803,N,11848.54971495,W,2,11,1.1,8.841,M,-37.766,M,7.4,0131*68
$PYRTM,2024,127.834299790637,18.943947200775
$GNHDT,131.747,T*2C
$PYRTM,2024,127.834305632847,18.943953042998
$GNGGA,200124.00,3330.17595644,N,11848.54868357,W,2,11,1.1,8.993,M,-37.766,M,4.0,0131*62
$PYRTM,2024,127.834305632847,18.943953042998
$GNHDT,132.237,T*2D
$PYRTM,2024,127.834311364699,18.943958774838
$GNGGA,200124.50,3330.17523612,N,11848.54764010,W,2,11,1.1,9.050,M,-37.766,M,4.4,0131*69
$PYRTM,2024,127.834311364699,18.943958774838
$GNHDT,132.620,T*2F
$PYRTM,2024,127.834317206100,18.943964616238
$GNGGA,200125.00,3330.17449519,N,11848.54658790,W,2,11,1.1,8.994,M,-37.766,M,5.0,0131*6C
$PYRTM,2024,127.834317206100,18.943964616238
$GNHDT,132.677,T*2D
$PYRTM,2024,127.834322937581,18.943970347720
$GNGGA,200125.50,3330.17373704,N,11848.54554702,W,2,11,1.1,8.852,M,-37.766,M,5.4,0131*62
$PYRTM,2024,127.834322937581,18.943970347720
$GNHDT,132.600,T*2D
$PYRTM,2024,127.834328778681,18.943976188819
$GNGGA,200126.00,3330.17296964,N,11848.54450577,W,2,11,1.1,8.651,M,-37.766,M,6.0,0131*69
$PYRTM,2024,127.834328778681,18.943976188819
$GNHDT,132.116,T*2D
$PYRTM,2024,127.834334511435,18.943981921574
$GNGGA,200126.50,3330.17219771,N,11848.54346473,W,2,11,1.1,8.432,M,-37.766,M,6.4,0131*67
$PYRTM,2024,127.834334511435,18.943981921574
$GNHDT,131.422,T*2C
$PYRTM,2024,127.834340352697,18.943987762836
$GNGGA,200127.00,3330.17144384,N,11848.54241162,W,2,11,1.1,8.268,M,-37.766,M,7.0,0131*69
$PYRTM,2024,127.834340352697,18.943987762836
$GNHDT,130.671,T*29
$PYRTM,2024,127.834346085856,18.943993495995
$GNGGA,200127.50,3330.17072306,N,11848.54134823,W,2,11,1.1,8.185,M,-37.766,M,7.4,0131*6B
$PYRTM,2024,127.834346085856,18.943993495995
$GNHDT,129.988,T*28
$PYRTM,2024,127.834351926782,18.943999336921
$GNGGA,200128.00,3330.17004543,N,11848.54027013,W,2,11,1.1,8.218,M,-37.766,M,7.0,0131*6C
$PYRTM,2024,127.834351926782,18.943999336921
$GNHDT,129.437,T*21
$PYRTM,2024,127.834357662500,18.944005072639
$GNGGA,200128.50,3330.16939035,N,11848.53920379,W,2,11,1.1,8.324,M,-37.766,M,7.4,0131*67
$PYRTM,2024,127.834357662500,18.944005072639
$GNHDT,129.297,T*2D
$PYRTM,2024,127.834363500451,18.944010910590
$GNGGA,200129.00,3330.16872780,N,11848.53817145,W,2,11,1.1,8.446,M,-37.766,M,7.0,0131*6B
$PYRTM,2024,127.834363500451,18.944010910590
$GNHDT,128.855,T*28
$PYRTM,2024,127.834369233160,18.944016643299
$GNGGA,200129.50,3330.16802549,N,11848.53718533,W,2,11,1.1,8.485,M,-37.766,M,7.4,0131*60
$PYRTM,2024,127.834369233160,18.944016643299
$GNHDT,128.483,T*2F
$PYRTM,2024,127.834375075174,18.944022485324
$GNGGA,200130.00,3330.16727163,N,11848.53623893,W,2,11,1.1,8.399,M,-37.766,M,4.0,0131*6A
$PYRTM,2024,127.834375075174,18.944022485324
$GNHDT,128.206,T*24
$PYRTM,2024,127.834380811470,18.944028221609
$GNGGA,200130.50,3330.16647787,N,11848.53531077,W,2,11,1.1,8.198,M,-37.766,M,4.4,0131*61
$PYRTM,2024,127.834380811470,18.944028221609
$GNHDT,128.131,T*23
$PYRTM,2024,127.834386650729,18.944034060868
$GNGGA,200131.00,3330.16567753,N,11848.53438250,W,2,11,1.1,7.942,M,-37.766,M,5.0,0131*67
$PYRTM,2024,127.834386650729,18.944034060868
$GNHDT,128.002,T*22
$PYRTM,2024,127.834392381852,18.944039791991
$GNGGA,200131.50,3330.16490921,N,11848.53343596,W,2,11,1.1,7.745,M,-37.766,M,5.4,0131*6B
$PYRTM,2024,127.834392381852,18.944039791991
$GNHDT,128.114,T*24
$PYRTM,2024,127.834398225845,18.944045635995
$GNGGA,200132.00,3330.16419702,N,11848.53246721,W,2,11,1.1,7.674,M,-37.766,M,6.0,0131*6D
$PYRTM,2024,127.834398225845,18.944045635995
$GNHDT,128.418,T*2D
$PYRTM,2024,127.834403960741,18.944051370880
$GNGGA,200132.50,3330.16352885,N,11848.53147439,W,2,11,1.1,7.749,M,-37.766,M,6.4,0131*63
$PYRTM,2024,127.834403960741,18.944051370880
$GNHDT,128.707,T*20
$PYRTM,2024,127.834409800613,18.944057210764
$GNGGA,200133.00,3330.16287609,N,11848.53046836,W,2,11,1.1,7.911,M,-37.766,M,7.0,0131*61
$PYRTM,2024,127.834409800613,18.944057210764
$GNHDT,129.166,T*20
$PYRTM,2024,127.834415531794,18.944062941933
$GNGGA,200133.50,3330.16220941,N,11848.52946999,W,2,11,1.1,8.059,M,-37.765,M,7.4,0131*6B
$PYRTM,2024,127.834415531794,18.944062941933
$GNHDT,129.251,T*27
$PYRTM,2024,127.834421369907,18.944068780046
$GNGGA,200134.00,3330.16151658,N,11848.52847737,W,2,11,1.1,8.131,M,-37.765,M,7.0,0131*6A
$PYRTM,2024,127.834421369907,18.944068780046
$GNHDT,129.393,T*28
$PYRTM,2024,127.834427104375,18.944074514514
$GNGGA,200134.50,3330.16080234,N,11848.52749662,W,2,11,1.1,8.119,M,-37.765,M,7.4,0131*62
$PYRTM,2024,127.834427104375,18.944074514514
$GNHDT,129.514,T*21
$PYRTM,2024,127.834432946377,18.944080356516
$GNGGA,200135.00,3330.16007894,N,11848.52652120,W,2,11,1.1,8.053,M,-37.765,M,7.0,0131*68
$PYRTM,2024,127.834432946377,18.944080356516
$GNHDT,129.870,T*2E
$PYRTM,2024,127.834438682211,18.944086092350
$GNGGA,200135.50,3330.15936043,N,11848.52555331,W,2,11,1.1,8.007,M,-37.765,M,7.4,0131*64
$PYRTM,2024,127.834438682211,18.944086092350
$GNHDT,129.941,T*2D
$PYRTM,2024,127.834444520069,18.944091930208
$GNGGA,200136.00,3330.15865202,N,11848.52459552,W,2,11,1.1,8.009,M,-37.765,M,4.0,0131*65
$PYRTM,2024,127.834444520069,18.944091930208
$GNHDT,130.084,T*25
$PYRTM,2024,127.834450253368,18.944097663507
$GNGGA,200136.50,3330.15795933,N,11848.52363804,W,2,11,1.1,8.118,M,-37.765,M,4.4,0131*6C
$PYRTM,2024,127.834450253368,18.944097663507
$GNHDT,130.122,T*28
$PYRTM,2024,127.834456093947,18.944103504086
$GNGGA,200137.00,3330.15726714,N,11848.52267947,W,2,11,1.1,8.300,M,-37.765,M,5.0,0131*66
$PYRTM,2024,127.834456093947,18.944103504086
$GNHDT,130.209,T*22
$PYRTM,2024,127.834461826667,18.944109236806
$GNGGA,200137.50,3330.15657265,N,11848.52171431,W,2,11,1.1,8.508,M,-37.765,M,5.4,0131*65
$PYRTM,2024,127.834461826667,18.944109236806
$GNHDT,130.339,T*20
$PYRTM,2024,127.834467667396,18.944115077535
$GNGGA,200138.00,3330.15587393,N,11848.52073803,W,2,11,1.1,8.726,M,-37.765,M,6.0,0131*6E
$PYRTM,2024,127.834467667396,18.944115077535
$GNHDT,130.339,T*20
$PYRTM,2024,127.834473399988,18.944120810127
$GNGGA,200138.50,3330.15517669,N,11848.51974162,W,2,11,1.1,8.891,M,-37.765,M,6.4,0131*66
$PYRTM,2024,127.834473399988,18.944120810127
$GNHDT,130.444,T*2D
$PYRTM,2024,127.834479245521,18.944126655660
$GNGGA,200139.00,3330.15448261,N,11848.51872208,W,2,11,1.1,9.009,M,-37.765,M,7.0,0131*60
$PYRTM,2024,127.834479245521,18.944126655660
$GNHDT,130.545,T*2D
$PYRTM,2024,127.834484974942,18.944132385081
$GNGGA,200139.50,3330.15378589,N,11848.51768171,W,2,11,1.1,9.060,M,-37.765,M,7.4,0131*62
$PYRTM,2024,127.834484974942,18.944132385081
$GNHDT,130.940,T*24
$PYRTM,2024,127.834490815255,18.944138225394
$GNGGA,200140.00,3330.15309444,N,11848.51662998,W,2,11,1.1,9.071,M,-37.765,M,7.0,0131*6F
$PYRTM,2024,127.834490815255,18.944138225394
$GNHDT,131.236,T*2F
$PYRTM,2024,127.834496548403,18.944143958542
$GNGGA,200140.50,3330.15239722,N,11848.51558924,W,2,11,1.1,9.054,M,-37.765,M,7.4,0131*65
$PYRTM,2024,127.834496548403,18.944143958542
$GNHDT,131.603,T*2D
$PYRTM,2024,127.834502395127,18.944149805266
$GNGGA,200141.00,3330.15167809,N,11848.51456770,W,2,11,1.1,9.001,M,-37.765,M,7.0,0131*6B
$PYRTM,2024,127.834502395127,18.944149805266
$GNHDT,131.878,T*2F
$PYRTM,2024,127.834508123009,18.944155533148
$GNGGA,200141.50,3330.15093639,N,11848.51356332,W,2,11,1.1,8.918,M,-37.765,M,7.4,0131*68
$PYRTM,2024,127.834508123009,18.944155533148
$GNHDT,131.973,T*25
$PYRTM,2024,127.834513963009,18.944161373148
$GNGGA,200142.00,3330.15016811,N,11848.51255940,W,2,11,1.1,8.788,M,-37.765,M,4.0,0131*6A
$PYRTM,2024,127.834513963009,18.944161373148
$GNHDT,132.112,T*29
$PYRTM,2024,127.834519696817,18.944167106956
$GNGGA,200142.50,3330.14939389,N,11848.51154363,W,2,11,1.1,8.603,M,-37.765,M,4.4,0131*6F
$PYRTM,2024,127.834519696817,18.944167106956
$GNHDT,131.768,T*21
$PYRTM,2024,127.834525540370,18.944172950509
$GNGGA,200143.00,3330.14862119,N,11848.51051308,W,2,11,1.1,8.401,M,-37.765,M,5.0,0131*63
$PYRTM,2024,127.834525540370,18.944172950509
$GNHDT,131.601,T*2F
$PYRTM,2024,127.834531271748,18.944178681887
$GNGGA,200143.50,3330.14786370,N,11848.50947469,W,2,11,1.1,8.219,M,-37.765,M,5.4,0131*6A
$PYRTM,2024,127.834531271748,18.944178681887
$GNHDT,131.148,T*25
$PYRTM,2024,127.834537112072,18.944184522211
$GNGGA,200144.00,3330.14712590,N,11848.50843747,W,2,11,1.1,8.083,M,-37.765,M,6.0,0131*61
$PYRTM,2024,127.834537112072,18.944184522211
$GNHDT,130.845,T*20
$PYRTM,2024,127.834542843981,18.944190254132
$GNGGA,200144.50,3330.14640477,N,11848.50740882,W,2,11,1.1,8.004,M,-37.765,M,6.4,0131*6B
$PYRTM,2024,127.834542843981,18.944190254132
$GNHDT,130.287,T*24
$PYRTM,2024,127.834548686979,18.944196097130
$GNGGA,200145.00,3330.14569790,N,11848.50639226,W,2,11,1.1,7.983,M,-37.765,M,7.0,0131*6A
$PYRTM,2024,127.834548686979,18.944196097130
$GNHDT,129.830,T*2A
$PYRTM,2024,127.834554421100,18.944201831238
$GNGGA,200145.50,3330.14499170,N,11848.50540559,W,2,11,1.1,8.031,M,-37.765,M,7.4,0131*60
$PYRTM,2024,127.834554421100,18.944201831238
$GNHDT,129.650,T*22
$PYRTM,2024,127.834560258542,18.944207668681
$GNGGA,200146.00,3330.14427936,N,11848.50444692,W,2,11,1.1,8.120,M,-37.765,M,7.0,0131*6D
$PYRTM,2024,127.834560258542,18.944207668681
$GNHDT,129.102,T*22
$PYRTM,2024,127.834565994433,18.944213404572
$GNGGA,200146.50,3330.14355438,N,11848.50350742,W,2,11,1.1,8.205,M,-37.765,M,7.4,0131*67
$PYRTM,2024,127.834565994433,18.944213404572
$GNHDT,128.849,T*25
$PYRTM,2024,127.834571834398,18.944219244537
$GNGGA,200147.00,3330.14281092,N,11848.50257866,W,2,11,1.1,8.256,M,-37.765,M,7.0,0131*62
$PYRTM,2024,127.834571834398,18.944219244537
$GNHDT,128.728,T*2D
$PYRTM,2024,127.834577568669,18.944224978808
$GNGGA,200147.50,3330.14205456,N,11848.50164987,W,2,11,1.1,8.241,M,-37.765,M,7.4,0131*68
$PYRTM,2024,127.834577568669,18.944224978808
$GNHDT,128.765,T*24
$PYRTM,2024,127.834583407535,18.944230817674
$GNGGA,200148.00,3330.14129911,N,11848.50071643,W,2,11,1.1,8.170,M,-37.765,M,4.0,0131*65
$PYRTM,2024,127.834583407535,18.944230817674
$GNHDT,128.718,T*2E
$PYRTM,2024,127.834589146111,18.944236556250
$GNGGA,200148.50,3330.14054981,N,11848.49977851,W,2,11,1.1,8.091,M,-37.765,M,4.4,0131*62
$PYRTM,2024,127.834589146111,18.944236556250
$GNHDT,128.821,T*2B
$PYRTM,2024,127.834594981470,18.944242391609
$GNGGA,200149.00,3330.13981721,N,11848.49882479,W,2,11,1.1,8.041,M,-37.765,M,5.0,0131*61
$PYRTM,2024,127.834594981470,18.944242391609
$GNHDT,128.889,T*29
$PYRTM,2024,127.834600716551,18.944248126701
$GNGGA,200149.50,3330.13909984,N,11848.49784151,W,2,11,1.1,8.055,M,-37.765,M,5.4,0131*62
$PYRTM,2024,127.834600716551,18.944248126701
$GNHDT,129.230,T*20
$PYRTM,2024,127.834606554826,18.944253964965
$GNGGA,200150.00,3330.13840273,N,11848.49682200,W,2,11,1.1,8.143,M,-37.765,M,6.0,0131*61
$PYRTM,2024,127.834606554826,18.944253964965
$GNHDT,129.355,T*22
$PYRTM,2024,127.834612291563,18.944259701713
$GNGGA,200150.50,3330.13772676,N,11848.49576982,W,2,11,1.1,8.307,M,-37.765,M,6.4,0131*64
$PYRTM,2024,127.834612291563,18.944259701713
$GNHDT,129.478,T*2A
$PYRTM,2024,127.834618129282,18.944265539421
$GNGGA,200151.00,3330.13706667,N,11848.49469340,W,2,11,1.1,8.509,M,-37.765,M,7.0,0131*65
$PYRTM,2024,127.834618129282,18.944265539421
$GNHDT,129.680,T*2F
$PYRTM,2024,127.834623863681,18.944271273819
$GNGGA,200151.50,3330.13640322,N,11848.49361714,W,2,11,1.1,8.698,M,-37.765,M,7.4,0131*62
$PYRTM,2024,127.834623863681,18.944271273819
$GNHDT,129.908,T*20
$PYRTM,2024,127.834629704942,18.944277115081
$GNGGA,200152.00,3330.13570782,N,11848.49256109,W,2,11,1.1,8.780,M,-37.765,M,7.0,0131*69
$PYRTM,2024,127.834629704942,18.944277115081
$GNHDT,129.974,T*2B
$PYRTM,2024,127.834635438252,18.944282848391
$GNGGA,200152.50,3330.13497903,N,11848.49152936,W,2,11,1.1,8.762,M,-37.765,M,7.4,0131*68
$PYRTM,2024,127.834635438252,18.944282848391
$GNHDT,129.854,T*28
$PYRTM,2024,127.834641277141,18.944288687280
$GNGGA,200153.00,3330.13422823,N,11848.49052689,W,2,11,1.1,8.634,M,-37.765,M,7.0,0131*6D
$PYRTM,2024,127.834641277141,18.944288687280
$GNHDT,129.752,T*21
$PYRTM,2024,127.834647015625,18.944294425764
$GNGGA,200153.50,3330.13347275,N,11848.48954631,W,2,11,1.1,8.487,M,-37.765,M,7.4,0131*66
$PYRTM,2024,127.834647015625,18.944294425764
$GNHDT,129.493,T*2F
$PYRTM,2024,127.834652853310,18.944300263449
$GNGGA,200154.00,3330.13271753,N,11848.48858454,W,2,11,1.1,8.377,M,-37.765,M,4.0,0131*62
$PYRTM,2024,127.834652853310,18.944300263449
$GNHDT,129.509,T*2D
$PYRTM,2024,127.834658588056,18.944305998206
$GNGGA,200154.50,3330.13197096,N,11848.48761904,W,2,11,1.1,8.322,M,-37.765,M,4.4,0131*6B
$PYRTM,2024,127.834658588056,18.944305998206
$GNHDT,129.672,T*22
$PYRTM,2024,127.834664426574,18.944311836725
$GNGGA,200155.00,3330.13124628,N,11848.48663328,W,2,11,1.1,8.353,M,-37.765,M,5.0,0131*60
$PYRTM,2024,127.834664426574,18.944311836725
$GNHDT,129.768,T*28
$PYRTM,2024,127.834670168877,18.944317579016
$GNGGA,200155.50,3330.13054465,N,11848.48561990,W,2,11,1.1,8.439,M,-37.765,M,5.4,0131*6F
$PYRTM,2024,127.834670168877,18.944317579016
$GNHDT,129.855,T*29
$PYRTM,2024,127.834676003044,18.944323413183
$GNGGA,200156.00,3330.12986080,N,11848.48457163,W,2,11,1.1,8.545,M,-37.765,M,6.0,0131*6C
$PYRTM,2024,127.834676003044,18.944323413183
$GNHDT,129.959,T*24
$PYRTM,2024,127.834681736296,18.944329146435
$GNGGA,200156.50,3330.12918164,N,11848.48351419,W,2,11,1.1,8.647,M,-37.765,M,6.4,0131*69
$PYRTM,2024,127.834681736296,18.944329146435
$GNHDT,129.941,T*2D
$PYRTM,2024,127.834687578437,18.944334988576
$GNGGA,200157.00,3330.12850097,N,11848.48247215,W,2,11,1.1,8.732,M,-37.765,M,7.0,0131*67
$PYRTM,2024,127.834687578437,18.944334988576
$GNHDT,130.118,T*21
$PYRTM,2024,127.834693314780,18.944340724919
$GNGGA,200157.50,3330.12780066,N,11848.48145353,W,2,11,1.1,8.784,M,-37.765,M,7.4,0131*65
$PYRTM,2024,127.834693314780,18.944340724919
$GNHDT,130.531,T*2E
$PYRTM,2024,127.834699150567,18.944346560718
$GNGGA,200158.00,3330.12707439,N,11848.48045684,W,2,11,1.1,8.800,M,-37.765,M,7.0,0131*67
$PYRTM,2024,127.834699150567,18.944346560718
$GNHDT,130.635,T*29
$PYRTM,2024,127.834704885787,18.944352295926
$GNGGA,200158.50,3330.12632324,N,11848.47947826,W,2,11,1.1,8.797,M,-37.765,M,7.4,0131*69
$PYRTM,2024,127.834704885787,18.944352295926
$GNHDT,130.835,T*27
$PYRTM,2024,127.834710725231,18.944358135370
$GNGGA,200159.00,3330.12555549,N,11848.47851466,W,2,11,1.1,8.765,M,-37.765,M,7.0,0131*65
$PYRTM,2024,127.834710725231,18.944358135370
$GNHDT,131.280,T*22
$PYRTM,2024,127.834716460984,18.944363871123
$GNGGA,200159.50,3330.12479430,N,11848.47754574,W,2,11,1.1,8.749,M,-37.765,M,7.4,0131*62
$PYRTM,2024,127.834716460984,18.944363871123
$GNHDT,131.488,T*2C
$PYRTM,2024,127.834722301620,18.944369711759
$GNGGA,200200.00,3330.12404610,N,11848.47655947,W,2,11,1.1,8.750,M,-37.765,M,4.0,0131*61
$PYRTM,2024,127.834722301620,18.944369711759
$GNHDT,131.691,T*26
$PYRTM,2024,127.834728037095,18.944375447234
$GNGGA,200200.50,3330.12332206,N,11848.47554503,W,2,11,1.1,8.743,M,-37.765,M,4.4,0131*6D
$PYRTM,2024,127.834728037095,18.944375447234
$GNHDT,131.879,T*2E
$PYRTM,2024,127.834733876991,18.944381287130
$GNGGA,200201.00,3330.12261139,N,11848.47450825,W,2,11,1.1,8.702,M,-37.765,M,5.0,0131*6D
$PYRTM,2024,127.834733876991,18.944381287130
$GNHDT,131.903,T*22
$PYRTM,2024,127.834739606493,18.944387016632
$GNGGA,200201.50,3330.12190248,N,11848.47346702,W,2,11,1.1,8.627,M,-37.765,M,5.4,0131*68
$PYRTM,2024,127.834739606493,18.944387016632
$GNHDT,131.614,T*2B
$PYRTM,2024,127.834745452095,18.944392862234
$GNGGA,200202.00,3330.12118479,N,11848.47243106,W,2,11,1.1,8.504,M,-37.765,M,6.0,0131*69
$PYRTM,2024,127.834745452095,18.944392862234
$GNHDT,131.503,T*2E
$PYRTM,2024,127.834751180069,18.944398590208
$GNGGA,200202.50,3330.12045588,N,11848.47140907,W,2,11,1.1,8.355,M,-37.765,M,6.4,0131*65
$PYRTM,2024,127.834751180069,18.944398590208
$GNHDT,131.071,T*2E
$PYRTM,2024,127.834757018970,18.944404429109
$GNGGA,200203.00,3330.11971147,N,11848.47040750,W,2,11,1.1,8.179,M,-37.765,M,7.0,0131*6F
$PYRTM,2024,127.834757018970,18.944404429109
$GNHDT,130.779,T*20
$PYRTM,2024,127.834762755718,18.944410165856
$GNGGA,200203.50,3330.11895602,N,11848.46943521,W,2,11,1.1,8.018,M,-37.765,M,7.4,0131*6A
$PYRTM,2024,127.834762755718,18.944410165856
$GNHDT,130.720,T*2C
$PYRTM,2024,127.834768595509,18.944416005648
$GNGGA,200204.00,3330.11818963,N,11848.46849322,W,2,11,1.1,7.894,M,-37.765,M,7.0,0131*6C
$PYRTM,2024,127.834768595509,18.944416005648
$GNHDT,130.557,T*2E
$PYRTM,2024,127.834774328681,18.944421738819
$GNGGA,200204.50,3330.11742176,N,11848.46756907,W,2,11,1.1,7.833,M,-37.765,M,7.4,0131*60
$PYRTM,2024,127.834774328681,18.944421738819
$GNHDT,130.303,T*29
$PYRTM,2024,127.834780170949,18.944427581088
$GNGGA,200205.00,3330.11665698,N,11848.46664800,W,2,11,1.1,7.848,M,-37.765,M,7.0,0131*69
$PYRTM,2024,127.834780170949,18.944427581088
$GNHDT,129.993,T*22
$PYRTM,2024,127.834785909630,18.944433319780
$GNGGA,200205.50,3330.11590666,N,11848.46570185,W,2,11,1.1,7.941,M,-37.765,M,7.4,0131*6A
$PYRTM,2024,127.834785909630,18.944433319780
$GNHDT,129.691,T*2F
$PYRTM,2024,127.834791741181,18.944439151319
$GNGGA,200206.00,3330.11517364,N,11848.46471469,W,2,11,1.1,8.076,M,-37.765,M,4.0,0131*66
$PYRTM,2024,127.834791741181,18.944439151319
$GNHDT,129.465,T*26
$PYRTM,2024,127.834797477118,18.944444887269
$GNGGA,200206.50,3330.11445131,N,11848.46369356,W,2,11,1.1,8.220,M,-37.765,M,4.4,0131*67
$PYRTM,2024,127.834797477118,18.944444887269
$GNHDT,129.012,T*22
$PYRTM,2024,127.834803317465,18.944450727604
$GNGGA,200207.00,3330.11373227,N,11848.46265263,W,2,11,1.1,8.351,M,-37.765,M,5.0,0131*6D
$PYRTM,2024,127.834803317465,18.944450727604
$GNHDT,128.856,T*2B
$PYRTM,2024,127.834809051227,18.944456461366
$GNGGA,200207.50,3330.11300650,N,11848.46161086,W,2,11,1.1,8.453,M,-37.765,M,5.4,0131*67
$PYRTM,2024,127.834809051227,18.944456461366
$GNHDT,128.726,T*23
$PYRTM,2024,127.834814893588,18.944462303727
$GNGGA,200208.00,3330.11226626,N,11848.46058077,W,2,11,1.1,8.505,M,-37.765,M,6.0,0131*69
$PYRTM,2024,127.834814893588,18.944462303727
$GNHDT,128.741,T*22
$PYRTM,2024,127.834820625359,18.944468035498
$GNGGA,200208.50,3330.11151372,N,11848.45955676,W,2,11,1.1,8.513,M,-37.765,M,6.4,0131*68
$PYRTM,2024,127.834820625359,18.944468035498
$GNHDT,129.081,T*28
$PYRTM,2024,127.834826466146,18.944473876285
$GNGGA,200209.00,3330.11075585,N,11848.45852788,W,2,11,1.1,8.489,M,-37.765,M,7.0,0131*64
$PYRTM,2024,127.834826466146,18.944473876285
$GNHDT,129.249,T*2E
$PYRTM,2024,127.834832199340,18.944479609479
$GNGGA,200209.50,3330.11000181,N,11848.45748963,W,2,11,1.1,8.481,M,-37.765,M,7.4,0131*60
$PYRTM,2024,127.834832199340,18.944479609479
$GNHDT,129.176,T*21
$PYRTM,2024,127.834838041933,18.944485452072
$GNGGA,200210.00,3330.10925315,N,11848.45644178,W,2,11,1.1,8.491,M,-37.765,M,7.0,0131*67
$PYRTM,2024,127.834838041933,18.944485452072
$GNHDT,129.653,T*21
$PYRTM,2024,127.834843776632,18.944491186771
$GNGGA,200210.50,3330.10852080,N,11848.45539324,W,2,11,1.1,8.552,M,-37.765,M,7.4,0131*64
$PYRTM,2024,127.834843776632,18.944491186771
$GNHDT,130.228,T*21
$PYRTM,2024,127.834849614363,18.944497024502
$GNGGA,200211.00,3330.10780369,N,11848.45432544,W,2,11,1.1,8.637,M,-37.765,M,7.0,0131*6A
$PYRTM,2024,127.834849614363,18.944497024502
$GNHDT,130.680,T*27
$PYRTM,2024,127.834855355567,18.944502765706
$GNGGA,200211.50,3330.10710174,N,11848.45324974,W,2,11,1.1,8.729,M,-37.765,M,7.4,0131*6D
$PYRTM,2024,127.834855355567,18.944502765706
$GNHDT,131.078,T*27
$PYRTM,2024,127.834861190938,18.944508601076
$GNGGA,200212.00,3330.10640923,N,11848.45217507,W,2,11,1.1,8.792,M,-37.765,M,4.0,0131*6B
$PYRTM,2024,127.834861190938,18.944508601076
$GNHDT,131.378,T*24
$PYRTM,2024,127.834866922917,18.944514333067
$GNGGA,200212.50,3330.10570798,N,11848.45112704,W,2,11,1.1,8.805,M,-37.765,M,4.4,0131*62
$PYRTM,2024,127.834866922917,18.944514333067
$GNHDT,131.243,T*2D
$PYRTM,2024,127.834872762882,18.944520173032
$GNGGA,200213.00,3330.10500188,N,11848.45011986,W,2,11,1.1,8.747,M,-37.765,M,5.0,0131*6C
$PYRTM,2024,127.834872762882,18.944520173032
$GNHDT,131.084,T*24
$PYRTM,2024,127.834878497917,18.944525908056
$GNGGA,200213.50,3330.10428773,N,11848.44914618,W,2,11,1.1,8.656,M,-37.765,M,5.4,0131*60
$PYRTM,2024,127.834878497917,18.944525908056
$GNHDT,130.978,T*2F
$PYRTM,2024,127.834884333958,18.944531744097
$GNGGA,200214.00,3330.10357140,N,11848.44819233,W,2,11,1.1,8.538,M,-37.765,M,6.0,0131*66
$PYRTM,2024,127.834884333958,18.944531744097
$GNHDT,130.695,T*23
$PYRTM,2024,127.834890069178,18.944537479317
$GNGGA,200214.50,3330.10285681,N,11848.44724337,W,2,11,1.1,8.419,M,-37.765,M,6.4,0131*65
$PYRTM,2024,127.834890069178,18.944537479317
$GNHDT,130.507,T*2B
$PYRTM,2024,127.834895911319,18.944543321458
$GNGGA,200215.00,3330.10214784,N,11848.44629584,W,2,11,1.1,8.322,M,-37.765,M,7.0,0131*65
$PYRTM,2024,127.834895911319,18.944543321458
$GNHDT,130.144,T*28
$PYRTM,2024,127.834901646562,18.944549056701
$GNGGA,200215.50,3330.10144354,N,11848.44534639,W,2,11,1.1,8.273,M,-37.765,M,7.4,0131*64
$PYRTM,2024,127.834901646562,18.944549056701
$GNHDT,129.870,T*2E
$PYRTM,2024,127.834907481609,18.944554891759
$GNGGA,200216.00,3330.10074360,N,11848.44438294,W,2,11,1.1,8.279,M,-37.765,M,7.0,0131*67
$PYRTM,2024,127.834907481609,18.944554891759
$GNHDT,129.895,T*25
$PYRTM,2024,127.834913222373,18.944560632512
$GNGGA,200216.50,3330.10003484,N,11848.44340868,W,2,11,1.1,8.334,M,-37.765,M,7.4,0131*62
$PYRTM,2024,127.834913222373,18.944560632512
$GNHDT,130.009,T*20
$PYRTM,2024,127.834919059954,18.944566470104
$GNGGA,200217.00,3330.09931916,N,11848.44241337,W,2,11,1.1,8.413,M,-37.765,M,7.0,0131*67
$PYRTM,2024,127.834919059954,18.944566470104
$GNHDT,130.368,T*24
$PYRTM,2024,127.834924792882,18.944572203021
$GNGGA,200217.50,3330.09858465,N,11848.44140753,W,2,11,1.1,8.517,M,-37.764,M,7.4,0131*61
$PYRTM,2024,127.834924792882,18.944572203021
$GNHDT,130.770,T*29
$PYRTM,2024,127.834930630069,18.944578040208
$GNGGA,200218.00,3330.09782848,N,11848.44039412,W,2,11,1.1,8.609,M,-37.764,M,4.0,0131*62
$PYRTM,2024,127.834930630069,18.944578040208
$GNHDT,131.096,T*27
$PYRTM,2024,127.834936365891,18.944583776030
$GNGGA,200218.50,3330.09704595,N,11848.43937684,W,2,11,1.1,8.655,M,-37.764,M,4.4,0131*64
$PYRTM,2024,127.834936365891,18.944583776030
$GNHDT,131.594,T*20
$PYRTM,2024,127.834942206991,18.944589617141
$GNGGA,200219.00,3330.09623618,N,11848.43835367,W,2,11,1.1,8.642,M,-37.764,M,5.0,0131*6A
$PYRTM,2024,127.834942206991,18.944589617141
$GNHDT,131.950,T*24
$PYRTM,2024,127.834947943218,18.944595353368
$GNGGA,200219.50,3330.09541132,N,11848.43731788,W,2,11,1.1,8.583,M,-37.764,M,5.4,0131*63
$PYRTM,2024,127.834947943218,18.944595353368
$GNHDT,132.158,T*27
$PYRTM,2024,127.834953782882,18.944601193032
$GNGGA,200220.00,3330.09459156,N,11848.43624830,W,2,11,1.1,8.485,M,-37.764,M,6.0,0131*6F
$PYRTM,2024,127.834953782882,18.944601193032
$GNHDT,132.371,T*2E
$PYRTM,2024,127.834959517164,18.944606927303
$GNGGA,200220.50,3330.09378837,N,11848.43515867,W,2,11,1.1,8.377,M,-37.764,M,6.4,0131*6D
$PYRTM,2024,127.834959517164,18.944606927303
$GNHDT,132.407,T*28
$PYRTM,2024,127.834965352222,18.944612762361
$GNGGA,200221.00,3330.09300286,N,11848.43405894,W,2,11,1.1,8.273,M,-37.764,M,7.0,0131*6A
$PYRTM,2024,127.834965352222,18.944612762361
$GNHDT,132.409,T*26
$PYRTM,2024,127.834971088692,18.944618498831
$GNGGA,200221.50,3330.09223908,N,11848.43297156,W,2,11,1.1,8.209,M,-37.764,M,7.4,0131*61
$PYRTM,2024,127.834971088692,18.944618498831
$GNHDT,132.081,T*22
$PYRTM,2024,127.834976929306,18.944624339444
$GNGGA,200222.00,3330.09149273,N,11848.43190341,W,2,11,1.1,8.174,M,-37.764,M,7.0,0131*62
$PYRTM,2024,127.834976929306,18.944624339444
$GNHDT,131.632,T*2F
$PYRTM,2024,127.834982670127,18.944630080266
$GNGGA,200222.50,3330.09075936,N,11848.43086323,W,2,11,1.1,8.167,M,-37.764,M,7.4,0131*67
$PYRTM,2024,127.834982670127,18.944630080266
$GNHDT,131.111,T*29
$PYRTM,2024,127.834988500359,18.944635910498
$GNGGA,200223.00,3330.09003071,N,11848.42985526,W,2,11,1.1,8.146,M,-37.764,M,7.0,0131*67
$PYRTM,2024,127.834988500359,18.944635910498
$GNHDT,130.530,T*2F
$PYRTM,2024,127.834994235544,18.944641645683
$GNGGA,200223.50,3330.08929858,N,11848.42887738,W,2,11,1.1,8.120,M,-37.764,M,7.4,0131*6B
$PYRTM,2024,127.834994235544,18.944641645683
$GNHDT,129.964,T*2A
$PYRTM,2024,127.835000076505,18.944647486644
$GNGGA,200224.00,3330.08856156,N,11848.42792782,W,2,11,1.1,8.068,M,-37.764,M,4.0,0131*67
$PYRTM,2024,127.835000076505,18.944647486644
$GNHDT,129.365,T*21
$PYRTM,2024,127.835005809120,18.944653219259
$GNGGA,200224.50,3330.08783394,N,11848.42699038,W,2,11,1.1,8.026,M,-37.764,M,4.4,0131*6B
$PYRTM,2024,127.835005809120,18.944653219259
$GNHDT,129.044,T*21
$PYRTM,2024,127.835011648368,18.944659058507
$GNGGA,200225.00,3330.08712281,N,11848.42605141,W,2,11,1.1,8.029,M,-37.764,M,5.0,0131*62
$PYRTM,2024,127.835011648368,18.944659058507
$GNHDT,128.547,T*26
$PYRTM,2024,127.835017385752,18.944664795891
$GNGGA,200225.50,3330.08643135,N,11848.42510379,W,2,11,1.1,8.080,M,-37.764,M,5.4,0131*67
$PYRTM,2024,127.835017385752,18.944664795891
$GNHDT,128.464,T*26
$PYRTM,2024,127.835023227708,18.944670637859
$GNGGA,200226.00,3330.08575702,N,11848.42414399,W,2,11,1.1,8.197,M,-37.764,M,6.0,0131*6E
$PYRTM,2024,127.835023227708,18.944670637859
$GNHDT,128.286,T*2C
$PYRTM,2024,127.835028959352,18.944676369491
$GNGGA,200226.50,3330.08508143,N,11848.42316842,W,2,11,1.1,8.336,M,-37.764,M,6.4,0131*67
$PYRTM,2024,127.835028959352,18.944676369491
$GNHDT,128.302,T*21
$PYRTM,2024,127.835034796933,18.944682207072
$GNGGA,200227.00,3330.08438810,N,11848.42217366,W,2,11,1.1,8.439,M,-37.764,M,7.0,0131*6E
$PYRTM,2024,127.835034796933,18.944682207072
$GNHDT,128.320,T*21
$PYRTM,2024,127.835040533484,18.944687943623
$GNGGA,200227.50,3330.08366972,N,11848.42116143,W,2,11,1.1,8.511,M,-37.764,M,7.4,0131*6A
$PYRTM,2024,127.835040533484,18.944687943623
$GNHDT,128.462,T*20
$PYRTM,2024,127.835046371215,18.944693781354
$GNGGA,200228.00,3330.08292731,N,11848.42012993,W,2,11,1.1,8.540,M,-37.764,M,7.0,0131*63
$PYRTM,2024,127.835046371215,18.944693781354
$GNHDT,128.614,T*23
$PYRTM,2024,127.835052110197,18.944699520336
$GNGGA,200228.50,3330.08217173,N,11848.41907177,W,2,11,1.1,8.524,M,-37.764,M,7.4,0131*61
$PYRTM,2024,127.835052110197,18.944699520336
$GNHDT,128.561,T*22
$PYRTM,2024,127.835057946644,18.944705356794
