$PYRTM,2024,122.833333391215,13.942980801366
$GNGGA,200000.00,3359.98316146,N,11923.34264254,W,2,10,1.2,10.037,M,-37.399,M,5.0,0135*56
$PYRTM,2024,122.833333391215,13.942980801366
$GNHDT,66.722,T*1C
$PYRTM,2024,122.833339132060,13.942986542211
$GNGGA,200000.50,3359.98363297,N,11923.34125461,W,2,10,1.2,9.961,M,-37.399,M,5.4,0135*6E
$PYRTM,2024,122.833339132060,13.942986542211
$GNHDT,66.452,T*18
$PYRTM,2024,122.833344960637,13.942992370775
$GNGGA,200001.00,3359.98409965,N,11923.33987053,W,2,10,1.2,9.879,M,-37.399,M,6.0,0135*6A
$PYRTM,2024,122.833344960637,13.942992370775
$GNHDT,66.354,T*19
$PYRTM,2024,122.833350701343,13.942998111481
$GNGGA,200001.50,3359.98455631,N,11923.33848266,W,2,10,1.2,9.836,M,-37.399,M,6.4,0135*61
$PYRTM,2024,122.833350701343,13.942998111481
$GNHDT,66.119,T*12
$PYRTM,2024,122.833356537639,13.943003947778
$GNGGA,200002.00,3359.98500689,N,11923.33708055,W,2,10,1.2,9.815,M,-37.399,M,7.0,0135*68
$PYRTM,2024,122.833356537639,13.943003947778
$GNHDT,65.841,T*15
$PYRTM,2024,122.833362276956,13.943009687095
$GNGGA,200002.50,3359.98547072,N,11923.33568105,W,2,10,1.2,9.842,M,-37.399,M,7.4,0135*6A
$PYRTM,2024,122.833362276956,13.943009687095
$GNHDT,65.871,T*16
$PYRTM,2024,122.833368110428,13.943015520567
$GNGGA,200003.00,3359.98594935,N,11923.33428350,W,2,10,1.2,9.897,M,-37.399,M,7.0,0135*61
$PYRTM,2024,122.833368110428,13.943015520567
$GNHDT,65.797,T*11
$PYRTM,2024,122.833373849618,13.943021259757
$GNGGA,200003.50,3359.98644171,N,11923.33288576,W,2,10,1.2,9.982,M,-37.399,M,7.4,0135*6D
$PYRTM,2024,122.833373849618,13.943021259757
$GNHDT,65.899,T*10
$PYRTM,2024,122.833379687789,13.943027097928
$GNGGA,200004.00,3359.98694535,N,11923.33148881,W,2,10,1.2,10.070,M,-37.399,M,7.0,0135*54
$PYRTM,2024,122.833379687789,13.943027097928
$GNHDT,66.179,T*14
$PYRTM,2024,122.833385422650,13.943032832789
$GNGGA,200004.50,3359.98745706,N,11923.33009330,W,2,10,1.2,10.134,M,-37.399,M,7.4,0135*5E
$PYRTM,2024,122.833385422650,13.943032832789
$GNHDT,65.928,T*1B
$PYRTM,2024,122.833391259329,13.943038669468
$GNGGA,200005.00,3359.98797891,N,11923.32869762,W,2,10,1.2,10.160,M,-37.399,M,4.0,0135*5E
$PYRTM,2024,122.833391259329,13.943038669468
$GNHDT,65.974,T*12
$PYRTM,2024,122.833396998113,13.943044408252
$GNGGA,200005.50,3359.98850554,N,11923.32729889,W,2,10,1.2,10.177,M,-37.399,M,4.4,0135*58
$PYRTM,2024,122.833396998113,13.943044408252
$GNHDT,66.045,T*1A
$PYRTM,2024,122.833402831944,13.943050242083
$GNGGA,200006.00,3359.98903649,N,11923.32589975,W,2,10,1.2,10.170,M,-37.399,M,5.0,0135*5E
$PYRTM,2024,122.833402831944,13.943050242083
$GNHDT,66.024,T*1D
$PYRTM,2024,122.833408572894,13.943055983032
$GNGGA,200006.50,3359.98956330,N,11923.32449914,W,2,10,1.2,10.166,M,-37.399,M,5.4,0135*59
$PYRTM,2024,122.833408572894,13.943055983032
$GNHDT,65.928,T*1B
$PYRTM,2024,122.833414409051,13.943061819190
$GNGGA,200007.00,3359.99008773,N,11923.32309705,W,2,10,1.2,10.166,M,-37.399,M,6.0,0135*57
$PYRTM,2024,122.833414409051,13.943061819190
$GNHDT,65.833,T*10
$PYRTM,2024,122.833420144734,13.943067554873
$GNGGA,200007.50,3359.99061053,N,11923.32169597,W,2,10,1.2,10.170,M,-37.399,M,6.4,0135*56
$PYRTM,2024,122.833420144734,13.943067554873
$GNHDT,65.752,T*18
$PYRTM,2024,122.833425980162,13.943073390301
$GNGGA,200008.00,3359.99112957,N,11923.32028900,W,2,10,1.2,10.171,M,-37.399,M,7.0,0135*56
$PYRTM,2024,122.833425980162,13.943073390301
$GNHDT,65.688,T*1E
$PYRTM,2024,122.833431723356,13.943079133495
$GNGGA,200008.50,3359.99164278,N,11923.31888125,W,2,10,1.2,10.174,M,-37.399,M,7.4,0135*5B
$PYRTM,2024,122.833431723356,13.943079133495
$GNHDT,65.472,T*19
$PYRTM,2024,122.833437552963,13.943084963102
$GNGGA,200009.00,3359.99215164,N,11923.31747186,W,2,10,1.2,10.174,M,-37.399,M,7.0,0135*55
$PYRTM,2024,122.833437552963,13.943084963102
$GNHDT,65.520,T*1F
$PYRTM,2024,122.833443293137,13.943090703275
$GNGGA,200009.50,3359.99266699,N,11923.31606665,W,2,10,1.2,10.189,M,-37.399,M,7.4,0135*59
$PYRTM,2024,122.833443293137,13.943090703275
$GNHDT,65.487,T*13
$PYRTM,2024,122.833449129120,13.943096539259
$GNGGA,200010.00,3359.99318999,N,11923.31466562,W,2,10,1.2,10.209,M,-37.399,M,7.0,0135*5C
$PYRTM,2024,122.833449129120,13.943096539259
$GNHDT,65.541,T*18
$PYRTM,2024,122.833454868218,13.943102278356
$GNGGA,200010.50,3359.99372062,N,11923.31326356,W,2,10,1.2,10.235,M,-37.399,M,7.4,0135*51
$PYRTM,2024,122.833454868218,13.943102278356
$GNHDT,65.886,T*1E
$PYRTM,2024,122.833460703970,13.943108114109
$GNGGA,200011.00,3359.99425491,N,11923.31186378,W,2,10,1.2,10.243,M,-37.399,M,4.0,0135*5A
$PYRTM,2024,122.833460703970,13.943108114109
$GNHDT,65.831,T*12
$PYRTM,2024,122.833466445764,13.943113855903
$GNGGA,200011.50,3359.99479721,N,11923.31046605,W,2,10,1.2,10.250,M,-37.399,M,4.4,0135*5A
$PYRTM,2024,122.833466445764,13.943113855903
$GNHDT,65.583,T*16
$PYRTM,2024,122.833472278252,13.943119688391
$GNGGA,200012.00,3359.99534535,N,11923.30907526,W,2,10,1.2,10.246,M,-37.399,M,5.0,0135*5E
$PYRTM,2024,122.833472278252,13.943119688391
$GNHDT,65.613,T*1C
$PYRTM,2024,122.833478020370,13.943125430509
$GNGGA,200012.50,3359.99589020,N,11923.30769172,W,2,10,1.2,10.239,M,-37.398,M,5.4,0135*52
$PYRTM,2024,122.833478020370,13.943125430509
$GNHDT,65.432,T*1D
$PYRTM,2024,122.833483854063,13.943131264201
$GNGGA,200013.00,3359.99642894,N,11923.30630712,W,2,10,1.2,10.222,M,-37.398,M,6.0,0135*55
$PYRTM,2024,122.833483854063,13.943131264201
$GNHDT,65.509,T*14
$PYRTM,2024,122.833489589919,13.943137000058
$GNGGA,200013.50,3359.99695798,N,11923.30491691,W,2,10,1.2,10.188,M,-37.398,M,6.4,0135*5D
$PYRTM,2024,122.833489589919,13.943137000058
$GNHDT,65.289,T*1B
$PYRTM,2024,122.833495426146,13.943142836285
$GNGGA,200014.00,3359.99747640,N,11923.30351845,W,2,10,1.2,10.115,M,-37.398,M,7.0,0135*58
$PYRTM,2024,122.833495426146,13.943142836285
$GNHDT,65.173,T*1D
$PYRTM,2024,122.833501163993,13.943148574132
$GNGGA,200014.50,3359.99799183,N,11923.30211381,W,2,10,1.2,10.032,M,-37.398,M,7.4,0135*50
$PYRTM,2024,122.833501163993,13.943148574132
$GNHDT,65.059,T*14
$PYRTM,2024,122.833506997847,13.943154407986
$GNGGA,200015.00,3359.99851128,N,11923.30071509,W,2,10,1.2,9.947,M,-37.398,M,7.0,0135*6B
$PYRTM,2024,122.833506997847,13.943154407986
$GNHDT,64.884,T*1D
$PYRTM,2024,122.833512738993,13.943160149144
$GNGGA,200015.50,3359.99904865,N,11923.29933429,W,2,10,1.2,9.903,M,-37.398,M,7.4,0135*6F
$PYRTM,2024,122.833512738993,13.943160149144
$GNHDT,64.932,T*11
$PYRTM,2024,122.833518575521,13.943165985660
$GNGGA,200016.00,3359.99960780,N,11923.29797177,W,2,10,1.2,9.900,M,-37.398,M,7.0,0135*66
$PYRTM,2024,122.833518575521,13.943165985660
$GNHDT,64.741,T*1B
$PYRTM,2024,122.833524315023,13.943171725162
$GNGGA,200016.50,3400.00018116,N,11923.29661574,W,2,10,1.2,9.921,M,-37.398,M,7.4,0135*6F
$PYRTM,2024,122.833524315023,13.943171725162
$GNHDT,64.902,T*12
$PYRTM,2024,122.833530150278,13.943177560417
$GNGGA,200017.00,3400.00075221,N,11923.29525702,W,2,10,1.2,9.927,M,-37.398,M,4.0,0135*66
$PYRTM,2024,122.833530150278,13.943177560417
$GNHDT,64.828,T*1B
$PYRTM,2024,122.833535885475,13.943183295613
$GNGGA,200017.50,3400.00131423,N,11923.29388462,W,2,10,1.2,9.928,M,-37.398,M,4.4,0135*69
$PYRTM,2024,122.833535885475,13.943183295613
$GNHDT,64.885,T*1C
$PYRTM,2024,122.833541727558,13.943189137697
$GNGGA,200018.00,3400.00185991,N,11923.29249901,W,2,10,1.2,9.909,M,-37.398,M,5.0,0135*6A
$PYRTM,2024,122.833541727558,13.943189137697
$GNHDT,64.802,T*13
$PYRTM,2024,122.833547462882,13.943194873021
$GNGGA,200018.50,3400.00239260,N,11923.29110968,W,2,10,1.2,9.887,M,-37.398,M,5.4,0135*6D
$PYRTM,2024,122.833547462882,13.943194873021
$GNHDT,64.906,T*16
$PYRTM,2024,122.833553295937,13.943200706076
$GNGGA,200019.00,3400.00291404,N,11923.28971444,W,2,10,1.2,9.874,M,-37.398,M,6.0,0135*69
$PYRTM,2024,122.833553295937,13.943200706076
$GNHDT,64.920,T*12
$PYRTM,2024,122.833559033252,13.943206443391
$GNGGA,200019.50,3400.00343099,N,11923.28831700,W,2,10,1.2,9.862,M,-37.398,M,6.4,0135*67
$PYRTM,2024,122.833559033252,13.943206443391
$GNHDT,64.463,T*18
$PYRTM,2024,122.833564874618,13.943212284757
$GNGGA,200020.00,3400.00394838,N,11923.28691856,W,2,10,1.2,9.835,M,-37.398,M,7.0,0135*6E
$PYRTM,2024,122.833564874618,13.943212284757
$GNHDT,64.392,T*11
$PYRTM,2024,122.833570608287,13.943218018438
$GNGGA,200020.50,3400.00447509,N,11923.28552816,W,2,10,1.2,9.807,M,-37.398,M,7.4,0135*60
$PYRTM,2024,122.833570608287,13.943218018438
$GNHDT,64.340,T*1E
$PYRTM,2024,122.833576442662,13.943223852801
$GNGGA,200021.00,3400.00501442,N,11923.28415009,W,2,10,1.2,9.802,M,-37.398,M,7.0,0135*6C
$PYRTM,2024,122.833576442662,13.943223852801
$GNHDT,64.234,T*1C
$PYRTM,2024,122.833582188495,13.943229598646
$GNGGA,200021.50,3400.00556492,N,11923.28278355,W,2,10,1.2,9.830,M,-37.398,M,7.4,0135*64
$PYRTM,2024,122.833582188495,13.943229598646
$GNHDT,64.361,T*1D
$PYRTM,2024,122.833588021262,13.943235431400
$GNGGA,200022.00,3400.00612569,N,11923.28143317,W,2,10,1.2,9.883,M,-37.398,M,7.0,0135*65
$PYRTM,2024,122.833588021262,13.943235431400
$GNHDT,64.376,T*1B
$PYRTM,2024,122.833593758831,13.943241168970
$GNGGA,200022.50,3400.00668922,N,11923.28008218,W,2,10,1.2,9.945,M,-37.398,M,7.4,0135*61
$PYRTM,2024,122.833593758831,13.943241168970
$GNHDT,64.356,T*19
$PYRTM,2024,122.833599592731,13.943247002870
$GNGGA,200023.00,3400.00724284,N,11923.27870922,W,2,10,1.2,9.979,M,-37.398,M,4.0,0135*69
$PYRTM,2024,122.833599592731,13.943247002870
$GNHDT,64.499,T*1D
$PYRTM,2024,122.833605332222,13.943252742361
$GNGGA,200023.50,3400.00778136,N,11923.27731714,W,2,10,1.2,9.963,M,-37.398,M,4.4,0135*61
$PYRTM,2024,122.833605332222,13.943252742361
$GNHDT,64.345,T*1B
$PYRTM,2024,122.833611171019,13.943258581157
$GNGGA,200024.00,3400.00829852,N,11923.27591714,W,2,10,1.2,9.920,M,-37.398,M,5.0,0135*69
$PYRTM,2024,122.833611171019,13.943258581157
$GNHDT,64.492,T*16
$PYRTM,2024,122.833616908067,13.943264318206
$GNGGA,200024.50,3400.00880772,N,11923.27451670,W,2,10,1.2,9.890,M,-37.398,M,5.4,0135*62
$PYRTM,2024,122.833616908067,13.943264318206
$GNHDT,64.594,T*11
$PYRTM,2024,122.833622740127,13.943270150266
$GNGGA,200025.00,3400.00932541,N,11923.27312357,W,2,10,1.2,9.881,M,-37.398,M,6.0,0135*6B
$PYRTM,2024,122.833622740127,13.943270150266
$GNHDT,64.619,T*17
$PYRTM,2024,122.833628482002,13.943275892153
$GNGGA,200025.50,3400.00986464,N,11923.27174411,W,2,10,1.2,9.913,M,-37.397,M,6.4,0135*61
$PYRTM,2024,122.833628482002,13.943275892153
$GNHDT,64.805,T*14
$PYRTM,2024,122.833634315498,13.943281725648
$GNGGA,200026.00,3400.01042785,N,11923.27038207,W,2,10,1.2,9.984,M,-37.397,M,7.0,0135*68
$PYRTM,2024,122.833634315498,13.943281725648
$GNHDT,64.990,T*19
$PYRTM,2024,122.833640052674,13.943287462813
$GNGGA,200026.50,3400.01101452,N,11923.26903426,W,2,10,1.2,10.076,M,-37.397,M,7.4,0135*5F
$PYRTM,2024,122.833640052674,13.943287462813
$GNHDT,65.061,T*1F
$PYRTM,2024,122.833645887546,13.943293297685
$GNGGA,200027.00,3400.01160110,N,11923.26768776,W,2,10,1.2,10.155,M,-37.397,M,7.0,0135*5E
$PYRTM,2024,122.833645887546,13.943293297685
$GNHDT,65.022,T*18
$PYRTM,2024,122.833651628889,13.943299039028
$GNGGA,200027.50,3400.01217501,N,11923.26632773,W,2,10,1.2,10.194,M,-37.397,M,7.4,0135*5E
$PYRTM,2024,122.833651628889,13.943299039028
$GNHDT,64.903,T*13
$PYRTM,2024,122.833657465197,13.943304875336
$GNGGA,200028.00,3400.01272954,N,11923.26495381,W,2,10,1.2,10.154,M,-37.397,M,7.0,0135*55
$PYRTM,2024,122.833657465197,13.943304875336
$GNHDT,64.922,T*10
$PYRTM,2024,122.833663200498,13.943310610637
$GNGGA,200028.50,3400.01327359,N,11923.26356953,W,2,10,1.2,10.071,M,-37.397,M,7.4,0135*59
$PYRTM,2024,122.833663200498,13.943310610637
$GNHDT,64.870,T*16
$PYRTM,2024,122.833669036725,13.943316446863
$GNGGA,200029.00,3400.01381025,N,11923.26218678,W,2,10,1.2,9.947,M,-37.397,M,4.0,0135*67
$PYRTM,2024,122.833669036725,13.943316446863
$GNHDT,64.862,T*15
$PYRTM,2024,122.833674776331,13.943322186481
$GNGGA,200029.50,3400.01434487,N,11923.26081093,W,2,10,1.2,9.850,M,-37.397,M,4.4,0135*65
$PYRTM,2024,122.833674776331,13.943322186481
$GNHDT,64.981,T*19
$PYRTM,2024,122.833680613553,13.943328023692
$GNGGA,200030.00,3400.01487524,N,11923.25944202,W,2,10,1.2,9.789,M,-37.397,M,5.0,0135*6F
$PYRTM,2024,122.833680613553,13.943328023692
$GNHDT,64.890,T*18
$PYRTM,2024,122.833686353727,13.943333763866
$GNGGA,200030.50,3400.01541258,N,11923.25807661,W,2,10,1.2,9.777,M,-37.397,M,5.4,0135*6F
$PYRTM,2024,122.833686353727,13.943333763866
$GNHDT,65.195,T*15
$PYRTM,2024,122.833692185856,13.943339595995
$GNGGA,200031.00,3400.01596365,N,11923.25671378,W,2,10,1.2,9.808,M,-37.397,M,6.0,0135*6C
$PYRTM,2024,122.833692185856,13.943339595995
$GNHDT,65.144,T*19
$PYRTM,2024,122.833697925243,13.943345335382
$GNGGA,200031.50,3400.01652701,N,11923.25534818,W,2,10,1.2,9.879,M,-37.397,M,6.4,0135*69
$PYRTM,2024,122.833697925243,13.943345335382
$GNHDT,65.207,T*1D
$PYRTM,2024,122.833703761586,13.943351171725
$GNGGA,200032.00,3400.01709467,N,11923.25397212,W,2,10,1.2,9.946,M,-37.397,M,7.0,0135*64
$PYRTM,2024,122.833703761586,13.943351171725
$GNHDT,65.223,T*1B
$PYRTM,2024,122.833709497326,13.943356907465
$GNGGA,200032.50,3400.01765847,N,11923.25258556,W,2,10,1.2,10.005,M,-37.397,M,7.4,0135*52
$PYRTM,2024,122.833709497326,13.943356907465
$GNHDT,65.190,T*10
$PYRTM,2024,122.833715333785,13.943362743924
$GNGGA,200033.00,3400.01820883,N,11923.25119199,W,2,10,1.2,10.039,M,-37.397,M,7.0,0135*5A
$PYRTM,2024,122.833715333785,13.943362743924
$GNHDT,65.210,T*1B
$PYRTM,2024,122.833721072847,13.943368482998
$GNGGA,200033.50,3400.01874935,N,11923.24979206,W,2,10,1.2,10.060,M,-37.397,M,7.4,0135*50
$PYRTM,2024,122.833721072847,13.943368482998
$GNHDT,65.363,T*1E
$PYRTM,2024,122.833726907245,13.943374317384
$GNGGA,200034.00,3400.01928657,N,11923.24838936,W,2,10,1.2,10.059,M,-37.397,M,7.0,0135*53
$PYRTM,2024,122.833726907245,13.943374317384
$GNHDT,65.367,T*1A
$PYRTM,2024,122.833732649815,13.943380059954
$GNGGA,200034.50,3400.01982163,N,11923.24697796,W,2,10,1.2,10.045,M,-37.397,M,7.4,0135*50
$PYRTM,2024,122.833732649815,13.943380059954
$GNHDT,65.257,T*18
$PYRTM,2024,122.833738482361,13.943385892500
$GNGGA,200035.00,3400.02035371,N,11923.24556147,W,2,10,1.2,10.010,M,-37.397,M,4.0,0135*50
$PYRTM,2024,122.833738482361,13.943385892500
$GNHDT,65.360,T*1D
$PYRTM,2024,122.833744220301,13.943391630440
$GNGGA,200035.50,3400.02089319,N,11923.24414545,W,2,10,1.2,9.967,M,-37.397,M,4.4,0135*68
$PYRTM,2024,122.833744220301,13.943391630440
$GNHDT,65.472,T*19
$PYRTM,2024,122.833750056528,13.943397466678
$GNGGA,200036.00,3400.02143442,N,11923.24273693,W,2,10,1.2,9.901,M,-37.397,M,5.0,0135*6A
$PYRTM,2024,122.833750056528,13.943397466678
$GNHDT,65.737,T*1B
$PYRTM,2024,122.833755793669,13.943403203808
$GNGGA,200036.50,3400.02198318,N,11923.24134114,W,2,10,1.2,9.854,M,-37.397,M,5.4,0135*6C
$PYRTM,2024,122.833755793669,13.943403203808
$GNHDT,65.649,T*13
$PYRTM,2024,122.833761629016,13.943409039155
$GNGGA,200037.00,3400.02253491,N,11923.23995569,W,2,10,1.2,9.831,M,-37.397,M,6.0,0135*64
$PYRTM,2024,122.833761629016,13.943409039155
$GNHDT,65.668,T*10
$PYRTM,2024,122.833767373750,13.943414783889
$GNGGA,200037.50,3400.02308105,N,11923.23858031,W,2,10,1.2,9.836,M,-37.397,M,6.4,0135*6D
$PYRTM,2024,122.833767373750,13.943414783889
$GNHDT,65.803,T*13
$PYRTM,2024,122.833773203831,13.943420613970
$GNGGA,200038.00,3400.02361390,N,11923.23721095,W,2,10,1.2,9.852,M,-37.397,M,7.0,0135*6E
$PYRTM,2024,122.833773203831,13.943420613970
$GNHDT,65.789,T*1E
$PYRTM,2024,122.833778944572,13.943426354711
$GNGGA,200038.50,3400.02413589,N,11923.23583744,W,2,10,1.2,9.864,M,-37.397,M,7.4,0135*67
$PYRTM,2024,122.833778944572,13.943426354711
$GNHDT,65.910,T*10
$PYRTM,2024,122.833784784201,13.943432194340
$GNGGA,200039.00,3400.02465546,N,11923.23446288,W,2,10,1.2,9.862,M,-37.397,M,7.0,0135*6E
$PYRTM,2024,122.833784784201,13.943432194340
$GNHDT,65.802,T*12
$PYRTM,2024,122.833790516979,13.943437927118
$GNGGA,200039.50,3400.02518027,N,11923.23309066,W,2,10,1.2,9.842,M,-37.397,M,7.4,0135*6A
$PYRTM,2024,122.833790516979,13.943437927118
$GNHDT,65.679,T*10
$PYRTM,2024,122.833796352546,13.943443762685
$GNGGA,200040.00,3400.02570996,N,11923.23172068,W,2,10,1.2,9.811,M,-37.396,M,7.0,0135*6F
$PYRTM,2024,122.833796352546,13.943443762685
$GNHDT,65.702,T*1D
$PYRTM,2024,122.833802094838,13.943449504977
$GNGGA,200040.50,3400.02623766,N,11923.23035563,W,2,10,1.2,9.781,M,-37.396,M,7.4,0135*60
$PYRTM,2024,122.833802094838,13.943449504977
$GNHDT,65.728,T*15
$PYRTM,2024,122.833807924815,13.943455334954
$GNGGA,200041.00,3400.02676850,N,11923.22899389,W,2,10,1.2,9.761,M,-37.396,M,4.0,0135*6A
$PYRTM,2024,122.833807924815,13.943455334954
$GNHDT,65.689,T*1F
$PYRTM,2024,122.833813664306,13.943461074456
$GNGGA,200041.50,3400.02729674,N,11923.22764003,W,2,10,1.2,9.764,M,-37.396,M,4.4,0135*61
$PYRTM,2024,122.833813664306,13.943461074456
$GNHDT,65.614,T*1B
$PYRTM,2024,122.833819501609,13.943466911748
$GNGGA,200042.00,3400.02782227,N,11923.22628705,W,2,10,1.2,9.783,M,-37.396,M,5.0,0135*60
$PYRTM,2024,122.833819501609,13.943466911748
$GNHDT,65.717,T*19
$PYRTM,2024,122.833825238669,13.943472648808
$GNGGA,200042.50,3400.02834986,N,11923.22492865,W,2,10,1.2,9.813,M,-37.396,M,5.4,0135*6F
$PYRTM,2024,122.833825238669,13.943472648808
$GNHDT,65.651,T*1A
$PYRTM,2024,122.833831081042,13.943478491181
$GNGGA,200043.00,3400.02887429,N,11923.22356294,W,2,10,1.2,9.829,M,-37.396,M,6.0,0135*6E
$PYRTM,2024,122.833831081042,13.943478491181
$GNHDT,65.615,T*1A
$PYRTM,2024,122.833836815394,13.943484225532
$GNGGA,200043.50,3400.02939534,N,11923.22218810,W,2,10,1.2,9.846,M,-37.396,M,6.4,0135*62
$PYRTM,2024,122.833836815394,13.943484225532
$GNHDT,65.579,T*13
$PYRTM,2024,122.833842651725,13.943490061863
$GNGGA,200044.00,3400.02991347,N,11923.22080142,W,2,10,1.2,9.843,M,-37.396,M,7.0,0135*6D
$PYRTM,2024,122.833842651725,13.943490061863
$GNHDT,65.659,T*12
$PYRTM,2024,122.833848385347,13.943495795498
$GNGGA,200044.50,3400.03042615,N,11923.21940654,W,2,10,1.2,9.834,M,-37.396,M,7.4,0135*6E
$PYRTM,2024,122.833848385347,13.943495795498
$GNHDT,65.657,T*1C
$PYRTM,2024,122.833854222454,13.943501632593
$GNGGA,200045.00,3400.03093514,N,11923.21801056,W,2,10,1.2,9.824,M,-37.396,M,7.0,0135*61
$PYRTM,2024,122.833854222454,13.943501632593
$GNHDT,65.746,T*1D
$PYRTM,2024,122.833859961447,13.943507371586
$GNGGA,200045.50,3400.03145885,N,11923.21661955,W,2,10,1.2,9.823,M,-37.396,M,7.4,0135*6A
$PYRTM,2024,122.833859961447,13.943507371586
$GNHDT,65.520,T*1F
$PYRTM,2024,122.833865798600,13.943513208750
$GNGGA,200046.00,3400.03200091,N,11923.21523442,W,2,10,1.2,9.837,M,-37.396,M,7.0,0135*6C
$PYRTM,2024,122.833865798600,13.943513208750
$GNHDT,65.297,T*14
$PYRTM,2024,122.833871537419,13.943518947558
$GNGGA,200046.50,3400.03255319,N,11923.21385544,W,2,10,1.2,9.873,M,-37.396,M,7.4,0135*63
$PYRTM,2024,122.833871537419,13.943518947558
$GNHDT,65.656,T*1D
$PYRTM,2024,122.833877376181,13.943524786319
$GNGGA,200047.00,3400.03310729,N,11923.21246989,W,2,10,1.2,9.920,M,-37.396,M,4.0,0135*63
$PYRTM,2024,122.833877376181,13.943524786319
$GNHDT,65.833,T*10
$PYRTM,2024,122.833883109063,13.943530519201
$GNGGA,200047.50,3400.03365471,N,11923.21107584,W,2,10,1.2,9.947,M,-37.396,M,4.4,0135*68
$PYRTM,2024,122.833883109063,13.943530519201
$GNHDT,65.525,T*1A
$PYRTM,2024,122.833888947986,13.943536358125
$GNGGA,200048.00,3400.03419314,N,11923.20966791,W,2,10,1.2,9.948,M,-37.396,M,5.0,0135*68
$PYRTM,2024,122.833888947986,13.943536358125
$GNHDT,65.469,T*13
$PYRTM,2024,122.833894681308,13.943542091447
$GNGGA,200048.50,3400.03471925,N,11923.20824914,W,2,10,1.2,9.941,M,-37.396,M,5.4,0135*62
$PYRTM,2024,122.833894681308,13.943542091447
$GNHDT,65.415,T*18
$PYRTM,2024,122.833900520069,13.943547930208
$GNGGA,200049.00,3400.03524557,N,11923.20683748,W,2,10,1.2,9.936,M,-37.396,M,6.0,0135*6D
$PYRTM,2024,122.833900520069,13.943547930208
$GNHDT,65.211,T*1A
$PYRTM,2024,122.833906259988,13.943553670127
$GNGGA,200049.50,3400.03577863,N,11923.20543365,W,2,10,1.2,9.948,M,-37.396,M,6.4,0135*6D
$PYRTM,2024,122.833906259988,13.943553670127
$GNHDT,64.853,T*17
$PYRTM,2024,122.833912092662,13.943559502801
$GNGGA,200050.00,3400.03631982,N,11923.20403619,W,2,10,1.2,9.969,M,-37.396,M,7.0,0135*62
$PYRTM,2024,122.833912092662,13.943559502801
$GNHDT,64.685,T*12
$PYRTM,2024,122.833917835046,13.943565245197
$GNGGA,200050.50,3400.03685925,N,11923.20264269,W,2,10,1.2,9.996,M,-37.396,M,7.4,0135*65
$PYRTM,2024,122.833917835046,13.943565245197
$GNHDT,64.851,T*15
$PYRTM,2024,122.833923666887,13.943571077025
$GNGGA,200051.00,3400.03740340,N,11923.20125295,W,2,10,1.2,10.008,M,-37.396,M,7.0,0135*57
$PYRTM,2024,122.833923666887,13.943571077025
$GNHDT,64.713,T*1C
$PYRTM,2024,122.833929405174,13.943576815313
$GNGGA,200051.50,3400.03795413,N,11923.19986975,W,2,10,1.2,10.007,M,-37.396,M,7.4,0135*5E
$PYRTM,2024,122.833929405174,13.943576815313
$GNHDT,64.751,T*1A
$PYRTM,2024,122.833935241933,13.943582652072
$GNGGA,200052.00,3400.03850638,N,11923.19848645,W,2,10,1.2,9.979,M,-37.396,M,7.0,0135*66
$PYRTM,2024,122.833935241933,13.943582652072
$GNHDT,64.896,T*1E
$PYRTM,2024,122.833940978102,13.943588388241
$GNGGA,200052.50,3400.03905226,N,11923.19711033,W,2,10,1.2,9.950,M,-37.396,M,7.4,0135*62
$PYRTM,2024,122.833940978102,13.943588388241
$GNHDT,65.040,T*1C
$PYRTM,2024,122.833946821030,13.943594231169
$GNGGA,200053.00,3400.03958713,N,11923.19573971,W,2,10,1.2,9.923,M,-37.395,M,4.0,0135*64
$PYRTM,2024,122.833946821030,13.943594231169
$GNHDT,65.246,T*18
$PYRTM,2024,122.833952553819,13.943599963958
$GNGGA,200053.50,3400.04012394,N,11923.19437421,W,2,10,1.2,9.925,M,-37.395,M,4.4,0135*61
$PYRTM,2024,122.833952553819,13.943599963958
$GNHDT,65.037,T*1C
$PYRTM,2024,122.833958388160,13.943605798310
$GNGGA,200054.00,3400.04065742,N,11923.19300755,W,2,10,1.2,9.927,M,-37.395,M,5.0,0135*68
$PYRTM,2024,122.833958388160,13.943605798310
$GNHDT,65.150,T*1C
$PYRTM,2024,122.833964126238,13.943611536377
$GNGGA,200054.50,3400.04119028,N,11923.19163527,W,2,10,1.2,9.929,M,-37.395,M,5.4,0135*66
$PYRTM,2024,122.833964126238,13.943611536377
$GNHDT,64.735,T*18
$PYRTM,2024,122.833969963519,13.943617373657
$GNGGA,200055.00,3400.04172665,N,11923.19025666,W,2,10,1.2,9.918,M,-37.395,M,6.0,0135*60
$PYRTM,2024,122.833969963519,13.943617373657
$GNHDT,64.557,T*1E
$PYRTM,2024,122.833975710648,13.943623120787
$GNGGA,200055.50,3400.04227384,N,11923.18888183,W,2,10,1.2,9.898,M,-37.395,M,6.4,0135*63
$PYRTM,2024,122.833975710648,13.943623120787
$GNHDT,64.700,T*1E
$PYRTM,2024,122.833981537940,13.943628948079
$GNGGA,200056.00,3400.04283134,N,11923.18751180,W,2,10,1.2,9.887,M,-37.395,M,7.0,0135*61
$PYRTM,2024,122.833981537940,13.943628948079
$GNHDT,64.507,T*1B
$PYRTM,2024,122.833987278380,13.943634688519
$GNGGA,200056.50,3400.04339627,N,11923.18613918,W,2,10,1.2,9.864,M,-37.395,M,7.4,0135*66
$PYRTM,2024,122.833987278380,13.943634688519
$GNHDT,64.457,T*1F
$PYRTM,2024,122.833993110961,13.943640521111
$GNGGA,200057.00,3400.04395243,N,11923.18476072,W,2,10,1.2,9.843,M,-37.395,M,7.0,0135*67
$PYRTM,2024,122.833993110961,13.943640521111
$GNHDT,64.399,T*1A
$PYRTM,2024,122.833998849931,13.943646260069
$GNGGA,200057.50,3400.04449993,N,11923.18337865,W,2,10,1.2,9.819,M,-37.395,M,7.4,0135*65
$PYRTM,2024,122.833998849931,13.943646260069
$GNHDT,64.374,T*19
$PYRTM,2024,122.834004691019,13.943652101157
$GNGGA,200058.00,3400.04502782,N,11923.18198595,W,2,10,1.2,9.793,M,-37.395,M,7.0,0135*63
$PYRTM,2024,122.834004691019,13.943652101157
$GNHDT,64.301,T*1B
$PYRTM,2024,122.834010426505,13.943657836644
$GNGGA,200058.50,3400.04553781,N,11923.18058820,W,2,10,1.2,9.774,M,-37.395,M,7.4,0135*62
$PYRTM,2024,122.834010426505,13.943657836644
$GNHDT,64.579,T*12
$PYRTM,2024,122.834016263738,13.943663673877
$GNGGA,200059.00,3400.04603251,N,11923.17918410,W,2,10,1.2,9.767,M,-37.395,M,4.0,0135*60
$PYRTM,2024,122.834016263738,13.943663673877
$GNHDT,64.678,T*10
$PYRTM,2024,122.834021999456,13.943669409595
$GNGGA,200059.50,3400.04653034,N,11923.17777877,W,2,10,1.2,9.770,M,-37.395,M,4.4,0135*69
$PYRTM,2024,122.834021999456,13.943669409595
$GNHDT,64.671,T*19
$PYRTM,2024,122.834027837951,13.943675248090
$GNGGA,200100.00,3400.04703574,N,11923.17637340,W,2,10,1.2,9.777,M,-37.395,M,5.0,0135*6C
$PYRTM,2024,122.834027837951,13.943675248090
$GNHDT,64.601,T*1E
$PYRTM,2024,122.834033573056,13.943680983194
$GNGGA,200100.50,3400.04756081,N,11923.17497597,W,2,10,1.2,9.786,M,-37.395,M,5.4,0135*68
$PYRTM,2024,122.834033573056,13.943680983194
$GNHDT,64.697,T*11
$PYRTM,2024,122.834039408461,13.943686818600
$GNGGA,200101.00,3400.04810705,N,11923.17359485,W,2,10,1.2,9.817,M,-37.395,M,6.0,0135*6D
$PYRTM,2024,122.834039408461,13.943686818600
$GNHDT,64.788,T*1E
$PYRTM,2024,122.834045150208,13.943692560359
$GNGGA,200101.50,3400.04867521,N,11923.17222974,W,2,10,1.2,9.859,M,-37.395,M,6.4,0135*6C
$PYRTM,2024,122.834045150208,13.943692560359
$GNHDT,64.569,T*13
$PYRTM,2024,122.834050983345,13.943698393484
$GNGGA,200102.00,3400.04924872,N,11923.17087283,W,2,10,1.2,9.893,M,-37.395,M,7.0,0135*6A
$PYRTM,2024,122.834050983345,13.943698393484
$GNHDT,64.652,T*18
$PYRTM,2024,122.834056721620,13.943704131759
$GNGGA,200102.50,3400.04981541,N,11923.16950919,W,2,10,1.2,9.912,M,-37.395,M,7.4,0135*6B
$PYRTM,2024,122.834056721620,13.943704131759
$GNHDT,64.375,T*18
$PYRTM,2024,122.834062557940,13.943709968079
$GNGGA,200103.00,3400.05036523,N,11923.16813863,W,2,10,1.2,9.897,M,-37.395,M,7.0,0135*6D
$PYRTM,2024,122.834062557940,13.943709968079
$GNHDT,64.315,T*1E
$PYRTM,2024,122.834068300845,13.943715710984
$GNGGA,200103.50,3400.05089500,N,11923.16676234,W,2,10,1.2,9.875,M,-37.395,M,7.4,0135*60
$PYRTM,2024,122.834068300845,13.943715710984
$GNHDT,64.269,T*14
$PYRTM,2024,122.834074132269,13.943721542419
$GNGGA,200104.00,3400.05141473,N,11923.16538373,W,2,10,1.2,9.841,M,-37.395,M,7.0,0135*6A
$PYRTM,2024,122.834074132269,13.943721542419
$GNHDT,64.218,T*12
$PYRTM,2024,122.834079867697,13.943727277836
$GNGGA,200104.50,3400.05193835,N,11923.16401549,W,2,10,1.2,9.826,M,-37.395,M,7.4,0135*6F
$PYRTM,2024,122.834079867697,13.943727277836
$GNHDT,64.138,T*13
$PYRTM,2024,122.834085707581,13.943733117720
$GNGGA,200105.00,3400.05247444,N,11923.16265150,W,2,10,1.2,9.811,M,-37.395,M,4.0,0135*60
$PYRTM,2024,122.834085707581,13.943733117720
$GNHDT,64.174,T*1B
$PYRTM,2024,122.834091442025,13.943738852164
$GNGGA,200105.50,3400.05302610,N,11923.16129542,W,2,10,1.2,9.794,M,-37.395,M,4.4,0135*6C
$PYRTM,2024,122.834091442025,13.943738852164
$GNHDT,64.256,T*18
$PYRTM,2024,122.834097277442,13.943744687581
$GNGGA,200106.00,3400.05358899,N,11923.15993898,W,2,10,1.2,9.778,M,-37.395,M,5.0,0135*6D
$PYRTM,2024,122.834097277442,13.943744687581
$GNHDT,64.364,T*18
$PYRTM,2024,122.834103017986,13.943750428125
$GNGGA,200106.50,3400.05415574,N,11923.15858346,W,2,10,1.2,9.760,M,-37.395,M,5.4,0135*6B
$PYRTM,2024,122.834103017986,13.943750428125
$GNHDT,64.339,T*10
$PYRTM,2024,122.834108854144,13.943756264282
$GNGGA,200107.00,3400.05472032,N,11923.15722355,W,2,10,1.2,9.746,M,-37.395,M,6.0,0135*6A
$PYRTM,2024,122.834108854144,13.943756264282
$GNHDT,64.257,T*19
$PYRTM,2024,122.834114593333,13.943762003472
$GNGGA,200107.50,3400.05527857,N,11923.15585965,W,2,10,1.2,9.735,M,-37.394,M,6.4,0135*62
$PYRTM,2024,122.834114593333,13.943762003472
$GNHDT,64.212,T*18
$PYRTM,2024,122.834120430532,13.943767840683
$GNGGA,200108.00,3400.05583096,N,11923.15448932,W,2,10,1.2,9.731,M,-37.394,M,7.0,0135*60
$PYRTM,2024,122.834120430532,13.943767840683
$GNHDT,64.210,T*1A
$PYRTM,2024,122.834126167500,13.943773577639
$GNGGA,200108.50,3400.05637949,N,11923.15311381,W,2,10,1.2,9.745,M,-37.394,M,7.4,0135*6C
$PYRTM,2024,122.834126167500,13.943773577639
$GNHDT,64.354,T*1B
$PYRTM,2024,122.834132004560,13.943779414699
$GNGGA,200109.00,3400.05692377,N,11923.15172863,W,2,10,1.2,9.758,M,-37.394,M,7.0,0135*68
$PYRTM,2024,122.834132004560,13.943779414699
$GNHDT,64.396,T*15
$PYRTM,2024,122.834137740035,13.943785150174
$GNGGA,200109.50,3400.05746988,N,11923.15033711,W,2,10,1.2,9.769,M,-37.394,M,7.4,0135*67
$PYRTM,2024,122.834137740035,13.943785150174
$GNHDT,64.206,T*1D
$PYRTM,2024,122.834143582037,13.943790992176
$GNGGA,200110.00,3400.05802386,N,11923.14893948,W,2,10,1.2,9.769,M,-37.394,M,7.0,0135*64
$PYRTM,2024,122.834143582037,13.943790992176
$GNHDT,64.137,T*1C
$PYRTM,2024,122.834149315810,13.943796725949
$GNGGA,200110.50,3400.05859530,N,11923.14754081,W,2,10,1.2,9.776,M,-37.394,M,7.4,0135*66
$PYRTM,2024,122.834149315810,13.943796725949
$GNHDT,63.978,T*18
$PYRTM,2024,122.834155151470,13.943802561609
$GNGGA,200111.00,3400.05918011,N,11923.14614734,W,2,10,1.2,9.779,M,-37.394,M,4.0,0135*64
$PYRTM,2024,122.834155151470,13.943802561609
$GNHDT,63.934,T*10
$PYRTM,2024,122.834160888981,13.943808299120
$GNGGA,200111.50,3400.05977605,N,11923.14475931,W,2,10,1.2,9.797,M,-37.394,M,4.4,0135*61
$PYRTM,2024,122.834160888981,13.943808299120
$GNHDT,63.915,T*13
$PYRTM,2024,122.834166726146,13.943814136285
$GNGGA,200112.00,3400.06036931,N,11923.14337376,W,2,10,1.2,9.829,M,-37.394,M,5.0,0135*67
$PYRTM,2024,122.834166726146,13.943814136285
$GNHDT,63.915,T*13
$PYRTM,2024,122.834172463484,13.943819873623
$GNGGA,200112.50,3400.06095376,N,11923.14199139,W,2,10,1.2,9.872,M,-37.394,M,5.4,0135*67
$PYRTM,2024,122.834172463484,13.943819873623
$GNHDT,63.821,T*15
$PYRTM,2024,122.834178298900,13.943825709039
$GNGGA,200113.00,3400.06152709,N,11923.14060970,W,2,10,1.2,9.916,M,-37.394,M,6.0,0135*63
$PYRTM,2024,122.834178298900,13.943825709039
$GNHDT,63.936,T*12
$PYRTM,2024,122.834184040081,13.943831450220
$GNGGA,200113.50,3400.06209286,N,11923.13922617,W,2,10,1.2,9.937,M,-37.394,M,6.4,0135*68
$PYRTM,2024,122.834184040081,13.943831450220
$GNHDT,63.682,T*12
$PYRTM,2024,122.834189872766,13.943837282905
$GNGGA,200114.00,3400.06265509,N,11923.13784669,W,2,10,1.2,9.936,M,-37.394,M,7.0,0135*6F
$PYRTM,2024,122.834189872766,13.943837282905
$GNHDT,63.667,T*19
$PYRTM,2024,122.834195616273,13.943843026412
$GNGGA,200114.50,3400.06321419,N,11923.13646603,W,2,10,1.2,9.918,M,-37.394,M,7.4,0135*60
$PYRTM,2024,122.834195616273,13.943843026412
$GNHDT,63.671,T*1E
$PYRTM,2024,122.834201448032,13.943848858183
$GNGGA,200115.00,3400.06377554,N,11923.13508750,W,2,10,1.2,9.867,M,-37.394,M,7.0,0135*6C
$PYRTM,2024,122.834201448032,13.943848858183
$GNHDT,63.528,T*11
$PYRTM,2024,122.834207187442,13.943854597581
$GNGGA,200115.50,3400.06434535,N,11923.13371977,W,2,10,1.2,9.809,M,-37.394,M,7.4,0135*61
$PYRTM,2024,122.834207187442,13.943854597581
$GNHDT,63.419,T*12
$PYRTM,2024,122.834213022928,13.943860433067
$GNGGA,200116.00,3400.06492196,N,11923.13236238,W,2,10,1.2,9.747,M,-37.394,M,7.0,0135*65
$PYRTM,2024,122.834213022928,13.943860433067
$GNHDT,63.427,T*1F
$PYRTM,2024,122.834218762639,13.943866172789
$GNGGA,200116.50,3400.06550277,N,11923.13101009,W,2,10,1.2,9.692,M,-37.394,M,7.4,0135*69
$PYRTM,2024,122.834218762639,13.943866172789
$GNHDT,63.332,T*1C
$PYRTM,2024,122.834224595243,13.943872005382
$GNGGA,200117.00,3400.06607490,N,11923.12965994,W,2,10,1.2,9.650,M,-37.394,M,4.0,0135*6C
$PYRTM,2024,122.834224595243,13.943872005382
$GNHDT,63.210,T*1D
$PYRTM,2024,122.834230333808,13.943877743947
$GNGGA,200117.50,3400.06663786,N,11923.12830923,W,2,10,1.2,9.628,M,-37.394,M,4.4,0135*69
$PYRTM,2024,122.834230333808,13.943877743947
$GNHDT,63.062,T*1A
$PYRTM,2024,122.834236171007,13.943883581146
$GNGGA,200118.00,3400.06718975,N,11923.12695798,W,2,10,1.2,9.620,M,-37.394,M,5.0,0135*6E
$PYRTM,2024,122.834236171007,13.943883581146
$GNHDT,63.145,T*1E
$PYRTM,2024,122.834241907037,13.943889317176
$GNGGA,200118.50,3400.06773042,N,11923.12560421,W,2,10,1.2,9.614,M,-37.394,M,5.4,0135*60
$PYRTM,2024,122.834241907037,13.943889317176
$GNHDT,63.119,T*17
$PYRTM,2024,122.834247745914,13.943895156053
$GNGGA,200119.00,3400.06826236,N,11923.12424389,W,2,10,1.2,9.599,M,-37.394,M,6.0,0135*6F
$PYRTM,2024,122.834247745914,13.943895156053
$GNHDT,63.187,T*10
$PYRTM,2024,122.834253482847,13.943900892986
$GNGGA,200119.50,3400.06879031,N,11923.12288099,W,2,10,1.2,9.580,M,-37.394,M,6.4,0135*6B
$PYRTM,2024,122.834253482847,13.943900892986
$GNHDT,63.411,T*1A
$PYRTM,2024,122.834259317454,13.943906727593
$GNGGA,200120.00,3400.06932009,N,11923.12151493,W,2,10,1.2,9.552,M,-37.394,M,7.0,0135*62
$PYRTM,2024,122.834259317454,13.943906727593
$GNHDT,63.459,T*16
$PYRTM,2024,122.834265059329,13.943912469479
$GNGGA,200120.50,3400.06985771,N,11923.12015155,W,2,10,1.2,9.532,M,-37.393,M,7.4,0135*68
$PYRTM,2024,122.834265059329,13.943912469479
$GNHDT,63.528,T*11
$PYRTM,2024,122.834270894479,13.943918304618
$GNGGA,200121.00,3400.07040449,N,11923.11879217,W,2,10,1.2,9.517,M,-37.393,M,7.0,0135*62
$PYRTM,2024,122.834270894479,13.943918304618
$GNHDT,63.551,T*1F
$PYRTM,2024,122.834276632083,13.943924042222
$GNGGA,200121.50,3400.07096562,N,11923.11744237,W,2,10,1.2,9.524,M,-37.393,M,7.4,0135*63
$PYRTM,2024,122.834276632083,13.943924042222
$GNHDT,63.677,T*18
$PYRTM,2024,122.834282467303,13.943929877442
$GNGGA,200122.00,3400.07153875,N,11923.11609605,W,2,10,1.2,9.539,M,-37.393,M,7.0,0135*63
$PYRTM,2024,122.834282467303,13.943929877442
$GNHDT,63.341,T*18
$PYRTM,2024,122.834288207326,13.943935617465
$GNGGA,200122.50,3400.07211741,N,11923.11475280,W,2,10,1.2,9.569,M,-37.393,M,7.4,0135*6A
$PYRTM,2024,122.834288207326,13.943935617465
$GNHDT,63.632,T*19
$PYRTM,2024,122.834294038681,13.943941448819
$GNGGA,200123.00,3400.07269214,N,11923.11340526,W,2,10,1.2,9.587,M,-37.393,M,4.0,0135*69
$PYRTM,2024,122.834294038681,13.943941448819
$GNHDT,63.492,T*11
$PYRTM,2024,122.834299777731,13.943947187870
$GNGGA,200123.50,3400.07326112,N,11923.11204790,W,2,10,1.2,9.601,M,-37.393,M,4.4,0135*64
$PYRTM,2024,122.834299777731,13.943947187870
$GNHDT,63.579,T*15
$PYRTM,2024,122.834305614028,13.943953024167
$GNGGA,200124.00,3400.07381972,N,11923.11067871,W,2,10,1.2,9.587,M,-37.393,M,5.0,0135*6A
$PYRTM,2024,122.834305614028,13.943953024167
$GNHDT,63.472,T*1F
$PYRTM,2024,122.834311350428,13.943958760567
$GNGGA,200124.50,3400.07437215,N,11923.10929871,W,2,10,1.2,9.573,M,-37.393,M,5.4,0135*62
$PYRTM,2024,122.834311350428,13.943958760567
$GNHDT,63.454,T*1B
$PYRTM,2024,122.834317187199,13.943964597338
$GNGGA,200125.00,3400.07492009,N,11923.10791480,W,2,10,1.2,9.555,M,-37.393,M,6.0,0135*6A
$PYRTM,2024,122.834317187199,13.943964597338
$GNHDT,63.265,T*1F
$PYRTM,2024,122.834322930127,13.943970340278
$GNGGA,200125.50,3400.07547667,N,11923.10653261,W,2,10,1.2,9.559,M,-37.393,M,6.4,0135*66
$PYRTM,2024,122.834322930127,13.943970340278
$GNHDT,63.247,T*1F
$PYRTM,2024,122.834328762222,13.943976172361
$GNGGA,200126.00,3400.07604366,N,11923.10515536,W,2,10,1.2,9.588,M,-37.393,M,7.0,0135*6D
$PYRTM,2024,122.834328762222,13.943976172361
$GNHDT,63.280,T*14
$PYRTM,2024,122.834334499502,13.943981909641
$GNGGA,200126.50,3400.07662750,N,11923.10378734,W,2,10,1.2,9.640,M,-37.393,M,7.4,0135*67
$PYRTM,2024,122.834334499502,13.943981909641
$GNHDT,63.179,T*11
$PYRTM,2024,122.834340338252,13.943987748391
$GNGGA,200127.00,3400.07721762,N,11923.10242138,W,2,10,1.2,9.690,M,-37.393,M,7.0,0135*6F
$PYRTM,2024,122.834340338252,13.943987748391
$GNHDT,63.113,T*1D
$PYRTM,2024,122.834346077419,13.943993487558
$GNGGA,200127.50,3400.07781089,N,11923.10105396,W,2,10,1.2,9.740,M,-37.393,M,7.4,0135*6C
$PYRTM,2024,122.834346077419,13.943993487558
$GNHDT,63.272,T*19
$PYRTM,2024,122.834351911181,13.943999321319
$GNGGA,200128.00,3400.07839795,N,11923.09967549,W,2,10,1.2,9.756,M,-37.393,M,7.0,0135*63
$PYRTM,2024,122.834351911181,13.943999321319
$GNHDT,63.225,T*1B
$PYRTM,2024,122.834357649387,13.944005059537
$GNGGA,200128.50,3400.07897566,N,11923.09828815,W,2,10,1.2,9.741,M,-37.393,M,7.4,0135*60
$PYRTM,2024,122.834357649387,13.944005059537
$GNHDT,63.263,T*19
$PYRTM,2024,122.834363482407,13.944010892546
$GNGGA,200129.00,3400.07954668,N,11923.09689811,W,2,10,1.2,9.715,M,-37.393,M,4.0,0135*60
$PYRTM,2024,122.834363482407,13.944010892546
$GNHDT,63.138,T*14
$PYRTM,2024,122.834369224051,13.944016634190
$GNGGA,200129.50,3400.08010833,N,11923.09550772,W,2,10,1.2,9.694,M,-37.393,M,4.4,0135*62
$PYRTM,2024,122.834369224051,13.944016634190
$GNHDT,63.408,T*12
$PYRTM,2024,122.834375060417,13.944022470556
$GNGGA,200130.00,3400.08066283,N,11923.09412208,W,2,10,1.2,9.691,M,-37.393,M,5.0,0135*60
$PYRTM,2024,122.834375060417,13.944022470556
$GNHDT,63.402,T*18
$PYRTM,2024,122.834380794919,13.944028205058
$GNGGA,200130.50,3400.08122208,N,11923.09274966,W,2,10,1.2,9.715,M,-37.393,M,5.4,0135*6B
$PYRTM,2024,122.834380794919,13.944028205058
$GNHDT,63.609,T*11
$PYRTM,2024,122.834386630093,13.944034040231
$GNGGA,200131.00,3400.08179201,N,11923.09139032,W,2,10,1.2,9.744,M,-37.393,M,6.0,0135*69
$PYRTM,2024,122.834386630093,13.944034040231
$GNHDT,63.697,T*16
$PYRTM,2024,122.834392370231,13.944039780370
$GNGGA,200131.50,3400.08236693,N,11923.09003963,W,2,10,1.2,9.774,M,-37.393,M,6.4,0135*69
$PYRTM,2024,122.834392370231,13.944039780370
$GNHDT,63.566,T*1B
$PYRTM,2024,122.834398202130,13.944045612269
$GNGGA,200132.00,3400.08294512,N,11923.08868791,W,2,10,1.2,9.763,M,-37.393,M,7.0,0135*69
$PYRTM,2024,122.834398202130,13.944045612269
$GNHDT,63.640,T*1C
$PYRTM,2024,122.834403945868,13.944051356007
$GNGGA,200132.50,3400.08352557,N,11923.08733876,W,2,10,1.2,9.738,M,-37.393,M,7.4,0135*6B
$PYRTM,2024,122.834403945868,13.944051356007
$GNHDT,63.745,T*18
$PYRTM,2024,122.834409779803,13.944057189931
$GNGGA,200133.00,3400.08410271,N,11923.08598627,W,2,10,1.2,9.673,M,-37.393,M,7.0,0135*6E
$PYRTM,2024,122.834409779803,13.944057189931
$GNHDT,63.818,T*1F
$PYRTM,2024,122.834415515938,13.944062926088
$GNGGA,200133.50,3400.08467294,N,11923.08463557,W,2,10,1.2,9.600,M,-37.392,M,7.4,0135*60
$PYRTM,2024,122.834415515938,13.944062926088
$GNHDT,63.674,T*1B
$PYRTM,2024,122.834421360150,13.944068770289
$GNGGA,200134.00,3400.08522829,N,11923.08327649,W,2,10,1.2,9.528,M,-37.392,M,7.0,0135*68
$PYRTM,2024,122.834421360150,13.944068770289
$GNHDT,63.691,T*10
$PYRTM,2024,122.834427092488,13.944074502627
$GNGGA,200134.50,3400.08578226,N,11923.08192843,W,2,10,1.2,9.479,M,-37.392,M,7.4,0135*6E
$PYRTM,2024,122.834427092488,13.944074502627
$GNHDT,63.653,T*1E
$PYRTM,2024,122.834432924931,13.944080335069
$GNGGA,200135.00,3400.08633934,N,11923.08060573,W,2,10,1.2,9.430,M,-37.392,M,4.0,0135*66
$PYRTM,2024,122.834432924931,13.944080335069
$GNHDT,63.690,T*11
$PYRTM,2024,122.834438664641,13.944086074780
$GNGGA,200135.50,3400.08689148,N,11923.07927488,W,2,10,1.2,9.411,M,-37.392,M,4.4,0135*66
$PYRTM,2024,122.834438664641,13.944086074780
$GNHDT,63.574,T*18
$PYRTM,2024,122.834444503125,13.944091913264
$GNGGA,200136.00,3400.08744130,N,11923.07793714,W,2,10,1.2,9.376,M,-37.392,M,5.0,0135*6B
$PYRTM,2024,122.834444503125,13.944091913264
$GNHDT,63.488,T*1A
$PYRTM,2024,122.834450238067,13.944097648206
$GNGGA,200136.50,3400.08798221,N,11923.07656901,W,2,10,1.2,9.347,M,-37.392,M,5.4,0135*68
$PYRTM,2024,122.834450238067,13.944097648206
$GNHDT,63.408,T*12
$PYRTM,2024,122.834456078264,13.944103488403
$GNGGA,200137.00,3400.08852045,N,11923.07519023,W,2,10,1.2,9.286,M,-37.392,M,6.0,0135*6F
$PYRTM,2024,122.834456078264,13.944103488403
$GNHDT,63.392,T*16
$PYRTM,2024,122.834461817187,13.944109227326
$GNGGA,200137.50,3400.08906398,N,11923.07380408,W,2,10,1.2,9.237,M,-37.392,M,6.4,0135*6C
$PYRTM,2024,122.834461817187,13.944109227326
$GNHDT,63.559,T*17
$PYRTM,2024,122.834467647500,13.944115057639
$GNGGA,200138.00,3400.08960813,N,11923.07241444,W,2,10,1.2,9.198,M,-37.392,M,7.0,0135*69
$PYRTM,2024,122.834467647500,13.944115057639
$GNHDT,63.558,T*16
$PYRTM,2024,122.834473389826,13.944120799977
$GNGGA,200138.50,3400.09015677,N,11923.07102490,W,2,10,1.2,9.201,M,-37.392,M,7.4,0135*60
$PYRTM,2024,122.834473389826,13.944120799977
$GNHDT,63.362,T*19
$PYRTM,2024,122.834479224387,13.944126634537
$GNGGA,200139.00,3400.09070393,N,11923.06963484,W,2,10,1.2,9.217,M,-37.392,M,7.0,0135*60
$PYRTM,2024,122.834479224387,13.944126634537
$GNHDT,63.493,T*10
$PYRTM,2024,122.834484960035,13.944132370174
$GNGGA,200139.50,3400.09125636,N,11923.06825355,W,2,10,1.2,9.266,M,-37.392,M,7.4,0135*64
$PYRTM,2024,122.834484960035,13.944132370174
$GNHDT,63.564,T*19
$PYRTM,2024,122.834490801644,13.944138211782
$GNGGA,200140.00,3400.09180521,N,11923.06687551,W,2,10,1.2,9.313,M,-37.392,M,7.0,0135*66
$PYRTM,2024,122.834490801644,13.944138211782
$GNHDT,63.625,T*1F
$PYRTM,2024,122.834496535984,13.944143946123
$GNGGA,200140.50,3400.09235573,N,11923.06549991,W,2,10,1.2,9.382,M,-37.392,M,7.4,0135*64
$PYRTM,2024,122.834496535984,13.944143946123
$GNHDT,63.609,T*11
$PYRTM,2024,122.834502372847,13.944149782986
$GNGGA,200141.00,3400.09290320,N,11923.06412374,W,2,10,1.2,9.414,M,-37.392,M,4.0,0135*6E
$PYRTM,2024,122.834502372847,13.944149782986
$GNHDT,63.681,T*11
$PYRTM,2024,122.834508108368,13.944155518519
$GNGGA,200141.50,3400.09345992,N,11923.06275085,W,2,10,1.2,9.413,M,-37.392,M,4.4,0135*68
$PYRTM,2024,122.834508108368,13.944155518519
$GNHDT,63.680,T*10
$PYRTM,2024,122.834513945752,13.944161355891
$GNGGA,200142.00,3400.09401622,N,11923.06138219,W,2,10,1.2,9.362,M,-37.392,M,5.0,0135*64
$PYRTM,2024,122.834513945752,13.944161355891
$GNHDT,63.716,T*1E
$PYRTM,2024,122.834519683137,13.944167093275
$GNGGA,200142.50,3400.09456855,N,11923.06002347,W,2,10,1.2,9.306,M,-37.392,M,5.4,0135*69
$PYRTM,2024,122.834519683137,13.944167093275
$GNHDT,63.677,T*18
$PYRTM,2024,122.834525517975,13.944172928113
$GNGGA,200143.00,3400.09511260,N,11923.05867396,W,2,10,1.2,9.216,M,-37.392,M,6.0,0135*60
$PYRTM,2024,122.834525517975,13.944172928113
$GNHDT,63.741,T*1C
$PYRTM,2024,122.834531259931,13.944178670069
$GNGGA,200143.50,3400.09565366,N,11923.05732704,W,2,10,1.2,9.148,M,-37.392,M,6.4,0135*6D
$PYRTM,2024,122.834531259931,13.944178670069
$GNHDT,63.623,T*19
$PYRTM,2024,122.834537091262,13.944184501412
$GNGGA,200144.00,3400.09619021,N,11923.05598402,W,2,10,1.2,9.081,M,-37.392,M,7.0,0135*61
$PYRTM,2024,122.834537091262,13.944184501412
$GNHDT,63.884,T*1A
$PYRTM,2024,122.834542830995,13.944190241134
$GNGGA,200144.50,3400.09673412,N,11923.05464475,W,2,10,1.2,9.076,M,-37.392,M,7.4,0135*62
$PYRTM,2024,122.834542830995,13.944190241134
$GNHDT,63.880,T*1E
$PYRTM,2024,122.834548667940,13.944196078079
$GNGGA,200145.00,3400.09728126,N,11923.05331178,W,2,10,1.2,9.098,M,-37.392,M,7.0,0135*60
$PYRTM,2024,122.834548667940,13.944196078079
$GNHDT,64.102,T*1A
$PYRTM,2024,122.834554406389,13.944201816539
$GNGGA,200145.50,3400.09783411,N,11923.05197743,W,2,10,1.2,9.157,M,-37.392,M,7.4,0135*63
$PYRTM,2024,122.834554406389,13.944201816539
$GNHDT,63.933,T*17
$PYRTM,2024,122.834560239132,13.944207649271
$GNGGA,200146.00,3400.09838677,N,11923.05063481,W,2,10,1.2,9.191,M,-37.392,M,7.0,0135*61
$PYRTM,2024,122.834560239132,13.944207649271
$GNHDT,63.890,T*1F
$PYRTM,2024,122.834565985185,13.944213395324
$GNGGA,200146.50,3400.09894375,N,11923.04928264,W,2,10,1.2,9.205,M,-37.391,M,7.4,0135*66
$PYRTM,2024,122.834565985185,13.944213395324
$GNHDT,64.268,T*15
$PYRTM,2024,122.834571815995,13.944219226146
$GNGGA,200147.00,3400.09949431,N,11923.04791609,W,2,10,1.2,9.185,M,-37.391,M,4.0,0135*6B
$PYRTM,2024,122.834571815995,13.944219226146
$GNHDT,64.328,T*10
$PYRTM,2024,122.834577558646,13.944224968785
$GNGGA,200147.50,3400.10003532,N,11923.04653649,W,2,10,1.2,9.147,M,-37.391,M,4.4,0135*62
$PYRTM,2024,122.834577558646,13.944224968785
$GNHDT,64.187,T*17
$PYRTM,2024,122.834583389664,13.944230799803
$GNGGA,200148.00,3400.10056126,N,11923.04514827,W,2,10,1.2,9.097,M,-37.391,M,5.0,0135*66
$PYRTM,2024,122.834583389664,13.944230799803
$GNHDT,64.225,T*1C
$PYRTM,2024,122.834589126852,13.944236536991
$GNGGA,200148.50,3400.10108313,N,11923.04375499,W,2,10,1.2,9.048,M,-37.391,M,5.4,0135*63
$PYRTM,2024,122.834589126852,13.944236536991
$GNHDT,64.448,T*11
$PYRTM,2024,122.834594963808,13.944242373947
$GNGGA,200149.00,3400.10159929,N,11923.04235541,W,2,10,1.2,9.008,M,-37.391,M,6.0,0135*62
$PYRTM,2024,122.834594963808,13.944242373947
$GNHDT,64.447,T*1E
$PYRTM,2024,122.834600702928,13.944248113067
$GNGGA,200149.50,3400.10212424,N,11923.04095381,W,2,10,1.2,9.002,M,-37.391,M,6.4,0135*67
$PYRTM,2024,122.834600702928,13.944248113067
$GNHDT,64.474,T*1E
$PYRTM,2024,122.834606537674,13.944253947813
$GNGGA,200150.00,3400.10266291,N,11923.03955803,W,2,10,1.2,9.004,M,-37.391,M,7.0,0135*61
$PYRTM,2024,122.834606537674,13.944253947813
$GNHDT,64.363,T*1F
$PYRTM,2024,122.834612274907,13.944259685058
$GNGGA,200150.50,3400.10321726,N,11923.03817011,W,2,10,1.2,9.027,M,-37.391,M,7.4,0135*66
$PYRTM,2024,122.834612274907,13.944259685058
$GNHDT,64.288,T*1B
$PYRTM,2024,122.834618112963,13.944265523102
$GNGGA,200151.00,3400.10377893,N,11923.03679351,W,2,10,1.2,9.059,M,-37.391,M,7.0,0135*6C
$PYRTM,2024,122.834618112963,13.944265523102
$GNHDT,64.329,T*11
$PYRTM,2024,122.834623854375,13.944271264514
$GNGGA,200151.50,3400.10434531,N,11923.03541797,W,2,10,1.2,9.103,M,-37.391,M,7.4,0135*60
$PYRTM,2024,122.834623854375,13.944271264514
$GNHDT,63.963,T*12
$PYRTM,2024,122.834629683646,13.944277093785
$GNGGA,200152.00,3400.10490631,N,11923.03404269,W,2,10,1.2,9.118,M,-37.391,M,7.0,0135*61
$PYRTM,2024,122.834629683646,13.944277093785
$GNHDT,63.949,T*1A
$PYRTM,2024,122.834635431273,13.944282841412
$GNGGA,200152.50,3400.10546093,N,11923.03266856,W,2,10,1.2,9.124,M,-37.391,M,7.4,0135*6F
$PYRTM,2024,122.834635431273,13.944282841412
$GNHDT,63.789,T*18
$PYRTM,2024,122.834641264236,13.944288674375
$GNGGA,200153.00,3400.10600226,N,11923.03129694,W,2,10,1.2,9.113,M,-37.391,M,4.0,0135*6D
$PYRTM,2024,122.834641264236,13.944288674375
$GNHDT,63.868,T*18
$PYRTM,2024,122.834646998530,13.944294408669
$GNGGA,200153.50,3400.10653090,N,11923.02992680,W,2,10,1.2,9.090,M,-37.391,M,4.4,0135*63
$PYRTM,2024,122.834646998530,13.944294408669
$GNHDT,63.762,T*1D
$PYRTM,2024,122.834652836389,13.944300246539
$GNGGA,200154.00,3400.10704933,N,11923.02855414,W,2,10,1.2,9.063,M,-37.391,M,5.0,0135*6E
$PYRTM,2024,122.834652836389,13.944300246539
$GNHDT,63.607,T*1F
$PYRTM,2024,122.834658571667,13.944305981806
$GNGGA,200154.50,3400.10755775,N,11923.02717474,W,2,10,1.2,9.030,M,-37.391,M,5.4,0135*6E
$PYRTM,2024,122.834658571667,13.944305981806
$GNHDT,63.583,T*10
$PYRTM,2024,122.834664409850,13.944311819988
$GNGGA,200155.00,3400.10806189,N,11923.02578965,W,2,10,1.2,8.985,M,-37.391,M,6.0,0135*61
$PYRTM,2024,122.834664409850,13.944311819988
$GNHDT,63.467,T*1B
$PYRTM,2024,122.834670146273,13.944317556412
$GNGGA,200155.50,3400.10857518,N,11923.02440929,W,2,10,1.2,8.965,M,-37.391,M,6.4,0135*64
$PYRTM,2024,122.834670146273,13.944317556412
$GNHDT,63.348,T*11
$PYRTM,2024,122.834675980417,13.944323390556
$GNGGA,200156.00,3400.10910407,N,11923.02303729,W,2,10,1.2,8.966,M,-37.391,M,7.0,0135*67
$PYRTM,2024,122.834675980417,13.944323390556
$GNHDT,63.596,T*14
$PYRTM,2024,122.834681722014,13.944329132153
$GNGGA,200156.50,3400.10964911,N,11923.02167598,W,2,10,1.2,9.000,M,-37.391,M,7.4,0135*6F
$PYRTM,2024,122.834681722014,13.944329132153
$GNHDT,63.736,T*1C
$PYRTM,2024,122.834687557604,13.944334967743
$GNGGA,200157.00,3400.11020016,N,11923.02032101,W,2,10,1.2,9.067,M,-37.391,M,7.0,0135*6D
$PYRTM,2024,122.834687557604,13.944334967743
$GNHDT,63.883,T*1D
$PYRTM,2024,122.834693294850,13.944340704988
$GNGGA,200157.50,3400.11075854,N,11923.01897146,W,2,10,1.2,9.138,M,-37.391,M,7.4,0135*6E
$PYRTM,2024,122.834693294850,13.944340704988
$GNHDT,64.119,T*10
$PYRTM,2024,122.834699130185,13.944346540324
$GNGGA,200158.00,3400.11131668,N,11923.01761855,W,2,10,1.2,9.207,M,-37.391,M,7.0,0135*62
$PYRTM,2024,122.834699130185,13.944346540324
$GNHDT,64.060,T*1F
$PYRTM,2024,122.834704872049,13.944352282188
$GNGGA,200158.50,3400.11186598,N,11923.01625843,W,2,10,1.2,9.229,M,-37.391,M,7.4,0135*69
$PYRTM,2024,122.834704872049,13.944352282188
$GNHDT,64.027,T*1C
$PYRTM,2024,122.834710706238,13.944358116377
$GNGGA,200159.00,3400.11239745,N,11923.01488251,W,2,10,1.2,9.205,M,-37.390,M,4.0,0135*6C
$PYRTM,2024,122.834710706238,13.944358116377
$GNHDT,64.143,T*1F
$PYRTM,2024,122.834716443762,13.944363853912
$GNGGA,200159.50,3400.11291993,N,11923.01349627,W,2,10,1.2,9.125,M,-37.390,M,4.4,0135*64
$PYRTM,2024,122.834716443762,13.944363853912
$GNHDT,64.013,T*1B
$PYRTM,2024,122.834722281065,13.944369691204
$GNGGA,200200.00,3400.11343007,N,11923.01210601,W,2,10,1.2,9.014,M,-37.390,M,5.0,0135*6B
$PYRTM,2024,122.834722281065,13.944369691204
$GNHDT,63.757,T*1B
$PYRTM,2024,122.834728018079,13.944375428218
$GNGGA,200200.50,3400.11394311,N,11923.01072210,W,2,10,1.2,8.899,M,-37.390,M,5.4,0135*6A
$PYRTM,2024,122.834728018079,13.944375428218
$GNHDT,63.706,T*1F
$PYRTM,2024,122.834733853125,13.944381263264
$GNGGA,200201.00,3400.11446180,N,11923.00934679,W,2,10,1.2,8.815,M,-37.390,M,6.0,0135*6E
$PYRTM,2024,122.834733853125,13.944381263264
$GNHDT,63.542,T*1D
$PYRTM,2024,122.834739589988,13.944387000127
$GNGGA,200201.50,3400.11498725,N,11923.00797732,W,2,10,1.2,8.765,M,-37.390,M,6.4,0135*64
$PYRTM,2024,122.834739589988,13.944387000127
$GNHDT,63.482,T*10
$PYRTM,2024,122.834745425937,13.944392836076
$GNGGA,200202.00,3400.11551639,N,11923.00661430,W,2,10,1.2,8.794,M,-37.390,M,7.0,0135*68
$PYRTM,2024,122.834745425937,13.944392836076
$GNHDT,63.334,T*1A
$PYRTM,2024,122.834751164838,13.944398574977
$GNGGA,200202.50,3400.11605964,N,11923.00525964,W,2,10,1.2,8.866,M,-37.390,M,7.4,0135*61
$PYRTM,2024,122.834751164838,13.944398574977
$GNHDT,63.611,T*18
$PYRTM,2024,122.834757001157,13.944404411296
$GNGGA,200203.00,3400.11660198,N,11923.00390413,W,2,10,1.2,8.974,M,-37.390,M,7.0,0135*6E
$PYRTM,2024,122.834757001157,13.944404411296
$GNHDT,63.496,T*15
$PYRTM,2024,122.834762740359,13.944410150498
$GNGGA,200203.50,3400.11714570,N,11923.00254441,W,2,10,1.2,9.089,M,-37.390,M,7.4,0135*6B
$PYRTM,2024,122.834762740359,13.944410150498
$GNHDT,63.255,T*1C
$PYRTM,2024,122.834768575556,13.944415985694
$GNGGA,200204.00,3400.11767933,N,11923.00117756,W,2,10,1.2,9.181,M,-37.390,M,7.0,0135*6A
$PYRTM,2024,122.834768575556,13.944415985694
$GNHDT,63.132,T*1E
$PYRTM,2024,122.834774315683,13.944421725822
$GNGGA,200204.50,3400.11820143,N,11922.99980418,W,2,10,1.2,9.237,M,-37.390,M,7.4,0135*68
$PYRTM,2024,122.834774315683,13.944421725822
$GNHDT,63.241,T*19
$PYRTM,2024,122.834780148206,13.944427558345
$GNGGA,200205.00,3400.11870643,N,11922.99841761,W,2,10,1.2,9.257,M,-37.390,M,4.0,0135*6E
$PYRTM,2024,122.834780148206,13.944427558345
$GNHDT,63.423,T*1B
$PYRTM,2024,122.834785885741,13.944433295880
$GNGGA,200205.50,3400.11921016,N,11922.99702811,W,2,10,1.2,9.255,M,-37.390,M,4.4,0135*6E
$PYRTM,2024,122.834785885741,13.944433295880
$GNHDT,63.358,T*10
$PYRTM,2024,122.834791724525,13.944439134676
$GNGGA,200206.00,3400.11971292,N,11922.99564041,W,2,10,1.2,9.247,M,-37.390,M,5.0,0135*6A
$PYRTM,2024,122.834791724525,13.944439134676
$GNHDT,63.314,T*18
$PYRTM,2024,122.834797462037,13.944444872176
$GNGGA,200206.50,3400.12023265,N,11922.99426707,W,2,10,1.2,9.241,M,-37.390,M,5.4,0135*6A
$PYRTM,2024,122.834797462037,13.944444872176
$GNHDT,63.398,T*1C
$PYRTM,2024,122.834803300289,13.944450710428
$GNGGA,200207.00,3400.12076210,N,11922.99290336,W,2,10,1.2,9.250,M,-37.390,M,6.0,0135*66
$PYRTM,2024,122.834803300289,13.944450710428
$GNHDT,63.417,T*1C
$PYRTM,2024,122.834809034572,13.944456444711
$GNGGA,200207.50,3400.12131106,N,11922.99154549,W,2,10,1.2,9.275,M,-37.390,M,6.4,0135*63
$PYRTM,2024,122.834809034572,13.944456444711
$GNHDT,63.512,T*18
$PYRTM,2024,122.834814870845,13.944462280984
$GNGGA,200208.00,3400.12187863,N,11922.99019475,W,2,10,1.2,9.305,M,-37.390,M,7.0,0135*6B
$PYRTM,2024,122.834814870845,13.944462280984
$GNHDT,63.713,T*1B
$PYRTM,2024,122.834820611516,13.944468021655
$GNGGA,200208.50,3400.12245419,N,11922.98884549,W,2,10,1.2,9.348,M,-37.390,M,7.4,0135*6C
$PYRTM,2024,122.834820611516,13.944468021655
$GNHDT,63.589,T*1A
$PYRTM,2024,122.834826443171,13.944473853310
$GNGGA,200209.00,3400.12302673,N,11922.98749208,W,2,10,1.2,9.362,M,-37.390,M,7.0,0135*64
$PYRTM,2024,122.834826443171,13.944473853310
$GNHDT,63.739,T*13
$PYRTM,2024,122.834832185127,13.944479595266
$GNGGA,200209.50,3400.12358972,N,11922.98612812,W,2,10,1.2,9.362,M,-37.390,M,7.4,0135*6A
$PYRTM,2024,122.834832185127,13.944479595266
$GNHDT,63.743,T*1E
$PYRTM,2024,122.834838018831,13.944485428981
$GNGGA,200210.00,3400.12414006,N,11922.98475419,W,2,10,1.2,9.319,M,-37.390,M,7.0,0135*6E
$PYRTM,2024,122.834838018831,13.944485428981
$GNHDT,63.541,T*1E
$PYRTM,2024,122.834843758565,13.944491168704
$GNGGA,200210.50,3400.12468761,N,11922.98337375,W,2,10,1.2,9.261,M,-37.390,M,7.4,0135*60
$PYRTM,2024,122.834843758565,13.944491168704
$GNHDT,63.464,T*18
$PYRTM,2024,122.834849593854,13.944497003993
$GNGGA,200211.00,3400.12522963,N,11922.98199218,W,2,10,1.2,9.193,M,-37.390,M,4.0,0135*62
$PYRTM,2024,122.834849593854,13.944497003993
$GNHDT,63.443,T*1D
$PYRTM,2024,122.834855331192,13.944502741343
$GNGGA,200211.50,3400.12576767,N,11922.98061312,W,2,10,1.2,9.136,M,-37.390,M,4.4,0135*6A
$PYRTM,2024,122.834855331192,13.944502741343
$GNHDT,63.344,T*1D
$PYRTM,2024,122.834861166470,13.944508576609
$GNGGA,200212.00,3400.12630957,N,11922.97924403,W,2,10,1.2,9.088,M,-37.389,M,5.0,0135*69
$PYRTM,2024,122.834861166470,13.944508576609
$GNHDT,63.219,T*14
$PYRTM,2024,122.834866907002,13.944514317141
$GNGGA,200212.50,3400.12685168,N,11922.97787740,W,2,10,1.2,9.063,M,-37.389,M,5.4,0135*64
$PYRTM,2024,122.834866907002,13.944514317141
$GNHDT,63.058,T*13
$PYRTM,2024,122.834872741134,13.944520151273
$GNGGA,200213.00,3400.12739045,N,11922.97650906,W,2,10,1.2,9.025,M,-37.389,M,6.0,0135*6A
$PYRTM,2024,122.834872741134,13.944520151273
$GNHDT,63.004,T*1A
$PYRTM,2024,122.834878479039,13.944525889178
$GNGGA,200213.50,3400.12792855,N,11922.97512694,W,2,10,1.2,8.977,M,-37.389,M,6.4,0135*6D
$PYRTM,2024,122.834878479039,13.944525889178
$GNHDT,63.087,T*11
$PYRTM,2024,122.834884316424,13.944531726562
$GNGGA,200214.00,3400.12846900,N,11922.97374818,W,2,10,1.2,8.883,M,-37.389,M,7.0,0135*6B
$PYRTM,2024,122.834884316424,13.944531726562
$GNHDT,63.083,T*15
$PYRTM,2024,122.834890062650,13.944537472801
$GNGGA,200214.50,3400.12901176,N,11922.97236519,W,2,10,1.2,8.789,M,-37.389,M,7.4,0135*6F
$PYRTM,2024,122.834890062650,13.944537472801
$GNHDT,62.912,T*15
$PYRTM,2024,122.834895888750,13.944543298889
$GNGGA,200215.00,3400.12954039,N,11922.97098977,W,2,10,1.2,8.704,M,-37.389,M,7.0,0135*62
$PYRTM,2024,122.834895888750,13.944543298889
$GNHDT,62.895,T*1B
$PYRTM,2024,122.834901631736,13.944549041875
$GNGGA,200215.50,3400.13006411,N,11922.96962328,W,2,10,1.2,8.671,M,-37.389,M,7.4,0135*6C
$PYRTM,2024,122.834901631736,13.944549041875
$GNHDT,63.044,T*1E
$PYRTM,2024,122.834907464468,13.944554874606
$GNGGA,200216.00,3400.13058103,N,11922.96827064,W,2,10,1.2,8.678,M,-37.389,M,7.0,0135*61
$PYRTM,2024,122.834907464468,13.944554874606
$GNHDT,62.749,T*15
$PYRTM,2024,122.834913205116,13.944560615255
$GNGGA,200216.50,3400.13110450,N,11922.96692729,W,2,10,1.2,8.736,M,-37.389,M,7.4,0135*6B
$PYRTM,2024,122.834913205116,13.944560615255
$GNHDT,62.929,T*1D
$PYRTM,2024,122.834919041424,13.944566451563
$GNGGA,200217.00,3400.13162926,N,11922.96558621,W,2,10,1.2,8.787,M,-37.389,M,4.0,0135*67
$PYRTM,2024,122.834919041424,13.944566451563
$GNHDT,62.808,T*1F
$PYRTM,2024,122.834924784039,13.944572194178
$GNGGA,200217.50,3400.13215738,N,11922.96423366,W,2,10,1.2,8.820,M,-37.389,M,4.4,0135*6D
$PYRTM,2024,122.834924784039,13.944572194178
$GNHDT,62.881,T*1E
$PYRTM,2024,122.834930614109,13.944578024248
$GNGGA,200218.00,3400.13267877,N,11922.96287819,W,2,10,1.2,8.798,M,-37.389,M,5.0,0135*64
$PYRTM,2024,122.834930614109,13.944578024248
$GNHDT,62.571,T*1C
$PYRTM,2024,122.834936351840,13.944583761979
$GNGGA,200218.50,3400.13319886,N,11922.96152242,W,2,10,1.2,8.759,M,-37.389,M,5.4,0135*61
$PYRTM,2024,122.834936351840,13.944583761979
$GNHDT,62.717,T*1E
$PYRTM,2024,122.834942184769,13.944589594919
$GNGGA,200219.00,3400.13371649,N,11922.96017105,W,2,10,1.2,8.710,M,-37.389,M,6.0,0135*6C
$PYRTM,2024,122.834942184769,13.944589594919
$GNHDT,62.554,T*1B
$PYRTM,2024,122.834947934317,13.944595344468
$GNGGA,200219.50,3400.13423775,N,11922.95882175,W,2,10,1.2,8.693,M,-37.389,M,6.4,0135*69
$PYRTM,2024,122.834947934317,13.944595344468
$GNHDT,62.524,T*1C
$PYRTM,2024,122.834953761435,13.944601171574
$GNGGA,200220.00,3400.13476999,N,11922.95748412,W,2,10,1.2,8.725,M,-37.389,M,7.0,0135*6E
$PYRTM,2024,122.834953761435,13.944601171574
$GNHDT,62.446,T*19
$PYRTM,2024,122.834959500324,13.944606910463
$GNGGA,200220.50,3400.13531821,N,11922.95614603,W,2,10,1.2,8.798,M,-37.389,M,7.4,0135*63
$PYRTM,2024,122.834959500324,13.944606910463
$GNHDT,62.679,T*17
$PYRTM,2024,122.834965334711,13.944612744850
$GNGGA,200221.00,3400.13587414,N,11922.95480394,W,2,10,1.2,8.870,M,-37.389,M,7.0,0135*69
$PYRTM,2024,122.834965334711,13.944612744850
$GNHDT,62.563,T*1F
$PYRTM,2024,122.834971073808,13.944618483947
$GNGGA,200221.50,3400.13643588,N,11922.95344801,W,2,10,1.2,8.947,M,-37.389,M,7.4,0135*6A
$PYRTM,2024,122.834971073808,13.944618483947
$GNHDT,62.769,T*17
$PYRTM,2024,122.834976906771,13.944624316921
$GNGGA,200222.00,3400.13699125,N,11922.95208206,W,2,10,1.2,8.973,M,-37.389,M,7.0,0135*6F
$PYRTM,2024,122.834976906771,13.944624316921
$GNHDT,63.006,T*18
$PYRTM,2024,122.834982644873,13.944630055012
$GNGGA,200222.50,3400.13755191,N,11922.95071109,W,2,10,1.2,8.989,M,-37.389,M,7.4,0135*65
$PYRTM,2024,122.834982644873,13.944630055012
$GNHDT,63.056,T*1D
$PYRTM,2024,122.834988482442,13.944635892581
$GNGGA,200223.00,3400.13810551,N,11922.94933725,W,2,10,1.2,8.985,M,-37.389,M,4.0,0135*6A
$PYRTM,2024,122.834988482442,13.944635892581
$GNHDT,62.927,T*13
$PYRTM,2024,122.834994220255,13.944641630405
$GNGGA,200223.50,3400.13866053,N,11922.94796185,W,2,10,1.2,8.963,M,-37.389,M,4.4,0135*68
$PYRTM,2024,122.834994220255,13.944641630405
$GNHDT,63.064,T*1C
$PYRTM,2024,122.835000059826,13.944647469965
$GNGGA,200224.00,3400.13921735,N,11922.94658523,W,2,10,1.2,8.917,M,-37.389,M,5.0,0135*62
$PYRTM,2024,122.835000059826,13.944647469965
$GNHDT,63.042,T*18
$PYRTM,2024,122.835005796632,13.944653206771
$GNGGA,200224.50,3400.13978013,N,11922.94521482,W,2,10,1.2,8.869,M,-37.388,M,5.4,0135*62
$PYRTM,2024,122.835005796632,13.944653206771
$GNHDT,62.975,T*14
$PYRTM,2024,122.835011629780,13.944659039919
$GNGGA,200225.00,3400.14033801,N,11922.94384694,W,2,10,1.2,8.808,M,-37.388,M,6.0,0135*60
$PYRTM,2024,122.835011629780,13.944659039919
$GNHDT,62.915,T*12
$PYRTM,2024,122.835017369606,13.944664779745
$GNGGA,200225.50,3400.14089753,N,11922.94247882,W,2,10,1.2,8.746,M,-37.388,M,6.4,0135*6A
$PYRTM,2024,122.835017369606,13.944664779745
$GNHDT,63.184,T*13
$PYRTM,2024,122.835023205174,13.944670615312
$GNGGA,200226.00,3400.14145448,N,11922.94111502,W,2,10,1.2,8.687,M,-37.388,M,7.0,0135*68
$PYRTM,2024,122.835023205174,13.944670615312
$GNHDT,63.148,T*13
$PYRTM,2024,122.835028941424,13.944676351562
$GNGGA,200226.50,3400.14201299,N,11922.93975683,W,2,10,1.2,8.658,M,-37.388,M,7.4,0135*65
$PYRTM,2024,122.835028941424,13.944676351562
$GNHDT,62.949,T*1B
$PYRTM,2024,122.835034780301,13.944682190440
$GNGGA,200227.00,3400.14256393,N,11922.93840077,W,2,10,1.2,8.637,M,-37.388,M,7.0,0135*6F
$PYRTM,2024,122.835034780301,13.944682190440
$GNHDT,63.186,T*11
$PYRTM,2024,122.835040517766,13.944687927905
$GNGGA,200227.50,3400.14310281,N,11922.93704300,W,2,10,1.2,8.624,M,-37.388,M,7.4,0135*61
$PYRTM,2024,122.835040517766,13.944687927905
$GNHDT,63.243,T*1B
$PYRTM,2024,122.835046351319,13.944693761458
$GNGGA,200228.00,3400.14362623,N,11922.93568568,W,2,10,1.2,8.609,M,-37.388,M,7.0,0135*69
$PYRTM,2024,122.835046351319,13.944693761458
$GNHDT,63.189,T*1E
$PYRTM,2024,122.835052089491,13.944699499630
$GNGGA,200228.50,3400.14413292,N,11922.93433240,W,2,10,1.2,8.587,M,-37.388,M,7.4,0135*60
$PYRTM,2024,122.835052089491,13.944699499630
$GNHDT,63.513,T*19
$PYRTM,2024,122.835057929097,13.944705339236
$GNGGA,200229.00,3400.14462200,N,11922.93297820,W,2,10,1.2,8.555,M,-37.388,M,4.0,0135*65
$PYRTM,2024,122.835057929097,13.944705339236
$GNHDT,63.439,T*10
$PYRTM,2024,122.835063668044,13.944711078194
$GNGGA,200229.50,3400.14509630,N,11922.93162199,W,2,10,1.2,8.512,M,-37.388,M,4.4,0135*6E
