$PYRTM,2024,122.666666813785,13.776314223924
$GNGGA,160000.00,3350.89665268,N,12002.64591517,W,2,13,0.8,6.888,M,-37.363,M,5.0,0135*63
$PYRTM,2024,122.666666813785,13.776314223924
$GNHDT,71.923,T*15
$PYRTM,2024,122.666672544352,13.776319954491
$GNGGA,160000.50,3350.89705963,N,12002.64466916,W,2,13,0.8,6.970,M,-37.363,M,5.4,0135*67
$PYRTM,2024,122.666672544352,13.776319954491
$GNHDT,72.023,T*1F
$PYRTM,2024,122.666678385567,13.776325795706
$GNGGA,160001.00,3350.89746498,N,12002.64341035,W,2,13,0.8,7.106,M,-37.363,M,6.0,0135*68
$PYRTM,2024,122.666678385567,13.776325795706
$GNHDT,71.994,T*19
$PYRTM,2024,122.666684116424,13.776331526574
$GNGGA,160001.50,3350.89788495,N,12002.64213459,W,2,13,0.8,7.235,M,-37.363,M,6.4,0135*6D
$PYRTM,2024,122.666684116424,13.776331526574
$GNHDT,71.575,T*1A
$PYRTM,2024,122.666689957512,13.776337367650
$GNGGA,160002.00,3350.89830736,N,12002.64081928,W,2,13,0.8,7.365,M,-37.363,M,7.0,0135*6E
$PYRTM,2024,122.666689957512,13.776337367650
$GNHDT,71.352,T*19
$PYRTM,2024,122.666695701215,13.776343111354
$GNGGA,160002.50,3350.89873322,N,12002.63948997,W,2,13,0.8,7.464,M,-37.363,M,7.4,0135*60
$PYRTM,2024,122.666695701215,13.776343111354
$GNHDT,71.130,T*1F
$PYRTM,2024,122.666701531678,13.776348941817
$GNGGA,160003.00,3350.89915004,N,12002.63813986,W,2,13,0.8,7.504,M,-37.363,M,7.0,0135*6E
$PYRTM,2024,122.666701531678,13.776348941817
$GNHDT,70.804,T*10
$PYRTM,2024,122.666707264039,13.776354674178
$GNGGA,160003.50,3350.89955078,N,12002.63678684,W,2,13,0.8,7.521,M,-37.363,M,7.4,0135*69
$PYRTM,2024,122.666707264039,13.776354674178
$GNHDT,70.430,T*1B
$PYRTM,2024,122.666713108542,13.776360518681
$GNGGA,160004.00,3350.89993505,N,12002.63543483,W,2,13,0.8,7.510,M,-37.363,M,7.0,0135*66
$PYRTM,2024,122.666713108542,13.776360518681
$GNHDT,70.225,T*19
$PYRTM,2024,122.666718836262,13.776366246400
$GNGGA,160004.50,3350.90030722,N,12002.63409671,W,2,13,0.8,7.482,M,-37.363,M,7.4,0135*62
$PYRTM,2024,122.666718836262,13.776366246400
$GNHDT,70.048,T*10
$PYRTM,2024,122.666724679491,13.776372089630
$GNGGA,160005.00,3350.90067236,N,12002.63277704,W,2,13,0.8,7.444,M,-37.363,M,4.0,0135*65
$PYRTM,2024,122.666724679491,13.776372089630
$GNHDT,70.018,T*15
$PYRTM,2024,122.666730412326,13.776377822465
$GNGGA,160005.50,3350.90105025,N,12002.63147608,W,2,13,0.8,7.418,M,-37.363,M,4.4,0135*65
$PYRTM,2024,122.666730412326,13.776377822465
$GNHDT,69.907,T*1A
$PYRTM,2024,122.666736254259,13.776383664398
$GNGGA,160006.00,3350.90141343,N,12002.63019306,W,2,13,0.8,7.365,M,-37.363,M,5.0,0135*69
$PYRTM,2024,122.666736254259,13.776383664398
$GNHDT,69.985,T*10
$PYRTM,2024,122.666741988160,13.776389398299
$GNGGA,160006.50,3350.90179395,N,12002.62892590,W,2,13,0.8,7.306,M,-37.363,M,5.4,0135*6E
$PYRTM,2024,122.666741988160,13.776389398299
$GNHDT,69.933,T*1D
$PYRTM,2024,122.666747827604,13.776395237743
$GNGGA,160007.00,3350.90217763,N,12002.62767638,W,2,13,0.8,7.221,M,-37.363,M,6.0,0135*6B
$PYRTM,2024,122.666747827604,13.776395237743
$GNHDT,69.816,T*1B
$PYRTM,2024,122.666753560000,13.776400970139
$GNGGA,160007.50,3350.90256534,N,12002.62643925,W,2,13,0.8,7.137,M,-37.363,M,6.4,0135*6F
$PYRTM,2024,122.666753560000,13.776400970139
$GNHDT,69.881,T*15
$PYRTM,2024,122.666759406898,13.776406817037
$GNGGA,160008.00,3350.90294985,N,12002.62521634,W,2,13,0.8,7.083,M,-37.363,M,7.0,0135*6E
$PYRTM,2024,122.666759406898,13.776406817037
$GNHDT,69.837,T*18
$PYRTM,2024,122.666765136331,13.776412546470
$GNGGA,160008.50,3350.90334090,N,12002.62399943,W,2,13,0.8,7.064,M,-37.363,M,7.4,0135*6A
$PYRTM,2024,122.666765136331,13.776412546470
$GNHDT,69.838,T*17
$PYRTM,2024,122.666770978495,13.776418388634
$GNGGA,160009.00,3350.90372936,N,12002.62278767,W,2,13,0.8,7.073,M,-37.363,M,7.0,0135*6D
$PYRTM,2024,122.666770978495,13.776418388634
$GNHDT,69.844,T*1C
$PYRTM,2024,122.666776708484,13.776424118623
$GNGGA,160009.50,3350.90411575,N,12002.62156828,W,2,13,0.8,7.109,M,-37.363,M,7.4,0135*62
$PYRTM,2024,122.666776708484,13.776424118623
$GNHDT,69.741,T*16
$PYRTM,2024,122.666782551319,13.776429961458
$GNGGA,160010.00,3350.90450671,N,12002.62034007,W,2,13,0.8,7.155,M,-37.363,M,7.0,0135*60
$PYRTM,2024,122.666782551319,13.776429961458
$GNHDT,69.780,T*1B
$PYRTM,2024,122.666788283507,13.776435693646
$GNGGA,160010.50,3350.90489551,N,12002.61910287,W,2,13,0.8,7.210,M,-37.363,M,7.4,0135*60
$PYRTM,2024,122.666788283507,13.776435693646
$GNHDT,69.829,T*17
$PYRTM,2024,122.666794122523,13.776441532674
$GNGGA,160011.00,3350.90529250,N,12002.61785793,W,2,13,0.8,7.261,M,-37.363,M,4.0,0135*6A
$PYRTM,2024,122.666794122523,13.776441532674
$GNHDT,69.892,T*17
$PYRTM,2024,122.666799860532,13.776447270671
$GNGGA,160011.50,3350.90569777,N,12002.61660502,W,2,13,0.8,7.321,M,-37.363,M,4.4,0135*6A
$PYRTM,2024,122.666799860532,13.776447270671
$GNHDT,70.065,T*1F
$PYRTM,2024,122.666805696991,13.776453107130
$GNGGA,160012.00,3350.90610854,N,12002.61534233,W,2,13,0.8,7.372,M,-37.363,M,5.0,0135*6B
$PYRTM,2024,122.666805696991,13.776453107130
$GNHDT,70.254,T*1F
$PYRTM,2024,122.666811429919,13.776458840058
$GNGGA,160012.50,3350.90651711,N,12002.61406371,W,2,13,0.8,7.407,M,-37.363,M,5.4,0135*63
$PYRTM,2024,122.666811429919,13.776458840058
$GNHDT,70.206,T*18
$PYRTM,2024,122.666817271944,13.776464682083
$GNGGA,160013.00,3350.90692616,N,12002.61276999,W,2,13,0.8,7.430,M,-37.363,M,6.0,0135*60
$PYRTM,2024,122.666817271944,13.776464682083
$GNHDT,70.256,T*1D
$PYRTM,2024,122.666823004757,13.776470414907
$GNGGA,160013.50,3350.90733693,N,12002.61146132,W,2,13,0.8,7.431,M,-37.363,M,6.4,0135*6E
$PYRTM,2024,122.666823004757,13.776470414907
$GNHDT,70.357,T*1D
$PYRTM,2024,122.666828849132,13.776476259271
$GNGGA,160014.00,3350.90776253,N,12002.61014505,W,2,13,0.8,7.460,M,-37.363,M,7.0,0135*62
$PYRTM,2024,122.666828849132,13.776476259271
$GNHDT,70.213,T*1C
$PYRTM,2024,122.666834578009,13.776481988148
$GNGGA,160014.50,3350.90818598,N,12002.60882939,W,2,13,0.8,7.515,M,-37.363,M,7.4,0135*62
$PYRTM,2024,122.666834578009,13.776481988148
$GNHDT,69.820,T*1E
$PYRTM,2024,122.666840423866,13.776487834005
$GNGGA,160015.00,3350.90862086,N,12002.60751350,W,2,13,0.8,7.575,M,-37.363,M,7.0,0135*67
$PYRTM,2024,122.666840423866,13.776487834005
$GNHDT,69.504,T*15
$PYRTM,2024,122.666846155903,13.776493566042
$GNGGA,160015.50,3350.90907018,N,12002.60619504,W,2,13,0.8,7.647,M,-37.363,M,7.4,0135*6B
$PYRTM,2024,122.666846155903,13.776493566042
$GNHDT,69.092,T*1F
$PYRTM,2024,122.666851995266,13.776499405405
$GNGGA,160016.00,3350.90952515,N,12002.60486873,W,2,13,0.8,7.689,M,-37.363,M,7.0,0135*6A
$PYRTM,2024,122.666851995266,13.776499405405
$GNHDT,68.693,T*19
$PYRTM,2024,122.666857727523,13.776505137662
$GNGGA,160016.50,3350.90997315,N,12002.60352841,W,2,13,0.8,7.671,M,-37.363,M,7.4,0135*6C
$PYRTM,2024,122.666857727523,13.776505137662
$GNHDT,68.274,T*14
$PYRTM,2024,122.666863569711,13.776510979850
$GNGGA,160017.00,3350.91040139,N,12002.60218273,W,2,13,0.8,7.584,M,-37.363,M,4.0,0135*6C
$PYRTM,2024,122.666863569711,13.776510979850
$GNHDT,67.848,T*1E
$PYRTM,2024,122.666869307535,13.776516717674
$GNGGA,160017.50,3350.91081060,N,12002.60084918,W,2,13,0.8,7.462,M,-37.363,M,4.4,0135*65
$PYRTM,2024,122.666869307535,13.776516717674
$GNHDT,67.827,T*17
$PYRTM,2024,122.666875142650,13.776522552789
$GNGGA,160018.00,3350.91119589,N,12002.59953485,W,2,13,0.8,7.337,M,-37.363,M,5.0,0135*6F
$PYRTM,2024,122.666875142650,13.776522552789
$GNHDT,67.829,T*19
$PYRTM,2024,122.666880873889,13.776528284028
$GNGGA,160018.50,3350.91156742,N,12002.59824221,W,2,13,0.8,7.234,M,-37.363,M,5.4,0135*6B
$PYRTM,2024,122.666880873889,13.776528284028
$GNHDT,67.797,T*13
$PYRTM,2024,122.666886721377,13.776534131516
$GNGGA,160019.00,3350.91192732,N,12002.59697381,W,2,13,0.8,7.144,M,-37.363,M,6.0,0135*6E
$PYRTM,2024,122.666886721377,13.776534131516
$GNHDT,68.147,T*17
$PYRTM,2024,122.666892448958,13.776539859097
$GNGGA,160019.50,3350.91228630,N,12002.59572133,W,2,13,0.8,7.081,M,-37.363,M,6.4,0135*65
$PYRTM,2024,122.666892448958,13.776539859097
$GNHDT,68.533,T*10
$PYRTM,2024,122.666898294144,13.776545704282
$GNGGA,160020.00,3350.91264540,N,12002.59448410,W,2,13,0.8,7.016,M,-37.363,M,7.0,0135*61
$PYRTM,2024,122.666898294144,13.776545704282
$GNHDT,69.168,T*1B
$PYRTM,2024,122.666904022164,13.776551432315
$GNGGA,160020.50,3350.91302246,N,12002.59326526,W,2,13,0.8,6.973,M,-37.363,M,7.4,0135*60
$PYRTM,2024,122.666904022164,13.776551432315
$GNHDT,69.529,T*1A
$PYRTM,2024,122.666909865984,13.776557276123
$GNGGA,160021.00,3350.91342617,N,12002.59205925,W,2,13,0.8,6.928,M,-37.363,M,7.0,0135*65
$PYRTM,2024,122.666909865984,13.776557276123
$GNHDT,69.858,T*11
$PYRTM,2024,122.666915597049,13.776563007199
$GNGGA,160021.50,3350.91385339,N,12002.59085477,W,2,13,0.8,6.921,M,-37.363,M,7.4,0135*6F
$PYRTM,2024,122.666915597049,13.776563007199
$GNHDT,70.307,T*18
$PYRTM,2024,122.666921439711,13.776568849850
$GNGGA,160022.00,3350.91429561,N,12002.58964282,W,2,13,0.8,6.953,M,-37.363,M,7.0,0135*69
$PYRTM,2024,122.666921439711,13.776568849850
$GNHDT,70.541,T*1C
$PYRTM,2024,122.666927175185,13.776574585324
$GNGGA,160022.50,3350.91474635,N,12002.58841910,W,2,13,0.8,7.017,M,-37.363,M,7.4,0135*6C
$PYRTM,2024,122.666927175185,13.776574585324
$GNHDT,70.182,T*17
$PYRTM,2024,122.666933019410,13.776580429560
$GNGGA,160023.00,3350.91519788,N,12002.58718262,W,2,13,0.8,7.126,M,-37.363,M,4.0,0135*6C
$PYRTM,2024,122.666933019410,13.776580429560
$GNHDT,69.842,T*1A
$PYRTM,2024,122.666938745116,13.776586155255
$GNGGA,160023.50,3350.91564012,N,12002.58591826,W,2,13,0.8,7.244,M,-37.363,M,4.4,0135*6D
$PYRTM,2024,122.666938745116,13.776586155255
$GNHDT,69.615,T*16
$PYRTM,2024,122.666944589178,13.776591999317
$GNGGA,160024.00,3350.91607634,N,12002.58462733,W,2,13,0.8,7.378,M,-37.363,M,5.0,0135*66
$PYRTM,2024,122.666944589178,13.776591999317
$GNHDT,69.028,T*1E
$PYRTM,2024,122.666950321667,13.776597731806
$GNGGA,160024.50,3350.91651500,N,12002.58330665,W,2,13,0.8,7.475,M,-37.363,M,5.4,0135*68
$PYRTM,2024,122.666950321667,13.776597731806
$GNHDT,68.460,T*17
$PYRTM,2024,122.666956159375,13.776603569514
$GNGGA,160025.00,3350.91694388,N,12002.58196230,W,2,13,0.8,7.546,M,-37.363,M,6.0,0135*6F
$PYRTM,2024,122.666956159375,13.776603569514
$GNHDT,68.000,T*15
$PYRTM,2024,122.666961894063,13.776609304201
$GNGGA,160025.50,3350.91737182,N,12002.58061240,W,2,13,0.8,7.590,M,-37.363,M,6.4,0135*6B
$PYRTM,2024,122.666961894063,13.776609304201
$GNHDT,67.845,T*13
$PYRTM,2024,122.666967733542,13.776615143681
$GNGGA,160026.00,3350.91778798,N,12002.57926442,W,2,13,0.8,7.617,M,-37.363,M,7.0,0135*63
$PYRTM,2024,122.666967733542,13.776615143681
$GNHDT,67.650,T*19
$PYRTM,2024,122.666973467072,13.776620877211
$GNGGA,160026.50,3350.91820415,N,12002.57794046,W,2,13,0.8,7.635,M,-37.363,M,7.4,0135*61
$PYRTM,2024,122.666973467072,13.776620877211
$GNHDT,67.760,T*1B
$PYRTM,2024,122.666979312488,13.776626722639
$GNGGA,160027.00,3350.91860878,N,12002.57662959,W,2,13,0.8,7.606,M,-37.363,M,7.0,0135*6D
$PYRTM,2024,122.666979312488,13.776626722639
$GNHDT,67.982,T*19
$PYRTM,2024,122.666985045139,13.776632455278
$GNGGA,160027.50,3350.91900536,N,12002.57533074,W,2,13,0.8,7.554,M,-37.363,M,7.4,0135*69
$PYRTM,2024,122.666985045139,13.776632455278
$GNHDT,68.271,T*11
