$PYRTM,2024,123.333338815231,14.442986225370
$GNGGA,080000.50,3413.10304163,N,12018.50497177,W,2,12,0.8,7.319,M,-36.945,M,317.4,0135*62
$PYRTM,2024,123.333338815231,14.442986225370
$GNHDT,281.618,T*2F
$PYRTM,2024,123.333344660613,14.442992070752
$GNGGA,080001.00,3413.10290868,N,12018.50577101,W,2,12,0.8,7.037,M,-36.945,M,318.0,0135*62
$PYRTM,2024,123.333344660613,14.442992070752
$GNHDT,281.798,T*26
$PYRTM,2024,123.333350392755,14.442997802894
$GNGGA,080001.50,3413.10283663,N,12018.50660241,W,2,12,0.8,6.509,M,-36.945,M,318.4,0135*6F
$PYRTM,2024,123.333350392755,14.442997802894
$GNHDT,282.171,T*24
$PYRTM,2024,123.333356224201,14.443003634340
$GNGGA,080002.00,3413.10284211,N,12018.50741560,W,2,12,0.8,5.852,M,-36.945,M,319.0,0135*6C
$PYRTM,2024,123.333356224201,14.443003634340
$GNHDT,282.928,T*20
$PYRTM,2024,123.333361964340,14.443009374479
$GNGGA,080002.50,3413.10290256,N,12018.50819464,W,2,11,0.8,5.305,M,-36.945,M,319.4,0135*66
$PYRTM,2024,123.333361964340,14.443009374479
$GNHDT,283.027,T*27
$PYRTM,2024,123.333367803021,14.443015213160
$GNGGA,080003.00,3413.10300536,N,12018.50892446,W,2,11,0.9,5.073,M,-36.945,M,7.0,0135*63
$PYRTM,2024,123.333367803021,14.443015213160
$GNHDT,283.194,T*2E
$PYRTM,2024,123.333373531678,14.443020941817
$GNGGA,080003.50,3413.10309108,N,12018.50960835,W,2,11,0.9,5.260,M,-36.945,M,7.4,0135*66
$PYRTM,2024,123.333373531678,14.443020941817
$GNHDT,283.686,T*2A
$PYRTM,2024,123.333379379664,14.443026789803
$GNGGA,080004.00,3413.10310286,N,12018.51024826,W,2,11,0.9,5.832,M,-36.945,M,7.0,0135*6A
$PYRTM,2024,123.333379379664,14.443026789803
$GNHDT,283.355,T*21
$PYRTM,2024,123.333385113634,14.443032523773
$GNGGA,080004.50,3413.10300718,N,12018.51087300,W,2,11,0.9,6.638,M,-36.945,M,7.4,0135*69
$PYRTM,2024,123.333385113634,14.443032523773
$GNHDT,282.841,T*2E
$PYRTM,2024,123.333390952650,14.443038362789
$GNGGA,080005.00,3413.10283263,N,12018.51151997,W,2,11,0.9,7.455,M,-36.945,M,4.0,0135*6F
$PYRTM,2024,123.333390952650,14.443038362789
$GNHDT,282.441,T*22
$PYRTM,2024,123.333396683565,14.443044093704
$GNGGA,080005.50,3413.10263487,N,12018.51222477,W,2,11,0.9,8.022,M,-36.945,M,4.4,0135*63
$PYRTM,2024,123.333396683565,14.443044093704
$GNHDT,282.130,T*21
$PYRTM,2024,123.333402520914,14.443049931065
$GNGGA,080006.00,3413.10247388,N,12018.51301931,W,2,11,0.9,8.160,M,-36.945,M,5.0,0135*66
$PYRTM,2024,123.333402520914,14.443049931065
$GNHDT,282.024,T*25
$PYRTM,2024,123.333408260625,14.443055670775
$GNGGA,080006.50,3413.10238577,N,12018.51387672,W,2,11,0.9,7.837,M,-36.945,M,5.4,0135*6B
$PYRTM,2024,123.333408260625,14.443055670775
$GNHDT,282.745,T*25
$PYRTM,2024,123.333414103484,14.443061513623
$GNGGA,080007.00,3413.10237342,N,12018.51471455,W,2,11,0.9,7.149,M,-36.945,M,6.0,0135*6E
$PYRTM,2024,123.333414103484,14.443061513623
$GNHDT,282.310,T*21
$PYRTM,2024,123.333419835127,14.443067245266
$GNGGA,080007.50,3413.10241793,N,12018.51548071,W,2,11,0.9,6.362,M,-36.945,M,6.4,0135*65
$PYRTM,2024,123.333419835127,14.443067245266
$GNHDT,281.989,T*28
$PYRTM,2024,123.333425669387,14.443073079537
$GNGGA,080008.00,3413.10248644,N,12018.51615477,W,2,11,0.9,5.725,M,-36.945,M,7.0,0135*65
$PYRTM,2024,123.333425669387,14.443073079537
$GNHDT,281.841,T*2D
$PYRTM,2024,123.333431410463,14.443078820602
$GNGGA,080008.50,3413.10251568,N,12018.51678191,W,2,11,0.9,5.467,M,-36.945,M,7.4,0135*62
$PYRTM,2024,123.333431410463,14.443078820602
$GNHDT,282.096,T*2C
$PYRTM,2024,123.333437246701,14.443084656840
$GNGGA,080009.00,3413.10245875,N,12018.51742597,W,2,11,0.9,5.546,M,-36.945,M,7.0,0135*6E
$PYRTM,2024,123.333437246701,14.443084656840
$GNHDT,281.947,T*2A
$PYRTM,2024,123.333442984074,14.443090394213
$GNGGA,080009.50,3413.10237359,N,12018.51812923,W,2,11,0.9,5.761,M,-36.945,M,7.4,0135*61
$PYRTM,2024,123.333442984074,14.443090394213
$GNHDT,282.238,T*2A
$PYRTM,2024,123.333448822535,14.443096232685
$GNGGA,080010.00,3413.10231313,N,12018.51892698,W,2,11,0.9,5.948,M,-36.945,M,7.0,0135*62
$PYRTM,2024,123.333448822535,14.443096232685
$GNHDT,283.082,T*28
$PYRTM,2024,123.333454553148,14.443101963287
$GNGGA,080010.50,3413.10232859,N,12018.51979389,W,2,11,0.9,6.001,M,-36.945,M,7.4,0135*63
$PYRTM,2024,123.333454553148,14.443101963287
$GNHDT,283.096,T*2D
$PYRTM,2024,123.333460392604,14.443107802743
$GNGGA,080011.00,3413.10238974,N,12018.52066827,W,2,11,0.9,6.021,M,-36.945,M,4.0,0135*6D
$PYRTM,2024,123.333460392604,14.443107802743
$GNHDT,283.286,T*2E
$PYRTM,2024,123.333466127604,14.443113537743
$GNGGA,080011.50,3413.10244022,N,12018.52145439,W,2,11,0.9,6.211,M,-36.945,M,4.4,0135*6F
$PYRTM,2024,123.333466127604,14.443113537743
$GNHDT,282.862,T*2F
$PYRTM,2024,123.333471966331,14.443119376470
$GNGGA,080012.00,3413.10242637,N,12018.52212590,W,2,11,0.9,6.662,M,-36.945,M,5.0,0135*6B
$PYRTM,2024,123.333471966331,14.443119376470
$GNHDT,282.582,T*2C
$PYRTM,2024,123.333477698530,14.443125108669
$GNGGA,080012.50,3413.10234572,N,12018.52272885,W,2,11,0.9,7.239,M,-36.945,M,5.4,0135*6D
$PYRTM,2024,123.333477698530,14.443125108669
$GNHDT,282.467,T*26
$PYRTM,2024,123.333483539618,14.443130949757
$GNGGA,080013.00,3413.10222598,N,12018.52333510,W,2,11,0.9,7.750,M,-36.945,M,6.0,0135*62
$PYRTM,2024,123.333483539618,14.443130949757
$GNHDT,282.175,T*20
$PYRTM,2024,123.333489278623,14.443136688773
$GNGGA,080013.50,3413.10212734,N,12018.52405265,W,2,11,0.9,7.851,M,-36.945,M,6.4,0135*6D
$PYRTM,2024,123.333489278623,14.443136688773
$GNHDT,282.785,T*29
$PYRTM,2024,123.333495130116,14.443142540266
$GNGGA,080014.00,3413.10208670,N,12018.52487413,W,2,11,0.9,7.473,M,-36.945,M,7.0,0135*61
$PYRTM,2024,123.333495130116,14.443142540266
$GNHDT,282.215,T*25
$PYRTM,2024,123.333500851979,14.443148262118
$GNGGA,080014.50,3413.10211630,N,12018.52568121,W,2,11,0.9,6.721,M,-36.945,M,7.4,0135*6D
$PYRTM,2024,123.333500851979,14.443148262118
$GNHDT,282.887,T*24
$PYRTM,2024,123.333506688669,14.443154098808
$GNGGA,080015.00,3413.10216110,N,12018.52641487,W,2,11,0.9,6.039,M,-36.945,M,7.0,0135*60
$PYRTM,2024,123.333506688669,14.443154098808
$GNHDT,282.914,T*2F
$PYRTM,2024,123.333512422940,14.443159833079
$GNGGA,080015.50,3413.10214445,N,12018.52705143,W,2,11,0.9,5.672,M,-36.945,M,7.4,0135*60
$PYRTM,2024,123.333512422940,14.443159833079
$GNHDT,282.780,T*2C
$PYRTM,2024,123.333518265972,14.443165676111
$GNGGA,080016.00,3413.10204643,N,12018.52763626,W,2,11,0.9,5.736,M,-36.945,M,7.0,0135*62
$PYRTM,2024,123.333518265972,14.443165676111
$GNHDT,282.853,T*2D
$PYRTM,2024,123.333524000706,14.443171410845
$GNGGA,080016.50,3413.10191302,N,12018.52824743,W,2,11,0.9,5.997,M,-36.945,M,7.4,0135*67
$PYRTM,2024,123.333524000706,14.443171410845
$GNHDT,283.024,T*24
$PYRTM,2024,123.333529840868,14.443177251007
$GNGGA,080017.00,3413.10181625,N,12018.52898340,W,2,11,0.9,6.177,M,-36.945,M,4.0,0135*60
$PYRTM,2024,123.333529840868,14.443177251007
$GNHDT,283.506,T*21
$PYRTM,2024,123.333535568623,14.443182978762
$GNGGA,080017.50,3413.10181165,N,12018.52986216,W,2,11,0.9,6.085,M,-36.945,M,4.4,0135*62
$PYRTM,2024,123.333535568623,14.443182978762
$GNHDT,283.242,T*26
$PYRTM,2024,123.333541409294,14.443188819433
$GNGGA,080018.00,3413.10187209,N,12018.53076059,W,2,11,0.9,5.837,M,-36.945,M,5.0,0135*6E
$PYRTM,2024,123.333541409294,14.443188819433
$GNHDT,282.770,T*23
$PYRTM,2024,123.333547144676,14.443194554815
$GNGGA,080018.50,3413.10193969,N,12018.53161334,W,2,11,0.9,5.648,M,-36.945,M,5.4,0135*6E
$PYRTM,2024,123.333547144676,14.443194554815
$GNHDT,283.021,T*21
$PYRTM,2024,123.333552988241,14.443200398380
$GNGGA,080019.00,3413.10196456,N,12018.53238267,W,2,11,0.9,5.625,M,-36.945,M,6.0,0135*6A
$PYRTM,2024,123.333552988241,14.443200398380
$GNHDT,283.136,T*26
$PYRTM,2024,123.333558718229,14.443206128368
$GNGGA,080019.50,3413.10193419,N,12018.53308938,W,2,11,0.9,5.809,M,-36.945,M,6.4,0135*66
$PYRTM,2024,123.333558718229,14.443206128368
$GNHDT,282.839,T*21
$PYRTM,2024,123.333564558542,14.443211968681
$GNGGA,080020.00,3413.10187302,N,12018.53378705,W,2,11,0.9,6.104,M,-36.945,M,7.0,0135*64
$PYRTM,2024,123.333564558542,14.443211968681
$GNHDT,282.945,T*2B
$PYRTM,2024,123.333570290498,14.443217700637
$GNGGA,080020.50,3413.10181496,N,12018.53449659,W,2,11,0.9,6.398,M,-36.945,M,7.4,0135*63
$PYRTM,2024,123.333570290498,14.443217700637
$GNHDT,283.095,T*2E
$PYRTM,2024,123.333576129907,14.443223540046
$GNGGA,080021.00,3413.10177439,N,12018.53520434,W,2,11,0.9,6.663,M,-36.945,M,7.0,0135*69
$PYRTM,2024,123.333576129907,14.443223540046
$GNHDT,283.261,T*27
$PYRTM,2024,123.333581868449,14.443229278600
$GNGGA,080021.50,3413.10174534,N,12018.53590237,W,2,11,0.9,6.862,M,-36.945,M,7.4,0135*66
$PYRTM,2024,123.333581868449,14.443229278600
$GNHDT,282.903,T*29
$PYRTM,2024,123.333587709144,14.443235119282
$GNGGA,080022.00,3413.10171060,N,12018.53658618,W,2,11,0.9,6.990,M,-36.945,M,7.0,0135*67
$PYRTM,2024,123.333587709144,14.443235119282
$GNHDT,282.963,T*2F
$PYRTM,2024,123.333593443148,14.443240853287
$GNGGA,080022.50,3413.10167893,N,12018.53727386,W,2,11,0.9,7.018,M,-36.945,M,7.4,0135*66
$PYRTM,2024,123.333593443148,14.443240853287
$GNHDT,282.799,T*24
$PYRTM,2024,123.333599280498,14.443246690637
$GNGGA,080023.00,3413.10166735,N,12018.53797801,W,2,11,0.9,6.891,M,-36.945,M,4.0,0135*60
$PYRTM,2024,123.333599280498,14.443246690637
$GNHDT,282.934,T*2D
$PYRTM,2024,123.333605013715,14.443252423854
$GNGGA,080023.50,3413.10168865,N,12018.53872129,W,2,11,0.9,6.617,M,-36.945,M,4.4,0135*62
$PYRTM,2024,123.333605013715,14.443252423854
$GNHDT,282.975,T*28
$PYRTM,2024,123.333610854456,14.443258264595
$GNGGA,080024.00,3413.10172556,N,12018.53948446,W,2,11,0.9,6.252,M,-36.945,M,5.0,0135*62
$PYRTM,2024,123.333610854456,14.443258264595
$GNHDT,282.932,T*2B
$PYRTM,2024,123.333616589664,14.443263999803
$GNGGA,080024.50,3413.10176026,N,12018.54026654,W,2,11,0.9,5.936,M,-36.945,M,5.4,0135*68
$PYRTM,2024,123.333616589664,14.443263999803
$GNHDT,282.689,T*24
$PYRTM,2024,123.333622427928,14.443269838067
$GNGGA,080025.00,3413.10178266,N,12018.54106413,W,2,11,0.9,5.751,M,-36.945,M,6.0,0135*6E
$PYRTM,2024,123.333622427928,14.443269838067
$GNHDT,282.721,T*27
$PYRTM,2024,123.333628162963,14.443275573102
$GNGGA,080025.50,3413.10180261,N,12018.54186652,W,2,11,0.9,5.736,M,-36.945,M,6.4,0135*61
$PYRTM,2024,123.333628162963,14.443275573102
$GNHDT,283.105,T*26
$PYRTM,2024,123.333634002859,14.443281412998
$GNGGA,080026.00,3413.10180695,N,12018.54265580,W,2,11,0.9,5.888,M,-36.945,M,7.0,0135*65
$PYRTM,2024,123.333634002859,14.443281412998
$GNHDT,283.022,T*22
$PYRTM,2024,123.333639734433,14.443287144572
$GNGGA,080026.50,3413.10176627,N,12018.54345050,W,2,11,0.9,6.197,M,-36.945,M,7.4,0135*6B
$PYRTM,2024,123.333639734433,14.443287144572
$GNHDT,282.876,T*2A
$PYRTM,2024,123.333645581782,14.443292991921
$GNGGA,080027.00,3413.10167025,N,12018.54424639,W,2,11,0.9,6.589,M,-36.945,M,7.0,0135*6D
$PYRTM,2024,123.333645581782,14.443292991921
$GNHDT,282.699,T*25
$PYRTM,2024,123.333651308183,14.443298718322
$GNGGA,080027.50,3413.10156280,N,12018.54503515,W,2,11,0.9,6.938,M,-36.945,M,7.4,0135*6C
$PYRTM,2024,123.333651308183,14.443298718322
$GNHDT,282.476,T*26
$PYRTM,2024,123.333657148310,14.443304558449
$GNGGA,080028.00,3413.10151406,N,12018.54584744,W,2,11,0.9,7.053,M,-36.945,M,7.0,0135*61
$PYRTM,2024,123.333657148310,14.443304558449
$GNHDT,282.509,T*2F
$PYRTM,2024,123.333662882407,14.443310292546
$GNGGA,080028.50,3413.10157501,N,12018.54669510,W,2,11,0.9,6.826,M,-36.945,M,7.4,0135*68
$PYRTM,2024,123.333662882407,14.443310292546
$GNHDT,282.767,T*25
$PYRTM,2024,123.333668729248,14.443316139387
$GNGGA,080029.00,3413.10169651,N,12018.54754471,W,2,11,0.9,6.439,M,-36.945,M,4.0,0135*6B
$PYRTM,2024,123.333668729248,14.443316139387
$GNHDT,282.913,T*28
$PYRTM,2024,123.333674458600,14.443321868738
$GNGGA,080029.50,3413.10180957,N,12018.54834708,W,2,11,0.9,6.075,M,-36.945,M,4.4,0135*6C
$PYRTM,2024,123.333674458600,14.443321868738
$GNHDT,282.916,T*2D
$PYRTM,2024,123.333680298218,14.443327708356
$GNGGA,080030.00,3413.10184985,N,12018.54909279,W,2,11,0.9,5.882,M,-36.945,M,5.0,0135*60
$PYRTM,2024,123.333680298218,14.443327708356
$GNHDT,282.513,T*24
$PYRTM,2024,123.333686032512,14.443333442650
$GNGGA,080030.50,3413.10178817,N,12018.54982558,W,2,11,0.9,5.906,M,-36.945,M,5.4,0135*62
$PYRTM,2024,123.333686032512,14.443333442650
$GNHDT,282.067,T*22
$PYRTM,2024,123.333691876134,14.443339286273
$GNGGA,080031.00,3413.10163669,N,12018.55058962,W,2,11,0.9,6.027,M,-36.945,M,6.0,0135*6F
$PYRTM,2024,123.333691876134,14.443339286273
$GNHDT,281.900,T*29
$PYRTM,2024,123.333697610972,14.443345021111
$GNGGA,080031.50,3413.10146581,N,12018.55144570,W,2,11,0.9,6.018,M,-36.945,M,6.4,0135*63
$PYRTM,2024,123.333697610972,14.443345021111
$GNHDT,281.693,T*2C
$PYRTM,2024,123.333703452280,14.443350862431
$GNGGA,080032.00,3413.10133306,N,12018.55235375,W,2,11,0.9,5.899,M,-36.945,M,7.0,0135*6F
$PYRTM,2024,123.333703452280,14.443350862431
$GNHDT,282.038,T*28
$PYRTM,2024,123.333709183553,14.443356593704
$GNGGA,080032.50,3413.10128176,N,12018.55322051,W,2,11,0.9,5.803,M,-36.945,M,7.4,0135*60
$PYRTM,2024,123.333709183553,14.443356593704
$GNHDT,281.754,T*26
$PYRTM,2024,123.333715027176,14.443362437315
$GNGGA,080033.00,3413.10132374,N,12018.55398285,W,2,11,0.9,5.861,M,-36.945,M,7.0,0135*65
$PYRTM,2024,123.333715027176,14.443362437315
$GNHDT,281.546,T*27
$PYRTM,2024,123.333720758241,14.443368168380
$GNGGA,080033.50,3413.10141692,N,12018.55466073,W,2,11,0.9,6.095,M,-36.945,M,7.4,0135*60
$PYRTM,2024,123.333720758241,14.443368168380
$GNHDT,281.991,T*21
$PYRTM,2024,123.333726596829,14.443374006968
$GNGGA,080034.00,3413.10150964,N,12018.55530850,W,2,11,0.9,6.417,M,-36.945,M,7.0,0135*65
$PYRTM,2024,123.333726596829,14.443374006968
$GNHDT,281.802,T*2A
$PYRTM,2024,123.333732326898,14.443379737049
$GNGGA,080034.50,3413.10155259,N,12018.55602148,W,2,11,0.9,6.644,M,-36.945,M,7.4,0135*62
$PYRTM,2024,123.333732326898,14.443379737049
$GNHDT,281.704,T*23
$PYRTM,2024,123.333738172488,14.443385582627
$GNGGA,080035.00,3413.10152074,N,12018.55686181,W,2,11,0.9,6.593,M,-36.945,M,4.0,0135*6B
$PYRTM,2024,123.333738172488,14.443385582627
$GNHDT,281.528,T*2F
$PYRTM,2024,123.333743909873,14.443391320012
$GNGGA,080035.50,3413.10144036,N,12018.55779260,W,2,11,0.9,6.270,M,-36.945,M,4.4,0135*6C
$PYRTM,2024,123.333743909873,14.443391320012
$GNHDT,281.088,T*20
$PYRTM,2024,123.333749748403,14.443397158542
$GNGGA,080036.00,3413.10134003,N,12018.55874312,W,2,11,0.9,5.838,M,-36.946,M,5.0,0135*6E
$PYRTM,2024,123.333749748403,14.443397158542
$GNHDT,281.009,T*29
$PYRTM,2024,123.333755483449,14.443402893588
$GNGGA,080036.50,3413.10124954,N,12018.55963499,W,2,11,0.9,5.518,M,-36.946,M,5.4,0135*69
$PYRTM,2024,123.333755483449,14.443402893588
$GNHDT,281.311,T*23
$PYRTM,2024,123.333761324421,14.443408734560
$GNGGA,080037.00,3413.10120543,N,12018.56037848,W,2,11,0.9,5.543,M,-36.946,M,6.0,0135*61
$PYRTM,2024,123.333761324421,14.443408734560
$GNHDT,281.247,T*21
$PYRTM,2024,123.333767058009,14.443414468148
$GNGGA,080037.50,3413.10121350,N,12018.56098040,W,2,11,0.9,5.928,M,-36.946,M,6.4,0135*61
$PYRTM,2024,123.333767058009,14.443414468148
$GNHDT,282.438,T*2C
$PYRTM,2024,123.333772895567,14.443420305706
$GNGGA,080038.00,3413.10125291,N,12018.56151440,W,2,11,0.9,6.565,M,-36.946,M,7.0,0135*60
$PYRTM,2024,123.333772895567,14.443420305706
$GNHDT,282.710,T*25
$PYRTM,2024,123.333778627130,14.443426037269
$GNGGA,080038.50,3413.10130995,N,12018.56207204,W,2,11,0.9,7.198,M,-36.946,M,7.4,0135*6B
$PYRTM,2024,123.333778627130,14.443426037269
$GNHDT,282.043,T*24
$PYRTM,2024,123.333784469641,14.443431879780
$GNGGA,080039.00,3413.10135415,N,12018.56277076,W,2,11,0.9,7.511,M,-36.946,M,7.0,0135*6E
$PYRTM,2024,123.333784469641,14.443431879780
$GNHDT,281.658,T*2B
$PYRTM,2024,123.333790198657,14.443437608796
$GNGGA,080039.50,3413.10135638,N,12018.56362724,W,2,11,0.9,7.378,M,-36.946,M,7.4,0135*6E
$PYRTM,2024,123.333790198657,14.443437608796
$GNHDT,281.911,T*29
$PYRTM,2024,123.333796043438,14.443443453576
$GNGGA,080040.00,3413.10131424,N,12018.56457885,W,2,11,0.9,6.847,M,-36.946,M,7.0,0135*69
$PYRTM,2024,123.333796043438,14.443443453576
$GNHDT,281.563,T*20
$PYRTM,2024,123.333801777164,14.443449187303
$GNGGA,080040.50,3413.10124032,N,12018.56553255,W,2,11,0.9,6.135,M,-36.946,M,7.4,0135*61
$PYRTM,2024,123.333801777164,14.443449187303
$GNHDT,282.175,T*20
$PYRTM,2024,123.333807610359,14.443455020509
$GNGGA,080041.00,3413.10118046,N,12018.56640774,W,2,11,0.9,5.516,M,-36.946,M,4.0,0135*6F
$PYRTM,2024,123.333807610359,14.443455020509
$GNHDT,282.432,T*26
$PYRTM,2024,123.333813350012,14.443460760162
$GNGGA,080041.50,3413.10115158,N,12018.56717073,W,2,11,0.9,5.236,M,-36.946,M,4.4,0135*6B
$PYRTM,2024,123.333813350012,14.443460760162
$GNHDT,282.954,T*2B
$PYRTM,2024,123.333819196979,14.443466607130
$GNGGA,080042.00,3413.10115161,N,12018.56781287,W,2,11,0.9,5.395,M,-36.946,M,5.0,0135*6C
$PYRTM,2024,123.333819196979,14.443466607130
$GNHDT,282.795,T*28
$PYRTM,2024,123.333824927025,14.443472337176
$GNGGA,080042.50,3413.10116682,N,12018.56839499,W,2,11,0.9,5.805,M,-36.946,M,5.4,0135*63
$PYRTM,2024,123.333824927025,14.443472337176
$GNHDT,283.169,T*2C
$PYRTM,2024,123.333830761215,14.443478171354
$GNGGA,080043.00,3413.10120348,N,12018.56899358,W,2,11,0.9,6.295,M,-36.946,M,6.0,0135*66
$PYRTM,2024,123.333830761215,14.443478171354
$GNHDT,283.342,T*27
$PYRTM,2024,123.333836494421,14.443483904560
$GNGGA,080043.50,3413.10126299,N,12018.56968822,W,2,11,0.9,6.655,M,-36.946,M,6.4,0135*6D
$PYRTM,2024,123.333836494421,14.443483904560
$GNHDT,283.029,T*29
$PYRTM,2024,123.333842332118,14.443489742257
$GNGGA,080044.00,3413.10131284,N,12018.57049617,W,2,11,0.9,6.735,M,-36.946,M,7.0,0135*64
$PYRTM,2024,123.333842332118,14.443489742257
$GNHDT,282.827,T*2E
$PYRTM,2024,123.333848072292,14.443495482431
$GNGGA,080044.50,3413.10133724,N,12018.57136832,W,2,11,0.9,6.602,M,-36.946,M,7.4,0135*6D
$PYRTM,2024,123.333848072292,14.443495482431
$GNHDT,282.860,T*2D
$PYRTM,2024,123.333853911910,14.443501322049
$GNGGA,080045.00,3413.10129483,N,12018.57221896,W,2,11,0.9,6.373,M,-36.946,M,7.0,0135*60
$PYRTM,2024,123.333853911910,14.443501322049
$GNHDT,283.308,T*29
$PYRTM,2024,123.333859648657,14.443507058796
$GNGGA,080045.50,3413.10121199,N,12018.57300561,W,2,11,0.9,6.213,M,-36.946,M,7.4,0135*67
$PYRTM,2024,123.333859648657,14.443507058796
$GNHDT,283.353,T*27
$PYRTM,2024,123.333865481852,14.443512892002
$GNGGA,080046.00,3413.10109409,N,12018.57370289,W,2,11,0.9,6.158,M,-36.946,M,7.0,0135*69
$PYRTM,2024,123.333865481852,14.443512892002
$GNHDT,283.214,T*25
$PYRTM,2024,123.333871216586,14.443518626725
$GNGGA,080046.50,3413.10097680,N,12018.57433921,W,2,11,0.9,6.201,M,-36.946,M,7.4,0135*6B
$PYRTM,2024,123.333871216586,14.443518626725
$GNHDT,282.686,T*2B
$PYRTM,2024,123.333877056690,14.443524466840
$GNGGA,080047.00,3413.10089044,N,12018.57497476,W,2,11,0.9,6.250,M,-36.946,M,4.0,0135*6C
$PYRTM,2024,123.333877056690,14.443524466840
$GNHDT,282.369,T*2F
$PYRTM,2024,123.333882791655,14.443530201794
$GNGGA,080047.50,3413.10086025,N,12018.57567140,W,2,11,0.9,6.188,M,-36.946,M,4.4,0135*6D
$PYRTM,2024,123.333882791655,14.443530201794
$GNHDT,282.388,T*20
$PYRTM,2024,123.333888630671,14.443536040810
$GNGGA,080048.00,3413.10088695,N,12018.57645004,W,2,11,0.9,6.006,M,-36.946,M,5.0,0135*64
$PYRTM,2024,123.333888630671,14.443536040810
$GNHDT,282.498,T*26
$PYRTM,2024,123.333894365694,14.443541775833
$GNGGA,080048.50,3413.10094048,N,12018.57727433,W,2,11,0.9,5.781,M,-36.946,M,5.4,0135*60
$PYRTM,2024,123.333894365694,14.443541775833
$GNHDT,282.356,T*23
$PYRTM,2024,123.333900209595,14.443547619734
$GNGGA,080049.00,3413.10099250,N,12018.57809317,W,2,11,0.9,5.648,M,-36.946,M,6.0,0135*63
$PYRTM,2024,123.333900209595,14.443547619734
$GNHDT,282.321,T*23
$PYRTM,2024,123.333905936701,14.443553346840
$GNGGA,080049.50,3413.10101656,N,12018.57886751,W,2,11,0.9,5.719,M,-36.946,M,6.4,0135*64
$PYRTM,2024,123.333905936701,14.443553346840
$GNHDT,282.297,T*2F
$PYRTM,2024,123.333911776852,14.443559186991
$GNGGA,080050.00,3413.10099517,N,12018.57957922,W,2,11,0.9,6.011,M,-36.946,M,7.0,0135*61
$PYRTM,2024,123.333911776852,14.443559186991
$GNHDT,282.071,T*25
$PYRTM,2024,123.333917512731,14.443564922870
$GNGGA,080050.50,3413.10093267,N,12018.58027021,W,2,11,0.9,6.443,M,-36.946,M,7.4,0135*62
$PYRTM,2024,123.333917512731,14.443564922870
$GNHDT,282.087,T*2C
$PYRTM,2024,123.333923353032,14.443570763171
$GNGGA,080051.00,3413.10084748,N,12018.58095886,W,2,11,0.9,6.907,M,-36.946,M,7.0,0135*6D
$PYRTM,2024,123.333923353032,14.443570763171
$GNHDT,281.945,T*28
$PYRTM,2024,123.333929085498,14.443576495637
$GNGGA,080051.50,3413.10076721,N,12018.58168290,W,2,11,0.9,7.213,M,-36.946,M,7.4,0135*6F
$PYRTM,2024,123.333929085498,14.443576495637
$GNHDT,282.346,T*22
$PYRTM,2024,123.333934926157,14.443582336296
$GNGGA,080052.00,3413.10071770,N,12018.58248371,W,2,11,0.9,7.159,M,-36.946,M,7.0,0135*6C
$PYRTM,2024,123.333934926157,14.443582336296
$GNHDT,282.317,T*26
$PYRTM,2024,123.333940660961,14.443588071100
$GNGGA,080052.50,3413.10071684,N,12018.58335155,W,2,11,0.9,6.773,M,-36.946,M,7.4,0135*67
$PYRTM,2024,123.333940660961,14.443588071100
$GNHDT,282.336,T*25
$PYRTM,2024,123.333946506435,14.443593916574
$GNGGA,080053.00,3413.10075566,N,12018.58422524,W,2,11,0.9,6.121,M,-36.946,M,4.0,0135*6D
$PYRTM,2024,123.333946506435,14.443593916574
$GNHDT,282.318,T*29
$PYRTM,2024,123.333952239815,14.443599649954
$GNGGA,080053.50,3413.10080542,N,12018.58507685,W,2,11,0.9,5.473,M,-36.946,M,4.4,0135*6F
$PYRTM,2024,123.333952239815,14.443599649954
$GNHDT,282.200,T*21
$PYRTM,2024,123.333958072431,14.443605482569
$GNGGA,080054.00,3413.10082816,N,12018.58587304,W,2,11,0.9,5.057,M,-36.946,M,5.0,0135*60
$PYRTM,2024,123.333958072431,14.443605482569
$GNHDT,281.824,T*2E
$PYRTM,2024,123.333963812512,14.443611222650
$GNGGA,080054.50,3413.10080355,N,12018.58661165,W,2,11,0.9,5.022,M,-36.946,M,5.4,0135*63
$PYRTM,2024,123.333963812512,14.443611222650
$GNHDT,281.513,T*27
$PYRTM,2024,123.333969658021,14.443617068160
$GNGGA,080055.00,3413.10073902,N,12018.58730914,W,2,11,0.9,5.332,M,-36.946,M,6.0,0135*6D
$PYRTM,2024,123.333969658021,14.443617068160
$GNHDT,281.196,T*2E
$PYRTM,2024,123.333975386493,14.443622796632
$GNGGA,080055.50,3413.10066227,N,12018.58799116,W,2,11,0.9,5.809,M,-36.946,M,6.4,0135*6E
$PYRTM,2024,123.333975386493,14.443622796632
$GNHDT,281.413,T*26
$PYRTM,2024,123.333981229352,14.443628639502
$GNGGA,080056.00,3413.10060584,N,12018.58869843,W,2,11,0.9,6.310,M,-36.946,M,7.0,0135*6C
$PYRTM,2024,123.333981229352,14.443628639502
$GNHDT,281.311,T*23
$PYRTM,2024,123.333986956296,14.443634366435
$GNGGA,080056.50,3413.10055751,N,12018.58945081,W,2,11,0.9,6.738,M,-36.946,M,7.4,0135*66
$PYRTM,2024,123.333986956296,14.443634366435
$GNHDT,281.524,T*23
$PYRTM,2024,123.333992797419,14.443640207558
$GNGGA,080057.00,3413.10049244,N,12018.59023857,W,2,11,0.9,7.027,M,-36.946,M,7.0,0135*69
$PYRTM,2024,123.333992797419,14.443640207558
$GNHDT,281.298,T*23
$PYRTM,2024,123.333998535694,14.443645945833
$GNGGA,080057.50,3413.10041855,N,12018.59106074,W,2,11,0.9,7.112,M,-36.946,M,7.4,0135*62
$PYRTM,2024,123.333998535694,14.443645945833
$GNHDT,281.204,T*26
$PYRTM,2024,123.334004373171,14.443651783310
$GNGGA,080058.00,3413.10036496,N,12018.59189865,W,2,11,0.9,6.964,M,-36.946,M,7.0,0135*68
$PYRTM,2024,123.334004373171,14.443651783310
$GNHDT,280.946,T*2A
$PYRTM,2024,123.334010110139,14.443657520289
$GNGGA,080058.50,3413.10034658,N,12018.59271211,W,2,11,0.9,6.651,M,-36.946,M,7.4,0135*6F
$PYRTM,2024,123.334010110139,14.443657520289
$GNHDT,281.001,T*21
$PYRTM,2024,123.334015943877,14.443663354016
$GNGGA,080059.00,3413.10036412,N,12018.59349670,W,2,11,0.9,6.246,M,-36.946,M,4.0,0135*69
$PYRTM,2024,123.334015943877,14.443663354016
$GNHDT,281.151,T*25
$PYRTM,2024,123.334021685208,14.443669095347
$GNGGA,080059.50,3413.10037741,N,12018.59425797,W,2,11,0.9,5.905,M,-36.946,M,4.4,0135*66
$PYRTM,2024,123.334021685208,14.443669095347
$GNHDT,281.561,T*22
$PYRTM,2024,123.334027524965,14.443674935116
$GNGGA,080100.00,3413.10037047,N,12018.59501324,W,2,11,0.9,5.691,M,-36.946,M,5.0,0135*63
$PYRTM,2024,123.334027524965,14.443674935116
$GNHDT,281.653,T*20
$PYRTM,2024,123.334033255185,14.443680665324
$GNGGA,080100.50,3413.10035209,N,12018.59578940,W,2,11,0.9,5.630,M,-36.946,M,5.4,0135*65
$PYRTM,2024,123.334033255185,14.443680665324
$GNHDT,281.820,T*2A
$PYRTM,2024,123.334039095463,14.443686505602
$GNGGA,080101.00,3413.10033256,N,12018.59660137,W,2,11,0.9,5.658,M,-36.946,M,6.0,0135*66
$PYRTM,2024,123.334039095463,14.443686505602
$GNHDT,281.651,T*22
$PYRTM,2024,123.334044830278,14.443692240417
$GNGGA,080101.50,3413.10030865,N,12018.59744103,W,2,11,0.9,5.766,M,-36.946,M,6.4,0135*62
$PYRTM,2024,123.334044830278,14.443692240417
$GNHDT,281.496,T*2B
$PYRTM,2024,123.334050663472,14.443698073611
$GNGGA,080102.00,3413.10026597,N,12018.59828538,W,2,11,0.9,5.984,M,-36.946,M,7.0,0135*6D
$PYRTM,2024,123.334050663472,14.443698073611
$GNHDT,281.330,T*20
$PYRTM,2024,123.334056407338,14.443703817477
$GNGGA,080102.50,3413.10019943,N,12018.59912565,W,2,11,0.9,6.260,M,-36.946,M,7.4,0135*67
$PYRTM,2024,123.334056407338,14.443703817477
$GNHDT,281.674,T*25
$PYRTM,2024,123.334062241435,14.443709651574
$GNGGA,080103.00,3413.10012643,N,12018.59995850,W,2,11,0.9,6.512,M,-36.946,M,7.0,0135*65
$PYRTM,2024,123.334062241435,14.443709651574
$GNHDT,281.645,T*27
$PYRTM,2024,123.334067979491,14.443715389641
$GNGGA,080103.50,3413.10009078,N,12018.60077871,W,2,11,0.9,6.639,M,-36.946,M,7.4,0135*66
$PYRTM,2024,123.334067979491,14.443715389641
$GNHDT,281.930,T*2A
$PYRTM,2024,123.334073814167,14.443721224306
$GNGGA,080104.00,3413.10009180,N,12018.60159796,W,2,11,0.9,6.596,M,-36.946,M,7.0,0135*6B
$PYRTM,2024,123.334073814167,14.443721224306
$GNHDT,281.804,T*2C
$PYRTM,2024,123.334079550775,14.443726960926
$GNGGA,080104.50,3413.10009874,N,12018.60244425,W,2,11,0.9,6.407,M,-36.946,M,7.4,0135*65
$PYRTM,2024,123.334079550775,14.443726960926
$GNHDT,281.905,T*2C
$PYRTM,2024,123.334085397986,14.443732808125
$GNGGA,080105.00,3413.10007759,N,12018.60331707,W,2,11,0.9,6.118,M,-36.946,M,4.0,0135*63
$PYRTM,2024,123.334085397986,14.443732808125
$GNHDT,281.975,T*2B
$PYRTM,2024,123.334091130069,14.443738540208
$GNGGA,080105.50,3413.10002249,N,12018.60420454,W,2,11,0.9,5.816,M,-36.946,M,4.4,0135*65
$PYRTM,2024,123.334091130069,14.443738540208
$GNHDT,282.308,T*28
$PYRTM,2024,123.334096966562,14.443744376701
$GNGGA,080106.00,3413.09996675,N,12018.60507354,W,2,11,0.9,5.582,M,-36.946,M,5.0,0135*62
$PYRTM,2024,123.334096966562,14.443744376701
$GNHDT,282.804,T*2F
$PYRTM,2024,123.334102697731,14.443750107870
$GNGGA,080106.50,3413.09994300,N,12018.60588275,W,2,11,0.9,5.518,M,-36.946,M,5.4,0135*60
$PYRTM,2024,123.334102697731,14.443750107870
$GNHDT,282.825,T*2C
$PYRTM,2024,123.334108539051,14.443755949190
$GNGGA,080107.00,3413.09994671,N,12018.60660311,W,2,11,0.9,5.687,M,-36.946,M,6.0,0135*63
$PYRTM,2024,123.334108539051,14.443755949190
$GNHDT,283.360,T*27
$PYRTM,2024,123.334114276123,14.443761686262
$GNGGA,080107.50,3413.09996927,N,12018.60728215,W,2,11,0.9,6.080,M,-36.946,M,6.4,0135*66
$PYRTM,2024,123.334114276123,14.443761686262
$GNHDT,283.449,T*2B
$PYRTM,2024,123.334120113171,14.443767523310
$GNGGA,080108.00,3413.09999780,N,12018.60795649,W,2,11,0.9,6.586,M,-36.946,M,7.0,0135*6D
$PYRTM,2024,123.334120113171,14.443767523310
$GNHDT,283.702,T*27
$PYRTM,2024,123.334125845023,14.443773255162
$GNGGA,080108.50,3413.10001996,N,12018.60870483,W,2,11,0.9,7.025,M,-36.946,M,7.4,0135*68
$PYRTM,2024,123.334125845023,14.443773255162
$GNHDT,283.512,T*24
$PYRTM,2024,123.334131687002,14.443779097141
$GNGGA,080109.00,3413.10001858,N,12018.60956038,W,2,11,0.9,7.198,M,-36.946,M,7.0,0135*6D
$PYRTM,2024,123.334131687002,14.443779097141
$GNHDT,283.351,T*25
$PYRTM,2024,123.334137420220,14.443784830359
$GNGGA,080109.50,3413.09999626,N,12018.61046890,W,2,11,0.9,7.089,M,-36.946,M,7.4,0135*69
$PYRTM,2024,123.334137420220,14.443784830359
$GNHDT,283.714,T*20
$PYRTM,2024,123.334143263310,14.443790673449
$GNGGA,080110.00,3413.09995670,N,12018.61140147,W,2,11,0.9,6.733,M,-36.946,M,7.0,0135*6C
$PYRTM,2024,123.334143263310,14.443790673449
$GNHDT,284.601,T*22
$PYRTM,2024,123.334148994016,14.443796404155
$GNGGA,080110.50,3413.09989397,N,12018.61228974,W,2,11,0.9,6.311,M,-36.946,M,7.4,0135*6D
$PYRTM,2024,123.334148994016,14.443796404155
$GNHDT,283.707,T*22
$PYRTM,2024,123.334154832280,14.443802242419
$GNGGA,080111.00,3413.09983803,N,12018.61310838,W,2,11,0.9,5.984,M,-36.946,M,4.0,0135*64
$PYRTM,2024,123.334154832280,14.443802242419
$GNHDT,283.806,T*2C
$PYRTM,2024,123.334160574340,14.443807984479
$GNGGA,080111.50,3413.09980641,N,12018.61388020,W,2,11,0.9,5.852,M,-36.946,M,4.4,0135*64
$PYRTM,2024,123.334160574340,14.443807984479
$GNHDT,283.400,T*26
$PYRTM,2024,123.334166408831,14.443813818970
$GNGGA,080112.00,3413.09980316,N,12018.61464013,W,2,11,0.9,5.803,M,-36.946,M,5.0,0135*61
$PYRTM,2024,123.334166408831,14.443813818970
$GNHDT,283.291,T*28
$PYRTM,2024,123.334172142755,14.443819552894
$GNGGA,080112.50,3413.09982545,N,12018.61546632,W,2,11,0.9,5.773,M,-36.946,M,5.4,0135*6E
$PYRTM,2024,123.334172142755,14.443819552894
$GNHDT,283.151,T*27
$PYRTM,2024,123.334177984294,14.443825394433
$GNGGA,080113.00,3413.09986911,N,12018.61637105,W,2,11,0.9,5.686,M,-36.946,M,6.0,0135*69
$PYRTM,2024,123.334177984294,14.443825394433
$GNHDT,283.493,T*2C
$PYRTM,2024,123.334183723345,14.443831133484
$GNGGA,080113.50,3413.09993248,N,12018.61731689,W,2,11,0.9,5.548,M,-36.947,M,6.4,0135*6F
$PYRTM,2024,123.334183723345,14.443831133484
$GNHDT,284.151,T*20
$PYRTM,2024,123.334189555729,14.443836965868
$GNGGA,080114.00,3413.10001506,N,12018.61825196,W,2,11,0.9,5.482,M,-36.947,M,7.0,0135*6B
$PYRTM,2024,123.334189555729,14.443836965868
$GNHDT,284.825,T*2A
$PYRTM,2024,123.334195294734,14.443842704873
$GNGGA,080114.50,3413.10009490,N,12018.61911152,W,2,11,0.9,5.618,M,-36.947,M,7.4,0135*63
$PYRTM,2024,123.334195294734,14.443842704873
$GNHDT,284.795,T*2E
$PYRTM,2024,123.334201133472,14.443848543611
$GNGGA,080115.00,3413.10013476,N,12018.61988323,W,2,11,0.9,6.039,M,-36.947,M,7.0,0135*62
$PYRTM,2024,123.334201133472,14.443848543611
$GNHDT,284.652,T*24
$PYRTM,2024,123.334206864560,14.443854274699
$GNGGA,080115.50,3413.10011790,N,12018.62060435,W,2,11,0.9,6.626,M,-36.947,M,7.4,0135*6E
$PYRTM,2024,123.334206864560,14.443854274699
$GNHDT,284.242,T*21
$PYRTM,2024,123.334212701875,14.443860112014
$GNGGA,080116.00,3413.10004462,N,12018.62132407,W,2,11,0.9,7.279,M,-36.947,M,7.0,0135*6E
$PYRTM,2024,123.334212701875,14.443860112014
$GNHDT,283.775,T*27
$PYRTM,2024,123.334218439340,14.443865849491
$GNGGA,080116.50,3413.09994717,N,12018.62209498,W,2,11,0.9,7.731,M,-36.947,M,7.4,0135*62
$PYRTM,2024,123.334218439340,14.443865849491
$GNHDT,283.556,T*24
$PYRTM,2024,123.334224282315,14.443871692454
$GNGGA,080117.00,3413.09984474,N,12018.62291906,W,2,11,0.9,7.845,M,-36.947,M,4.0,0135*61
$PYRTM,2024,123.334224282315,14.443871692454
$GNHDT,283.563,T*22
$PYRTM,2024,123.334230029120,14.443877439259
$GNGGA,080117.50,3413.09978357,N,12018.62379958,W,2,11,0.9,7.538,M,-36.947,M,4.4,0135*6E
$PYRTM,2024,123.334230029120,14.443877439259
$GNHDT,283.032,T*23
$PYRTM,2024,123.334235856053,14.443883266192
$GNGGA,080118.00,3413.09978785,N,12018.62472287,W,2,11,0.9,6.820,M,-36.947,M,5.0,0135*6A
$PYRTM,2024,123.334235856053,14.443883266192
$GNHDT,283.427,T*23
$PYRTM,2024,123.334241590428,14.443889000567
$GNGGA,080118.50,3413.09986145,N,12018.62563740,W,2,11,0.9,5.888,M,-36.947,M,5.4,0135*6E
$PYRTM,2024,123.334241590428,14.443889000567
$GNHDT,283.235,T*26
$PYRTM,2024,123.334247424919,14.443894835058
$GNGGA,080119.00,3413.09997139,N,12018.62652525,W,2,11,0.9,5.060,M,-36.947,M,6.0,0135*68
$PYRTM,2024,123.334247424919,14.443894835058
$GNHDT,283.395,T*2D
$PYRTM,2024,123.334253175046,14.443900585185
$GNGGA,080119.50,3413.10007188,N,12018.62736462,W,2,11,0.9,4.631,M,-36.947,M,6.4,0135*69
$PYRTM,2024,123.334253175046,14.443900585185
$GNHDT,283.883,T*21
$PYRTM,2024,123.334259009896,14.443906420035
$GNGGA,080120.00,3413.10013092,N,12018.62814486,W,2,11,0.9,4.729,M,-36.947,M,7.0,0135*61
$PYRTM,2024,123.334259009896,14.443906420035
$GNHDT,283.522,T*27
$PYRTM,2024,123.334264736389,14.443912146539
$GNGGA,080120.50,3413.10014679,N,12018.62887881,W,2,11,0.9,5.244,M,-36.947,M,7.4,0135*6A
$PYRTM,2024,123.334264736389,14.443912146539
$GNHDT,283.118,T*2A
$PYRTM,2024,123.334270573194,14.443917983333
$GNGGA,080121.00,3413.10010692,N,12018.62961233,W,2,11,0.9,6.001,M,-36.947,M,7.0,0135*61
$PYRTM,2024,123.334270573194,14.443917983333
$GNHDT,282.759,T*28
$PYRTM,2024,123.334276307836,14.443923717975
$GNGGA,080121.50,3413.10002245,N,12018.63040081,W,2,11,0.9,6.771,M,-36.947,M,7.4,0135*6D
$PYRTM,2024,123.334276307836,14.443923717975
$GNHDT,283.241,T*25
$PYRTM,2024,123.334282154433,14.443929564572
$GNGGA,080122.00,3413.09989637,N,12018.63127604,W,2,11,0.9,7.337,M,-36.947,M,7.0,0135*60
$PYRTM,2024,123.334282154433,14.443929564572
$GNHDT,282.858,T*26
$PYRTM,2024,123.334287882697,14.443935292836
$GNGGA,080122.50,3413.09978267,N,12018.63222720,W,2,11,0.9,7.543,M,-36.947,M,7.4,0135*6A
$PYRTM,2024,123.334287882697,14.443935292836
$GNHDT,282.475,T*25
$PYRTM,2024,123.334293719560,14.443941129699
$GNGGA,080123.00,3413.09971892,N,12018.63320182,W,2,11,0.9,7.294,M,-36.947,M,4.0,0135*60
$PYRTM,2024,123.334293719560,14.443941129699
$GNHDT,282.484,T*2B
$PYRTM,2024,123.334299462407,14.443946872546
$GNGGA,080123.50,3413.09973041,N,12018.63411049,W,2,11,0.9,6.783,M,-36.947,M,4.4,0135*64
$PYRTM,2024,123.334299462407,14.443946872546
$GNHDT,283.030,T*21
$PYRTM,2024,123.334305299028,14.443952709167
$GNGGA,080124.00,3413.09979447,N,12018.63487986,W,2,11,0.9,6.252,M,-36.947,M,5.0,0135*67
$PYRTM,2024,123.334305299028,14.443952709167
$GNHDT,283.279,T*2E
$PYRTM,2024,123.334311037986,14.443958448125
$GNGGA,080124.50,3413.09987856,N,12018.63554348,W,2,11,0.9,5.938,M,-36.947,M,5.4,0135*68
$PYRTM,2024,123.334311037986,14.443958448125
$GNHDT,282.921,T*29
$PYRTM,2024,123.334316875405,14.443964285544
$GNGGA,080125.00,3413.09994788,N,12018.63614798,W,2,11,0.9,5.916,M,-36.947,M,6.0,0135*67
$PYRTM,2024,123.334316875405,14.443964285544
$GNHDT,283.056,T*21
$PYRTM,2024,123.334322607755,14.443970017894
$GNGGA,080125.50,3413.09997964,N,12018.63678470,W,2,11,0.9,6.108,M,-36.947,M,6.4,0135*62
$PYRTM,2024,123.334322607755,14.443970017894
$GNHDT,283.526,T*23
$PYRTM,2024,123.334328447685,14.443975857824
$GNGGA,080126.00,3413.09997129,N,12018.63752340,W,2,11,0.9,6.295,M,-36.947,M,7.0,0135*6A
$PYRTM,2024,123.334328447685,14.443975857824
$GNHDT,283.121,T*20
$PYRTM,2024,123.334334180440,14.443981590579
$GNGGA,080126.50,3413.09993278,N,12018.63841802,W,2,11,0.9,6.329,M,-36.947,M,7.4,0135*6E
$PYRTM,2024,123.334334180440,14.443981590579
$GNHDT,282.684,T*29
$PYRTM,2024,123.334340023079,14.443987433218
$GNGGA,080127.00,3413.09987547,N,12018.63940804,W,2,11,0.9,6.208,M,-36.947,M,7.0,0135*64
$PYRTM,2024,123.334340023079,14.443987433218
$GNHDT,281.984,T*25
$PYRTM,2024,123.334345755845,14.443993165984
$GNGGA,080127.50,3413.09980779,N,12018.64039760,W,2,11,0.9,6.032,M,-36.947,M,7.4,0135*6B
$PYRTM,2024,123.334345755845,14.443993165984
$GNHDT,282.137,T*26
$PYRTM,2024,123.334351595961,14.443999006100
$GNGGA,080128.00,3413.09972781,N,12018.64127668,W,2,11,0.9,6.033,M,-36.947,M,7.0,0135*69
$PYRTM,2024,123.334351595961,14.443999006100
$GNHDT,281.816,T*2F
$PYRTM,2024,123.334357325405,14.444004735544
$GNGGA,080128.50,3413.09967055,N,12018.64200535,W,2,11,0.9,6.254,M,-36.947,M,7.4,0135*6C
$PYRTM,2024,123.334357325405,14.444004735544
$GNHDT,282.261,T*26
$PYRTM,2024,123.334363170417,14.444010580556
$GNGGA,080129.00,3413.09965505,N,12018.64265365,W,2,11,0.9,6.599,M,-36.947,M,4.0,0135*6B
$PYRTM,2024,123.334363170417,14.444010580556
$GNHDT,282.412,T*24
$PYRTM,2024,123.334368902928,14.444016313067
$GNGGA,080129.50,3413.09969978,N,12018.64331518,W,2,11,0.9,6.856,M,-36.947,M,4.4,0135*62
$PYRTM,2024,123.334368902928,14.444016313067
$GNHDT,282.702,T*26
$PYRTM,2024,123.334374741192,14.444022151331
$GNGGA,080130.00,3413.09977891,N,12018.64409993,W,2,11,0.9,6.809,M,-36.947,M,5.0,0135*6A
$PYRTM,2024,123.334374741192,14.444022151331
$GNHDT,283.108,T*2B
$PYRTM,2024,123.334380474132,14.444027884271
$GNGGA,080130.50,3413.09985396,N,12018.64500312,W,2,11,0.9,6.428,M,-36.947,M,5.4,0135*6E
$PYRTM,2024,123.334380474132,14.444027884271
$GNHDT,283.139,T*29
$PYRTM,2024,123.334386327037,14.444033737176
$GNGGA,080131.00,3413.09988749,N,12018.64594655,W,2,11,0.9,5.873,M,-36.947,M,6.0,0135*6C
$PYRTM,2024,123.334386327037,14.444033737176
$GNHDT,283.743,T*22
$PYRTM,2024,123.334392048252,14.444039458391
$GNGGA,080131.50,3413.09988733,N,12018.64685585,W,2,11,0.9,5.412,M,-36.947,M,6.4,0135*66
$PYRTM,2024,123.334392048252,14.444039458391
$GNHDT,283.116,T*24
$PYRTM,2024,123.334397895243,14.444045305382
$GNGGA,080132.00,3413.09985243,N,12018.64766827,W,2,11,0.9,5.239,M,-36.947,M,7.0,0135*6C
$PYRTM,2024,123.334397895243,14.444045305382
$GNHDT,283.136,T*26
$PYRTM,2024,123.334403624699,14.444051034838
$GNGGA,080132.50,3413.09980751,N,12018.64839716,W,2,11,0.9,5.408,M,-36.947,M,7.4,0135*62
$PYRTM,2024,123.334403624699,14.444051034838
$GNHDT,283.553,T*21
$PYRTM,2024,123.334409472002,14.444056882141
$GNGGA,080133.00,3413.09975425,N,12018.64908389,W,2,11,0.9,5.816,M,-36.947,M,7.0,0135*6A
$PYRTM,2024,123.334409472002,14.444056882141
$GNHDT,283.811,T*2A
$PYRTM,2024,123.334415201782,14.444062611921
$GNGGA,080133.50,3413.09971331,N,12018.64977009,W,2,11,0.9,6.323,M,-36.947,M,7.4,0135*60
$PYRTM,2024,123.334415201782,14.444062611921
$GNHDT,284.053,T*23
$PYRTM,2024,123.334421040787,14.444068450926
$GNGGA,080134.00,3413.09972270,N,12018.65049985,W,2,11,0.9,6.769,M,-36.947,M,7.0,0135*63
$PYRTM,2024,123.334421040787,14.444068450926
$GNHDT,284.191,T*2C
$PYRTM,2024,123.334426769745,14.444074179896
$GNGGA,080134.50,3413.09979689,N,12018.65128991,W,2,11,0.9,6.970,M,-36.947,M,7.4,0135*6E
$PYRTM,2024,123.334426769745,14.444074179896
$GNHDT,284.106,T*22
$PYRTM,2024,123.334432610556,14.444080020694
$GNGGA,080135.00,3413.09988515,N,12018.65209967,W,2,11,0.9,6.963,M,-36.947,M,4.0,0135*6E
$PYRTM,2024,123.334432610556,14.444080020694
$GNHDT,284.200,T*27
$PYRTM,2024,123.334438349988,14.444085760127
$GNGGA,080135.50,3413.09994305,N,12018.65291132,W,2,11,0.9,6.800,M,-36.947,M,4.4,0135*68
$PYRTM,2024,123.334438349988,14.444085760127
$GNHDT,284.139,T*2E
$PYRTM,2024,123.334444188819,14.444091598958
$GNGGA,080136.00,3413.09995452,N,12018.65371117,W,2,11,0.9,6.562,M,-36.947,M,5.0,0135*6E
$PYRTM,2024,123.334444188819,14.444091598958
$GNHDT,284.166,T*24
$PYRTM,2024,123.334449922419,14.444097332558
$GNGGA,080136.50,3413.09994301,N,12018.65448558,W,2,11,0.9,6.345,M,-36.947,M,5.4,0135*6E
$PYRTM,2024,123.334449922419,14.444097332558
$GNHDT,284.169,T*2B
$PYRTM,2024,123.334455758056,14.444103168194
$GNGGA,080137.00,3413.09993523,N,12018.65524397,W,2,11,0.9,6.173,M,-36.947,M,6.0,0135*65
$PYRTM,2024,123.334455758056,14.444103168194
$GNHDT,284.125,T*23
$PYRTM,2024,123.334461497639,14.444108907778
$GNGGA,080137.50,3413.09993972,N,12018.65601694,W,2,11,0.9,6.059,M,-36.947,M,6.4,0135*67
$PYRTM,2024,123.334461497639,14.444108907778
$GNHDT,283.946,T*29
$PYRTM,2024,123.334467335914,14.444114746053
$GNGGA,080138.00,3413.09994536,N,12018.65681794,W,2,11,0.9,5.993,M,-36.947,M,7.0,0135*66
$PYRTM,2024,123.334467335914,14.444114746053
$GNHDT,283.739,T*2F
$PYRTM,2024,123.334473070127,14.444120480266
$GNGGA,080138.50,3413.09992637,N,12018.65763940,W,2,11,0.9,5.996,M,-36.947,M,7.4,0135*6C
$PYRTM,2024,123.334473070127,14.444120480266
$GNHDT,283.976,T*2A
$PYRTM,2024,123.334478907500,14.444126317650
$GNGGA,080139.00,3413.09988417,N,12018.65848619,W,2,11,0.9,6.057,M,-36.947,M,7.0,0135*65
$PYRTM,2024,123.334478907500,14.444126317650
$GNHDT,284.116,T*23
$PYRTM,2024,123.334484645185,14.444132055324
$GNGGA,080139.50,3413.09985931,N,12018.65934049,W,2,11,0.9,6.138,M,-36.947,M,7.4,0135*61
$PYRTM,2024,123.334484645185,14.444132055324
$GNHDT,284.033,T*25
$PYRTM,2024,123.334490482731,14.444137892870
$GNGGA,080140.00,3413.09987540,N,12018.66018542,W,2,11,0.9,6.192,M,-36.947,M,7.0,0135*6C
$PYRTM,2024,123.334490482731,14.444137892870
$GNHDT,283.937,T*2F
$PYRTM,2024,123.334496218796,14.444143628935
$GNGGA,080140.50,3413.09993497,N,12018.66103332,W,2,11,0.9,6.196,M,-36.947,M,7.4,0135*6D
$PYRTM,2024,123.334496218796,14.444143628935
$GNHDT,283.760,T*23
$PYRTM,2024,123.334502057315,14.444149467454
$GNGGA,080141.00,3413.10002666,N,12018.66191050,W,2,11,0.9,6.080,M,-36.947,M,4.0,0135*61
$PYRTM,2024,123.334502057315,14.444149467454
$GNHDT,284.211,T*27
$PYRTM,2024,123.334507792616,14.444155202755
$GNGGA,080141.50,3413.10013544,N,12018.66283717,W,2,11,0.9,5.825,M,-36.947,M,4.4,0135*63
$PYRTM,2024,123.334507792616,14.444155202755
$GNHDT,283.824,T*2C
$PYRTM,2024,123.334513632755,14.444161042894
$GNGGA,080142.00,3413.10025890,N,12018.66380721,W,2,11,0.9,5.456,M,-36.947,M,5.0,0135*6E
$PYRTM,2024,123.334513632755,14.444161042894
$GNHDT,284.314,T*23
$PYRTM,2024,123.334519367199,14.444166777350
$GNGGA,080142.50,3413.10035735,N,12018.66475137,W,2,11,0.9,5.210,M,-36.947,M,5.4,0135*66
$PYRTM,2024,123.334519367199,14.444166777350
$GNHDT,284.357,T*24
$PYRTM,2024,123.334525204977,14.444172615116
$GNGGA,080143.00,3413.10037704,N,12018.66557524,W,2,11,0.9,5.360,M,-36.947,M,6.0,0135*64
$PYRTM,2024,123.334525204977,14.444172615116
$GNHDT,284.032,T*24
$PYRTM,2024,123.334530940845,14.444178350984
$GNGGA,080143.50,3413.10030995,N,12018.66626919,W,2,11,0.9,5.954,M,-36.947,M,6.4,0135*6E
$PYRTM,2024,123.334530940845,14.444178350984
$GNHDT,283.898,T*2B
$PYRTM,2024,123.334536782338,14.444184192477
$GNGGA,080144.00,3413.10019533,N,12018.66689177,W,2,11,0.9,6.825,M,-36.947,M,7.0,0135*63
$PYRTM,2024,123.334536782338,14.444184192477
$GNHDT,283.722,T*25
$PYRTM,2024,123.334542517650,14.444189927789
$GNGGA,080144.50,3413.10010514,N,12018.66753214,W,2,11,0.9,7.620,M,-36.947,M,7.4,0135*64
$PYRTM,2024,123.334542517650,14.444189927789
$GNHDT,284.052,T*22
$PYRTM,2024,123.334548354398,14.444195764537
$GNGGA,080145.00,3413.10010278,N,12018.66830338,W,2,11,0.9,7.982,M,-36.947,M,7.0,0135*6B
$PYRTM,2024,123.334548354398,14.444195764537
$GNHDT,284.179,T*2A
$PYRTM,2024,123.334554086447,14.444201496586
$GNGGA,080145.50,3413.10017344,N,12018.66915724,W,2,11,0.9,7.808,M,-36.947,M,7.4,0135*6F
$PYRTM,2024,123.334554086447,14.444201496586
$GNHDT,283.624,T*22
$PYRTM,2024,123.334559927315,14.444207337454
$GNGGA,080146.00,3413.10026945,N,12018.67003218,W,2,11,0.9,7.240,M,-36.947,M,7.0,0135*67
$PYRTM,2024,123.334559927315,14.444207337454
$GNHDT,283.389,T*20
$PYRTM,2024,123.334565662245,14.444213072396
$GNGGA,080146.50,3413.10033461,N,12018.67087455,W,2,11,0.9,6.475,M,-36.947,M,7.4,0135*6B
$PYRTM,2024,123.334565662245,14.444213072396
$GNHDT,282.734,T*23
$PYRTM,2024,123.334571500081,14.444218910231
$GNGGA,080147.00,3413.10033945,N,12018.67166648,W,2,11,0.9,5.814,M,-36.947,M,4.0,0135*6B
$PYRTM,2024,123.334571500081,14.444218910231
$GNHDT,282.418,T*2E
$PYRTM,2024,123.334577239491,14.444224649630
$GNGGA,080147.50,3413.10029077,N,12018.67243001,W,2,11,0.9,5.396,M,-36.947,M,4.4,0135*67
$PYRTM,2024,123.334577239491,14.444224649630
$GNHDT,282.936,T*2F
$PYRTM,2024,123.334583076655,14.444230486794
$GNGGA,080148.00,3413.10023075,N,12018.67320333,W,2,11,0.9,5.237,M,-36.947,M,5.0,0135*6C
$PYRTM,2024,123.334583076655,14.444230486794
$GNHDT,283.012,T*21
$PYRTM,2024,123.334588806968,14.444236217106
$GNGGA,080148.50,3413.10018654,N,12018.67401625,W,2,11,0.9,5.241,M,-36.947,M,5.4,0135*67
$PYRTM,2024,123.334588806968,14.444236217106
$GNHDT,282.842,T*2D
$PYRTM,2024,123.334594652164,14.444242062303
$GNGGA,080149.00,3413.10020005,N,12018.67488969,W,2,11,0.9,5.279,M,-36.947,M,6.0,0135*60
$PYRTM,2024,123.334594652164,14.444242062303
$GNHDT,282.962,T*2E
$PYRTM,2024,123.334600381308,14.444247791447
$GNGGA,080149.50,3413.10029970,N,12018.67581421,W,2,11,0.9,5.298,M,-36.947,M,6.4,0135*65
$PYRTM,2024,123.334600381308,14.444247791447
$GNHDT,282.954,T*2B
$PYRTM,2024,123.334606230428,14.444253640579
$GNGGA,080150.00,3413.10046489,N,12018.67673463,W,2,11,0.9,5.397,M,-36.947,M,7.0,0135*69
$PYRTM,2024,123.334606230428,14.444253640579
$GNHDT,283.268,T*2E
$PYRTM,2024,123.334611956748,14.444259366898
$GNGGA,080150.50,3413.10061931,N,12018.67757508,W,2,11,0.9,5.704,M,-36.947,M,7.4,0135*66
$PYRTM,2024,123.334611956748,14.444259366898
$GNHDT,283.677,T*24
$PYRTM,2024,123.334617800313,14.444265210451
$GNGGA,080151.00,3413.10071069,N,12018.67833362,W,2,11,0.9,6.259,M,-36.947,M,7.0,0135*6A
$PYRTM,2024,123.334617800313,14.444265210451
$GNHDT,283.512,T*24
$PYRTM,2024,123.334623532801,14.444270942940
$GNGGA,080151.50,3413.10072914,N,12018.67904865,W,2,11,0.9,6.939,M,-36.947,M,7.4,0135*6F
$PYRTM,2024,123.334623532801,14.444270942940
$GNHDT,283.390,T*28
$PYRTM,2024,123.334629369630,14.444276779780
$GNGGA,080152.00,3413.10067129,N,12018.67976072,W,2,11,0.9,7.563,M,-36.947,M,7.0,0135*66
$PYRTM,2024,123.334629369630,14.444276779780
$GNHDT,282.843,T*2C
$PYRTM,2024,123.334635107894,14.444282518032
$GNGGA,080152.50,3413.10056179,N,12018.68054361,W,2,11,0.9,7.854,M,-36.947,M,7.4,0135*6E
$PYRTM,2024,123.334635107894,14.444282518032
$GNHDT,282.284,T*2D
$PYRTM,2024,123.334640951285,14.444288361424
$GNGGA,080153.00,3413.10043748,N,12018.68143099,W,2,11,0.9,7.634,M,-36.947,M,4.0,0135*66
$PYRTM,2024,123.334640951285,14.444288361424
$GNHDT,282.310,T*21
$PYRTM,2024,123.334646683403,14.444294093542
$GNGGA,080153.50,3413.10035218,N,12018.68238019,W,2,11,0.9,6.977,M,-36.947,M,4.4,0135*68
$PYRTM,2024,123.334646683403,14.444294093542
$GNHDT,281.746,T*25
$PYRTM,2024,123.334652523032,14.444299933171
$GNGGA,080154.00,3413.10033308,N,12018.68329713,W,2,11,0.9,6.171,M,-36.947,M,5.0,0135*6B
$PYRTM,2024,123.334652523032,14.444299933171
$GNHDT,281.574,T*26
$PYRTM,2024,123.334658259618,14.444305669757
$GNGGA,080154.50,3413.10037173,N,12018.68409974,W,2,11,0.9,5.549,M,-36.947,M,5.4,0135*66
$PYRTM,2024,123.334658259618,14.444305669757
$GNHDT,282.005,T*26
$PYRTM,2024,123.334664094919,14.444311505058
$GNGGA,080155.00,3413.10044206,N,12018.68477396,W,2,11,0.9,5.372,M,-36.947,M,6.0,0135*61
$PYRTM,2024,123.334664094919,14.444311505058
$GNHDT,282.187,T*2D
$PYRTM,2024,123.334669825880,14.444317236019
$GNGGA,080155.50,3413.10051955,N,12018.68535150,W,2,11,0.9,5.646,M,-36.947,M,6.4,0135*64
$PYRTM,2024,123.334669825880,14.444317236019
$GNHDT,282.457,T*25
$PYRTM,2024,123.334675669745,14.444323079884
$GNGGA,080156.00,3413.10058839,N,12018.68593008,W,2,11,0.9,6.104,M,-36.947,M,7.0,0135*67
$PYRTM,2024,123.334675669745,14.444323079884
$GNHDT,282.860,T*2D
$PYRTM,2024,123.334681399410,14.444328809549
$GNGGA,080156.50,3413.10065012,N,12018.68659885,W,2,11,0.9,6.550,M,-36.948,M,7.4,0135*6B
$PYRTM,2024,123.334681399410,14.444328809549
$GNHDT,282.799,T*24
$PYRTM,2024,123.334687240602,14.444334650741
$GNGGA,080157.00,3413.10069169,N,12018.68742769,W,2,11,0.9,6.712,M,-36.948,M,7.0,0135*68
$PYRTM,2024,123.334687240602,14.444334650741
$GNHDT,282.673,T*21
$PYRTM,2024,123.334692978495,14.444340388646
$GNGGA,080157.50,3413.10069487,N,12018.68837322,W,2,11,0.9,6.569,M,-36.948,M,7.4,0135*64
$PYRTM,2024,123.334692978495,14.444340388646
$GNHDT,282.913,T*28
$PYRTM,2024,123.334698817951,14.444346228090
$GNGGA,080158.00,3413.10067152,N,12018.68935002,W,2,11,0.9,6.217,M,-36.948,M,7.0,0135*65
$PYRTM,2024,123.334698817951,14.444346228090
$GNHDT,283.216,T*27
$PYRTM,2024,123.334704547604,14.444351957743
$GNGGA,080158.50,3413.10064067,N,12018.69028767,W,2,11,0.9,5.843,M,-36.948,M,7.4,0135*68
$PYRTM,2024,123.334704547604,14.444351957743
$GNHDT,283.720,T*27
$PYRTM,2024,123.334710391204,14.444357801354
$GNGGA,080159.00,3413.10062934,N,12018.69114393,W,2,11,0.9,5.586,M,-36.948,M,4.0,0135*67
$PYRTM,2024,123.334710391204,14.444357801354
$GNHDT,283.833,T*2A
$PYRTM,2024,123.334716120289,14.444363530428
$GNGGA,080159.50,3413.10064736,N,12018.69189668,W,2,11,0.9,5.599,M,-36.948,M,4.4,0135*67
$PYRTM,2024,123.334716120289,14.444363530428
$GNHDT,283.142,T*25
$PYRTM,2024,123.334721965868,14.444369376007
$GNGGA,080200.00,3413.10067538,N,12018.69259329,W,2,11,0.9,5.852,M,-36.948,M,5.0,0135*63
$PYRTM,2024,123.334721965868,14.444369376007
$GNHDT,283.200,T*20
$PYRTM,2024,123.334727702708,14.444375112847
$GNGGA,080200.50,3413.10070557,N,12018.69327249,W,2,11,0.9,6.237,M,-36.948,M,5.4,0135*68
$PYRTM,2024,123.334727702708,14.444375112847
$GNHDT,282.663,T*20
$PYRTM,2024,123.334733535833,14.444380945972
$GNGGA,080201.00,3413.10074064,N,12018.69398480,W,2,11,0.9,6.587,M,-36.948,M,6.0,0135*61
$PYRTM,2024,123.334733535833,14.444380945972
$GNHDT,282.535,T*20
$PYRTM,2024,123.334739269074,14.444386679213
$GNGGA,080201.50,3413.10079382,N,12018.69479256,W,2,11,0.9,6.701,M,-36.948,M,6.4,0135*6F
$PYRTM,2024,123.334739269074,14.444386679213
$GNHDT,282.847,T*28
$PYRTM,2024,123.334745110856,14.444392520995
$GNGGA,080202.00,3413.10084704,N,12018.69566136,W,2,11,0.9,6.631,M,-36.948,M,7.0,0135*6C
$PYRTM,2024,123.334745110856,14.444392520995
$GNHDT,282.978,T*25
$PYRTM,2024,123.334750847905,14.444398258044
$GNGGA,080202.50,3413.10086835,N,12018.69652929,W,2,11,0.9,6.511,M,-36.948,M,7.4,0135*61
$PYRTM,2024,123.334750847905,14.444398258044
$GNHDT,282.914,T*2F
$PYRTM,2024,123.334756685856,14.444404095995
$GNGGA,080203.00,3413.10084798,N,12018.69734613,W,2,11,0.9,6.446,M,-36.948,M,7.0,0135*6F
$PYRTM,2024,123.334756685856,14.444404095995
$GNHDT,282.484,T*2B
$PYRTM,2024,123.334762417234,14.444409827373
$GNGGA,080203.50,3413.10078823,N,12018.69811019,W,2,11,0.9,6.510,M,-36.948,M,7.4,0135*64
$PYRTM,2024,123.334762417234,14.444409827373
$GNHDT,282.309,T*29
$PYRTM,2024,123.334768260405,14.444415670544
$GNGGA,080204.00,3413.10071179,N,12018.69885339,W,2,11,0.9,6.656,M,-36.948,M,7.0,0135*60
$PYRTM,2024,123.334768260405,14.444415670544
$GNHDT,282.180,T*2A
$PYRTM,2024,123.334773995926,14.444421406065
$GNGGA,080204.50,3413.10065513,N,12018.69961268,W,2,11,0.9,6.788,M,-36.948,M,7.4,0135*60
$PYRTM,2024,123.334773995926,14.444421406065
$GNHDT,282.413,T*25
$PYRTM,2024,123.334779836840,14.444427246979
$GNGGA,080205.00,3413.10062447,N,12018.70038126,W,2,11,0.9,6.837,M,-36.948,M,4.0,0135*6B
$PYRTM,2024,123.334779836840,14.444427246979
$GNHDT,282.925,T*2D
$PYRTM,2024,123.334785568137,14.444432978275
$GNGGA,080205.50,3413.10063753,N,12018.70115757,W,2,11,0.9,6.775,M,-36.948,M,4.4,0135*6A
$PYRTM,2024,123.334785568137,14.444432978275
$GNHDT,283.284,T*2C
$PYRTM,2024,123.334791409306,14.444438819444
$GNGGA,080206.00,3413.10070716,N,12018.70194423,W,2,11,0.9,6.584,M,-36.948,M,5.0,0135*6F
$PYRTM,2024,123.334791409306,14.444438819444
$GNHDT,282.899,T*2B
$PYRTM,2024,123.334797145046,14.444444555197
$GNGGA,080206.50,3413.10081841,N,12018.70274901,W,2,11,0.9,6.278,M,-36.948,M,5.4,0135*69
$PYRTM,2024,123.334797145046,14.444444555197
$GNHDT,282.645,T*24
$PYRTM,2024,123.334802982431,14.444450392569
$GNGGA,080207.00,3413.10094175,N,12018.70358975,W,2,11,0.9,5.911,M,-36.948,M,6.0,0135*6B
$PYRTM,2024,123.334802982431,14.444450392569
$GNHDT,282.484,T*2B
$PYRTM,2024,123.334808715602,14.444456125752
$GNGGA,080207.50,3413.10102849,N,12018.70447329,W,2,11,0.9,5.584,M,-36.948,M,6.4,0135*68
$PYRTM,2024,123.334808715602,14.444456125752
$GNHDT,282.772,T*21
$PYRTM,2024,123.334814560278,14.444461970417
$GNGGA,080208.00,3413.10103486,N,12018.70539023,W,2,11,0.9,5.442,M,-36.948,M,7.0,0135*63
$PYRTM,2024,123.334814560278,14.444461970417
$GNHDT,282.670,T*22
$PYRTM,2024,123.334820295104,14.444467705243
$GNGGA,080208.50,3413.10095210,N,12018.70629804,W,2,11,0.9,5.567,M,-36.948,M,7.4,0135*6C
$PYRTM,2024,123.334820295104,14.444467705243
$GNHDT,282.355,T*20
$PYRTM,2024,123.334826137755,14.444473547894
$GNGGA,080209.00,3413.10084098,N,12018.70716705,W,2,11,0.9,5.908,M,-36.948,M,7.0,0135*68
$PYRTM,2024,123.334826137755,14.444473547894
$GNHDT,282.447,T*24
$PYRTM,2024,123.334831861516,14.444479271655
$GNGGA,080209.50,3413.10075933,N,12018.70797535,W,2,11,0.9,6.337,M,-36.948,M,7.4,0135*62
$PYRTM,2024,123.334831861516,14.444479271655
$GNHDT,281.943,T*2E
$PYRTM,2024,123.334837707928,14.444485118067
$GNGGA,080210.00,3413.10074664,N,12018.70875522,W,2,11,0.9,6.730,M,-36.948,M,7.0,0135*61
$PYRTM,2024,123.334837707928,14.444485118067
$GNHDT,281.859,T*24
$PYRTM,2024,123.334843440625,14.444490850764
$GNGGA,080210.50,3413.10077579,N,12018.70954392,W,2,11,0.9,6.997,M,-36.948,M,7.4,0135*60
$PYRTM,2024,123.334843440625,14.444490850764
$GNHDT,281.772,T*22
$PYRTM,2024,123.334849279201,14.444496689340
$GNGGA,080211.00,3413.10080408,N,12018.71037598,W,2,11,0.9,7.059,M,-36.948,M,4.0,0135*67
$PYRTM,2024,123.334849279201,14.444496689340
$GNHDT,281.613,T*24
$PYRTM,2024,123.334855016238,14.444502426377
$GNGGA,080211.50,3413.10081865,N,12018.71126429,W,2,11,0.9,6.916,M,-36.948,M,4.4,0135*69
$PYRTM,2024,123.334855016238,14.444502426377
$GNHDT,281.547,T*26
$PYRTM,2024,123.334860856968,14.444508267106
$GNGGA,080212.00,3413.10081770,N,12018.71217133,W,2,11,0.9,6.630,M,-36.948,M,5.0,0135*65
$PYRTM,2024,123.334860856968,14.444508267106
$GNHDT,281.813,T*2A
$PYRTM,2024,123.334866586435,14.444513996574
$GNGGA,080212.50,3413.10081320,N,12018.71305316,W,2,11,0.9,6.286,M,-36.948,M,5.4,0135*6B
$PYRTM,2024,123.334866586435,14.444513996574
$GNHDT,281.918,T*20
$PYRTM,2024,123.334872424630,14.444519834769
$GNGGA,080213.00,3413.10079681,N,12018.71388202,W,2,11,0.9,6.032,M,-36.948,M,6.0,0135*6D
$PYRTM,2024,123.334872424630,14.444519834769
$GNHDT,281.882,T*22
$PYRTM,2024,123.334878162535,14.444525572685
$GNGGA,080213.50,3413.10076956,N,12018.71466852,W,2,11,0.9,5.937,M,-36.948,M,6.4,0135*61
$PYRTM,2024,123.334878162535,14.444525572685
$GNHDT,282.414,T*22
$PYRTM,2024,123.334884002859,14.444531412998
$GNGGA,080214.00,3413.10073904,N,12018.71544986,W,2,11,0.9,6.004,M,-36.948,M,7.0,0135*67
$PYRTM,2024,123.334884002859,14.444531412998
$GNHDT,282.276,T*20
$PYRTM,2024,123.334889736574,14.444537146713
$GNGGA,080214.50,3413.10069916,N,12018.71626128,W,2,11,0.9,6.152,M,-36.948,M,7.4,0135*67
$PYRTM,2024,123.334889736574,14.444537146713
$GNHDT,281.736,T*22
$PYRTM,2024,123.334895579641,14.444542989780
$GNGGA,080215.00,3413.10064547,N,12018.71709244,W,2,11,0.9,6.373,M,-36.948,M,7.0,0135*66
$PYRTM,2024,123.334895579641,14.444542989780
$GNHDT,282.153,T*24
$PYRTM,2024,123.334901307361,14.444548717500
$GNGGA,080215.50,3413.10057740,N,12018.71794856,W,2,11,0.9,6.598,M,-36.948,M,7.4,0135*6C
$PYRTM,2024,123.334901307361,14.444548717500
$GNHDT,281.914,T*2C
$PYRTM,2024,123.334907149259,14.444554559410
$GNGGA,080216.00,3413.10052181,N,12018.71883239,W,2,11,0.9,6.737,M,-36.948,M,7.0,0135*6D
$PYRTM,2024,123.334907149259,14.444554559410
$GNHDT,281.874,T*2B
$PYRTM,2024,123.334912882164,14.444560292303
$GNGGA,080216.50,3413.10052265,N,12018.71973942,W,2,11,0.9,6.694,M,-36.948,M,7.4,0135*64
$PYRTM,2024,123.334912882164,14.444560292303
$GNHDT,281.557,T*27
$PYRTM,2024,123.334918722199,14.444566132338
$GNGGA,080217.00,3413.10058431,N,12018.72066894,W,2,11,0.9,6.416,M,-36.948,M,4.0,0135*66
$PYRTM,2024,123.334918722199,14.444566132338
$GNHDT,281.238,T*29
$PYRTM,2024,123.334924458993,14.444571869132
$GNGGA,080217.50,3413.10067151,N,12018.72161302,W,2,11,0.9,6.015,M,-36.948,M,4.4,0135*6D
$PYRTM,2024,123.334924458993,14.444571869132
$GNHDT,282.020,T*21
$PYRTM,2024,123.334930298704,14.444577708843
$GNGGA,080218.00,3413.10075052,N,12018.72253323,W,2,11,0.9,5.675,M,-36.948,M,5.0,0135*61
$PYRTM,2024,123.334930298704,14.444577708843
$GNHDT,282.194,T*2F
$PYRTM,2024,123.334936031690,14.444583441829
$GNGGA,080218.50,3413.10077625,N,12018.72339336,W,2,11,0.9,5.604,M,-36.948,M,5.4,0135*6B
$PYRTM,2024,123.334936031690,14.444583441829
$GNHDT,281.965,T*2A
$PYRTM,2024,123.334941871447,14.444589281586
$GNGGA,080219.00,3413.10073516,N,12018.72419599,W,2,11,0.9,5.841,M,-36.948,M,6.0,0135*66
$PYRTM,2024,123.334941871447,14.444589281586
$GNHDT,281.834,T*2F
$PYRTM,2024,123.334947610509,14.444595020648
$GNGGA,080219.50,3413.10064202,N,12018.72498287,W,2,11,0.9,6.257,M,-36.948,M,6.4,0135*6C
$PYRTM,2024,123.334947610509,14.444595020648
$GNHDT,282.161,T*25
$PYRTM,2024,123.334953443519,14.444600853657
$GNGGA,080220.00,3413.10052655,N,12018.72580046,W,2,11,0.9,6.690,M,-36.948,M,7.0,0135*6D
$PYRTM,2024,123.334953443519,14.444600853657
$GNHDT,281.992,T*22
$PYRTM,2024,123.334959179618,14.444606589757
$GNGGA,080220.50,3413.10044043,N,12018.72666759,W,2,11,0.9,6.981,M,-36.948,M,7.4,0135*67
$PYRTM,2024,123.334959179618,14.444606589757
$GNHDT,281.714,T*22
$PYRTM,2024,123.334965014907,14.444612425058
$GNGGA,080221.00,3413.10041955,N,12018.72757627,W,2,11,0.9,7.033,M,-36.948,M,7.0,0135*66
$PYRTM,2024,123.334965014907,14.444612425058
$GNHDT,281.696,T*29
$PYRTM,2024,123.334970754132,14.444618164271
$GNGGA,080221.50,3413.10044900,N,12018.72848678,W,2,11,0.9,6.920,M,-36.948,M,7.4,0135*63
$PYRTM,2024,123.334970754132,14.444618164271
$GNHDT,281.544,T*25
$PYRTM,2024,123.334976590868,14.444624001007
$GNGGA,080222.00,3413.10048734,N,12018.72935581,W,2,11,0.9,6.728,M,-36.948,M,7.0,0135*6C
$PYRTM,2024,123.334976590868,14.444624001007
$GNHDT,281.189,T*20
$PYRTM,2024,123.334982329688,14.444629739826
$GNGGA,080222.50,3413.10050253,N,12018.73016058,W,2,11,0.9,6.582,M,-36.948,M,7.4,0135*6A
$PYRTM,2024,123.334982329688,14.444629739826
$GNHDT,281.572,T*20
$PYRTM,2024,123.334988170880,14.444635581019
$GNGGA,080223.00,3413.10048008,N,12018.73091839,W,2,11,0.9,6.534,M,-36.948,M,4.0,0135*61
$PYRTM,2024,123.334988170880,14.444635581019
$GNHDT,281.688,T*26
$PYRTM,2024,123.334993904873,14.444641315012
$GNGGA,080223.50,3413.10044374,N,12018.73167620,W,2,11,0.9,6.524,M,-36.948,M,4.4,0135*6B
$PYRTM,2024,123.334993904873,14.444641315012
$GNHDT,281.795,T*2B
$PYRTM,2024,123.334999740683,14.444647150822
$GNGGA,080224.00,3413.10042723,N,12018.73249083,W,2,11,0.9,6.428,M,-36.948,M,5.0,0135*61
$PYRTM,2024,123.334999740683,14.444647150822
$GNHDT,282.005,T*26
$PYRTM,2024,123.335005477662,14.444652887801
$GNGGA,080224.50,3413.10044645,N,12018.73340867,W,2,11,0.9,6.165,M,-36.948,M,5.4,0135*61
$PYRTM,2024,123.335005477662,14.444652887801
$GNHDT,282.007,T*24
$PYRTM,2024,123.335011318565,14.444658728715
$GNGGA,080225.00,3413.10048574,N,12018.73440595,W,2,11,0.9,5.772,M,-36.948,M,6.0,0135*6B
$PYRTM,2024,123.335011318565,14.444658728715
$GNHDT,282.305,T*25
$PYRTM,2024,123.335017052141,14.444664462280
$GNGGA,080225.50,3413.10052813,N,12018.73541904,W,2,11,0.9,5.467,M,-36.948,M,6.4,0135*6E
$PYRTM,2024,123.335017052141,14.444664462280
$GNHDT,282.246,T*23
$PYRTM,2024,123.335022892060,14.444670302199
$GNGGA,080226.00,3413.10054003,N,12018.73635668,W,2,11,0.9,5.480,M,-36.948,M,7.0,0135*6E
$PYRTM,2024,123.335022892060,14.444670302199
$GNHDT,282.151,T*26
$PYRTM,2024,123.335028629745,14.444676039884
$GNGGA,080226.50,3413.10049131,N,12018.73717170,W,2,11,0.9,5.936,M,-36.948,M,7.4,0135*6C
$PYRTM,2024,123.335028629745,14.444676039884
$GNHDT,282.073,T*27
$PYRTM,2024,123.335034467384,14.444681877523
$GNGGA,080227.00,3413.10038253,N,12018.73788700,W,2,11,0.9,6.698,M,-36.948,M,7.0,0135*62
$PYRTM,2024,123.335034467384,14.444681877523
$GNHDT,281.676,T*27
$PYRTM,2024,123.335040204387,14.444687614525
$GNGGA,080227.50,3413.10025714,N,12018.73858290,W,2,11,0.9,7.458,M,-36.948,M,7.4,0135*68
$PYRTM,2024,123.335040204387,14.444687614525
$GNHDT,281.495,T*28
$PYRTM,2024,123.335046037639,14.444693447789
$GNGGA,080228.00,3413.10018167,N,12018.73938457,W,2,11,0.9,7.852,M,-36.948,M,7.0,0135*66
$PYRTM,2024,123.335046037639,14.444693447789
$GNHDT,281.874,T*2B
$PYRTM,2024,123.335051779676,14.444699189826
$GNGGA,080228.50,3413.10018011,N,12018.74034889,W,2,11,0.9,7.614,M,-36.948,M,7.4,0135*66
$PYRTM,2024,123.335051779676,14.444699189826
$GNHDT,281.101,T*20
$PYRTM,2024,123.335057623148,14.444705033287
$GNGGA,080229.00,3413.10020011,N,12018.74137504,W,2,11,0.9,6.881,M,-36.948,M,4.0,0135*67
$PYRTM,2024,123.335057623148,14.444705033287
$GNHDT,280.929,T*23
$PYRTM,2024,123.335063352164,14.444710762315
