$PYRTM,2024,122.416666735012,13.526314145150
$GNGGA,100000.00,3334.93441127,N,11950.78829454,W,2,11,0.9,5.996,M,-37.446,M,5.0,0135*66
$PYRTM,2024,122.416666735012,13.526314145150
$GNHDT,292.448,T*2A
$PYRTM,2024,122.416672459757,13.526319869896
$GNGGA,100000.50,3334.93482251,N,11950.78964254,W,2,11,0.9,5.985,M,-37.446,M,5.4,0135*66
$PYRTM,2024,122.416672459757,13.526319869896
$GNHDT,292.474,T*25
$PYRTM,2024,122.416678301435,13.526325711574
$GNGGA,100001.00,3334.93526233,N,11950.79104139,W,2,11,0.9,5.768,M,-37.446,M,6.0,0135*64
$PYRTM,2024,122.416678301435,13.526325711574
$GNHDT,292.457,T*24
$PYRTM,2024,122.416684038935,13.526331449074
$GNGGA,100001.50,3334.93572198,N,11950.79247719,W,2,11,0.9,5.402,M,-37.446,M,6.4,0135*69
$PYRTM,2024,122.416684038935,13.526331449074
$GNHDT,292.188,T*23
$PYRTM,2024,122.416689871412,13.526337281562
$GNGGA,100002.00,3334.93616854,N,11950.79391574,W,2,11,0.9,4.993,M,-37.446,M,7.0,0135*65
$PYRTM,2024,122.416689871412,13.526337281562
$GNHDT,292.160,T*25
$PYRTM,2024,122.416695615185,13.526343025324
$GNGGA,100002.50,3334.93656701,N,11950.79531854,W,2,11,0.9,4.794,M,-37.446,M,7.4,0135*65
$PYRTM,2024,122.416695615185,13.526343025324
$GNHDT,292.116,T*24
$PYRTM,2024,122.416701459340,13.526348869479
$GNGGA,100003.00,3334.93691446,N,11950.79665078,W,2,11,0.9,4.963,M,-37.446,M,7.0,0135*6C
$PYRTM,2024,122.416701459340,13.526348869479
$GNHDT,292.244,T*20
$PYRTM,2024,122.416707187905,13.526354598044
$GNGGA,100003.50,3334.93725548,N,11950.79793744,W,2,11,0.9,5.354,M,-37.446,M,7.4,0135*63
$PYRTM,2024,122.416707187905,13.526354598044
$GNHDT,292.080,T*2A
$PYRTM,2024,122.416713021782,13.526360431921
$GNGGA,100004.00,3334.93761046,N,11950.79921801,W,2,11,0.9,5.878,M,-37.446,M,7.0,0135*62
$PYRTM,2024,122.416713021782,13.526360431921
$GNHDT,291.995,T*24
$PYRTM,2024,122.416718761910,13.526366172049
$GNGGA,100004.50,3334.93799495,N,11950.80053794,W,2,11,0.9,6.340,M,-37.446,M,7.4,0135*64
$PYRTM,2024,122.416718761910,13.526366172049
$GNHDT,292.010,T*23
$PYRTM,2024,122.416724599606,13.526372009745
$GNGGA,100005.00,3334.93839340,N,11950.80191611,W,2,11,0.9,6.575,M,-37.446,M,4.0,0135*6E
$PYRTM,2024,122.416724599606,13.526372009745
$GNHDT,291.936,T*2D
$PYRTM,2024,122.416730334005,13.526377744144
$GNGGA,100005.50,3334.93879277,N,11950.80331755,W,2,11,0.9,6.568,M,-37.446,M,4.4,0135*6B
$PYRTM,2024,122.416730334005,13.526377744144
$GNHDT,291.526,T*20
$PYRTM,2024,122.416736168889,13.526383579028
$GNGGA,100006.00,3334.93918974,N,11950.80469655,W,2,11,0.9,6.372,M,-37.446,M,5.0,0135*60
$PYRTM,2024,122.416736168889,13.526383579028
$GNHDT,291.438,T*2E
$PYRTM,2024,122.416741908032,13.526389318171
$GNGGA,100006.50,3334.93957498,N,11950.80604886,W,2,11,0.9,6.092,M,-37.446,M,5.4,0135*61
$PYRTM,2024,122.416741908032,13.526389318171
$GNHDT,291.932,T*29
$PYRTM,2024,122.416747740023,13.526395150162
$GNGGA,100007.00,3334.93995443,N,11950.80738098,W,2,11,0.9,5.777,M,-37.446,M,6.0,0135*6C
$PYRTM,2024,122.416747740023,13.526395150162
$GNHDT,292.219,T*28
$PYRTM,2024,122.416753478704,13.526400888843
$GNGGA,100007.50,3334.94034020,N,11950.80869409,W,2,11,0.9,5.522,M,-37.446,M,6.4,0135*6C
$PYRTM,2024,122.416753478704,13.526400888843
$GNHDT,292.183,T*28
$PYRTM,2024,122.416759316296,13.526406726435
$GNGGA,100008.00,3334.94073641,N,11950.80998607,W,2,11,0.9,5.372,M,-37.446,M,7.0,0135*61
$PYRTM,2024,122.416759316296,13.526406726435
$GNHDT,292.388,T*21
$PYRTM,2024,122.416765051609,13.526412461748
$GNGGA,100008.50,3334.94113812,N,11950.81128015,W,2,11,0.9,5.341,M,-37.446,M,7.4,0135*68
$PYRTM,2024,122.416765051609,13.526412461748
$GNHDT,292.498,T*27
$PYRTM,2024,122.416770893808,13.526418303935
$GNGGA,100009.00,3334.94152270,N,11950.81261220,W,2,11,0.9,5.397,M,-37.446,M,7.0,0135*62
$PYRTM,2024,122.416770893808,13.526418303935
$GNHDT,292.304,T*25
$PYRTM,2024,122.416776627419,13.526424037558
$GNGGA,100009.50,3334.94189383,N,11950.81400949,W,2,11,0.9,5.464,M,-37.446,M,7.4,0135*66
$PYRTM,2024,122.416776627419,13.526424037558
$GNHDT,291.952,T*2F
$PYRTM,2024,122.416782466458,13.526429876597
$GNGGA,100010.00,3334.94227543,N,11950.81545650,W,2,11,0.9,5.493,M,-37.446,M,7.0,0135*6D
$PYRTM,2024,122.416782466458,13.526429876597
$GNHDT,291.895,T*25
$PYRTM,2024,122.416788200509,13.526435610648
$GNGGA,100010.50,3334.94267811,N,11950.81689840,W,2,11,0.9,5.480,M,-37.446,M,7.4,0135*6C
$PYRTM,2024,122.416788200509,13.526435610648
$GNHDT,291.715,T*22
$PYRTM,2024,122.416794039502,13.526441449641
$GNGGA,100011.00,3334.94308882,N,11950.81831315,W,2,11,0.9,5.494,M,-37.446,M,4.0,0135*6E
$PYRTM,2024,122.416794039502,13.526441449641
$GNHDT,291.820,T*2B
$PYRTM,2024,122.416799779884,13.526447190023
$GNGGA,100011.50,3334.94350201,N,11950.81970061,W,2,11,0.9,5.554,M,-37.446,M,4.4,0135*6A
$PYRTM,2024,122.416799779884,13.526447190023
$GNHDT,292.195,T*2F
$PYRTM,2024,122.416805611771,13.526453021910
$GNGGA,100012.00,3334.94393104,N,11950.82107303,W,2,11,0.9,5.636,M,-37.446,M,5.0,0135*6B
$PYRTM,2024,122.416805611771,13.526453021910
$GNHDT,292.240,T*24
$PYRTM,2024,122.416811358241,13.526458768380
$GNGGA,100012.50,3334.94439111,N,11950.82243864,W,2,11,0.9,5.698,M,-37.446,M,5.4,0135*64
$PYRTM,2024,122.416811358241,13.526458768380
$GNHDT,292.206,T*26
$PYRTM,2024,122.416817189699,13.526464599838
$GNGGA,100013.00,3334.94485689,N,11950.82381059,W,2,11,0.9,5.750,M,-37.446,M,6.0,0135*6A
$PYRTM,2024,122.416817189699,13.526464599838
$GNHDT,292.276,T*21
$PYRTM,2024,122.416822924491,13.526470334630
$GNGGA,100013.50,3334.94527439,N,11950.82518599,W,2,11,0.9,5.851,M,-37.446,M,6.4,0135*6A
$PYRTM,2024,122.416822924491,13.526470334630
$GNHDT,292.205,T*25
$PYRTM,2024,122.416828760787,13.526476170926
$GNGGA,100014.00,3334.94561805,N,11950.82651318,W,2,11,0.9,6.092,M,-37.446,M,7.0,0135*69
$PYRTM,2024,122.416828760787,13.526476170926
$GNHDT,292.212,T*23
$PYRTM,2024,122.416834502442,13.526481912581
$GNGGA,100014.50,3334.94591873,N,11950.82777600,W,2,11,0.9,6.470,M,-37.446,M,7.4,0135*67
$PYRTM,2024,122.416834502442,13.526481912581
$GNHDT,292.506,T*21
$PYRTM,2024,122.416840338345,13.526487748484
$GNGGA,100015.00,3334.94622116,N,11950.82901473,W,2,11,0.9,6.827,M,-37.446,M,7.0,0135*61
$PYRTM,2024,122.416840338345,13.526487748484
$GNHDT,292.667,T*25
$PYRTM,2024,122.416846069653,13.526493479792
$GNGGA,100015.50,3334.94658847,N,11950.83033232,W,2,11,0.9,6.884,M,-37.446,M,7.4,0135*63
$PYRTM,2024,122.416846069653,13.526493479792
$GNHDT,292.377,T*21
$PYRTM,2024,122.416851910324,13.526499320463
$GNGGA,100016.00,3334.94703788,N,11950.83174705,W,2,11,0.9,6.497,M,-37.446,M,7.0,0135*6F
$PYRTM,2024,122.416851910324,13.526499320463
$GNHDT,292.603,T*27
$PYRTM,2024,122.416857649907,13.526505060046
$GNGGA,100016.50,3334.94754440,N,11950.83323189,W,2,11,0.9,5.705,M,-37.446,M,7.4,0135*62
$PYRTM,2024,122.416857649907,13.526505060046
$GNHDT,292.139,T*29
$PYRTM,2024,122.416863485567,13.526510895706
$GNGGA,100017.00,3334.94804690,N,11950.83467857,W,2,11,0.9,4.843,M,-37.446,M,4.0,0135*65
$PYRTM,2024,122.416863485567,13.526510895706
$GNHDT,292.190,T*2A
$PYRTM,2024,122.416869221042,13.526516631181
$GNGGA,100017.50,3334.94845311,N,11950.83601653,W,2,11,0.9,4.386,M,-37.446,M,4.4,0135*67
$PYRTM,2024,122.416869221042,13.526516631181
$GNHDT,292.323,T*20
$PYRTM,2024,122.416875059213,13.526522469352
$GNGGA,100018.00,3334.94876788,N,11950.83724771,W,2,11,0.9,4.480,M,-37.446,M,5.0,0135*6A
$PYRTM,2024,122.416875059213,13.526522469352
$GNHDT,291.965,T*2B
$PYRTM,2024,122.416880796574,13.526528206713
$GNGGA,100018.50,3334.94903140,N,11950.83838715,W,2,11,0.9,5.092,M,-37.446,M,5.4,0135*6C
$PYRTM,2024,122.416880796574,13.526528206713
$GNHDT,292.099,T*22
$PYRTM,2024,122.416886635718,13.526534045856
$GNGGA,100019.00,3334.94929873,N,11950.83953671,W,2,11,0.9,5.922,M,-37.446,M,6.0,0135*63
$PYRTM,2024,122.416886635718,13.526534045856
$GNHDT,292.002,T*20
$PYRTM,2024,122.416892371817,13.526539781956
$GNGGA,100019.50,3334.94963733,N,11950.84079149,W,2,11,0.9,6.569,M,-37.446,M,6.4,0135*6D
$PYRTM,2024,122.416892371817,13.526539781956
$GNHDT,292.202,T*22
$PYRTM,2024,122.416898212118,13.526545622257
$GNGGA,100020.00,3334.95005211,N,11950.84220136,W,2,11,0.9,6.795,M,-37.446,M,7.0,0135*6D
$PYRTM,2024,122.416898212118,13.526545622257
$GNHDT,292.315,T*25
$PYRTM,2024,122.416903945602,13.526551355741
$GNGGA,100020.50,3334.95050189,N,11950.84365511,W,2,11,0.9,6.521,M,-37.446,M,7.4,0135*62
$PYRTM,2024,122.416903945602,13.526551355741
$GNHDT,292.140,T*27
$PYRTM,2024,122.416909784977,13.526557195116
$GNGGA,100021.00,3334.95092989,N,11950.84509779,W,2,11,0.9,5.966,M,-37.446,M,7.0,0135*68
$PYRTM,2024,122.416909784977,13.526557195116
$GNHDT,291.606,T*21
$PYRTM,2024,122.416915514965,13.526562925104
$GNGGA,100021.50,3334.95131076,N,11950.84646935,W,2,11,0.9,5.408,M,-37.446,M,7.4,0135*63
$PYRTM,2024,122.416915514965,13.526562925104
$GNHDT,291.547,T*27
$PYRTM,2024,122.416921357257,13.526568767396
$GNGGA,100022.00,3334.95162871,N,11950.84776783,W,2,11,0.9,5.117,M,-37.446,M,7.0,0135*62
$PYRTM,2024,122.416921357257,13.526568767396
$GNHDT,291.556,T*27
$PYRTM,2024,122.416927088484,13.526574498623
$GNGGA,100022.50,3334.95191492,N,11950.84902015,W,2,11,0.9,5.146,M,-37.446,M,7.4,0135*6F
$PYRTM,2024,122.416927088484,13.526574498623
$GNHDT,291.593,T*2E
$PYRTM,2024,122.416932933299,13.526580343437
$GNGGA,100023.00,3334.95221578,N,11950.85024856,W,2,11,0.9,5.445,M,-37.446,M,4.0,0135*64
$PYRTM,2024,122.416932933299,13.526580343437
$GNHDT,291.892,T*22
$PYRTM,2024,122.416938675799,13.526586085938
$GNGGA,100023.50,3334.95255221,N,11950.85149312,W,2,11,0.9,5.825,M,-37.446,M,4.4,0135*66
$PYRTM,2024,122.416938675799,13.526586085938
$GNHDT,291.834,T*2E
$PYRTM,2024,122.416944500741,13.526591910880
$GNGGA,100024.00,3334.95294423,N,11950.85276094,W,2,11,0.9,6.154,M,-37.446,M,5.0,0135*66
$PYRTM,2024,122.416944500741,13.526591910880
$GNHDT,292.090,T*2B
$PYRTM,2024,122.416950247650,13.526597657789
$GNGGA,100024.50,3334.95337085,N,11950.85408066,W,2,11,0.9,6.342,M,-37.446,M,5.4,0135*60
$PYRTM,2024,122.416950247650,13.526597657789
$GNHDT,291.999,T*28
$PYRTM,2024,122.416956080394,13.526603490532
$GNGGA,100025.00,3334.95380862,N,11950.85542338,W,2,11,0.9,6.373,M,-37.446,M,6.0,0135*6B
$PYRTM,2024,122.416956080394,13.526603490532
$GNHDT,291.880,T*21
$PYRTM,2024,122.416961810012,13.526609220150
$GNGGA,100025.50,3334.95423481,N,11950.85675658,W,2,11,0.9,6.312,M,-37.446,M,6.4,0135*66
$PYRTM,2024,122.416961810012,13.526609220150
$GNHDT,291.812,T*2A
$PYRTM,2024,122.416967650255,13.526615060394
$GNGGA,100026.00,3334.95463175,N,11950.85804458,W,2,11,0.9,6.293,M,-37.446,M,7.0,0135*6D
$PYRTM,2024,122.416967650255,13.526615060394
$GNHDT,291.907,T*2F
$PYRTM,2024,122.416973383970,13.526620794109
$GNGGA,100026.50,3334.95499841,N,11950.85929978,W,2,11,0.9,6.356,M,-37.446,M,7.4,0135*6E
$PYRTM,2024,122.416973383970,13.526620794109
$GNHDT,291.867,T*28
$PYRTM,2024,122.416979224074,13.526626634213
$GNGGA,100027.00,3334.95534340,N,11950.86055555,W,2,11,0.9,6.440,M,-37.446,M,7.0,0135*60
$PYRTM,2024,122.416979224074,13.526626634213
$GNHDT,291.682,T*2D
$PYRTM,2024,122.416984967789,13.526632377928
$GNGGA,100027.50,3334.95569387,N,11950.86186092,W,2,11,0.9,6.437,M,-37.446,M,7.4,0135*63
$PYRTM,2024,122.416984967789,13.526632377928
$GNHDT,291.637,T*23
$PYRTM,2024,122.416990803981,13.526638214120
$GNGGA,100028.00,3334.95605063,N,11950.86321097,W,2,11,0.9,6.291,M,-37.446,M,7.0,0135*6D
$PYRTM,2024,122.416990803981,13.526638214120
$GNHDT,291.664,T*25
$PYRTM,2024,122.416996541065,13.526643951204
$GNGGA,100028.50,3334.95640238,N,11950.86457915,W,2,11,0.9,6.037,M,-37.446,M,7.4,0135*6A
$PYRTM,2024,122.416996541065,13.526643951204
$GNHDT,291.259,T*2F
$PYRTM,2024,122.417002375116,13.526649785266
$GNGGA,100029.00,3334.95674305,N,11950.86595935,W,2,11,0.9,5.730,M,-37.446,M,4.0,0135*6F
$PYRTM,2024,122.417002375116,13.526649785266
$GNHDT,291.278,T*2C
$PYRTM,2024,122.417008107523,13.526655517662
$GNGGA,100029.50,3334.95709416,N,11950.86734793,W,2,11,0.9,5.437,M,-37.446,M,4.4,0135*6F
$PYRTM,2024,122.417008107523,13.526655517662
$GNHDT,291.143,T*27
$PYRTM,2024,122.417013943681,13.526661353819
$GNGGA,100030.00,3334.95747540,N,11950.86874388,W,2,11,0.9,5.192,M,-37.446,M,5.0,0135*60
$PYRTM,2024,122.417013943681,13.526661353819
$GNHDT,291.036,T*24
$PYRTM,2024,122.417019685417,13.526667095556
$GNGGA,100030.50,3334.95788013,N,11950.87011885,W,2,11,0.9,5.076,M,-37.446,M,5.4,0135*66
$PYRTM,2024,122.417019685417,13.526667095556
$GNHDT,291.461,T*22
$PYRTM,2024,122.417025526713,13.526672936852
$GNGGA,100031.00,3334.95828257,N,11950.87145058,W,2,11,0.9,5.173,M,-37.446,M,6.0,0135*6E
$PYRTM,2024,122.417025526713,13.526672936852
$GNHDT,291.369,T*2D
$PYRTM,2024,122.417031258600,13.526678668738
$GNGGA,100031.50,3334.95867495,N,11950.87273139,W,2,11,0.9,5.473,M,-37.446,M,6.4,0135*69
$PYRTM,2024,122.417031258600,13.526678668738
$GNHDT,291.676,T*26
$PYRTM,2024,122.417037099028,13.526684509167
$GNGGA,100032.00,3334.95906511,N,11950.87397956,W,2,11,0.9,5.896,M,-37.446,M,7.0,0135*6C
$PYRTM,2024,122.417037099028,13.526684509167
$GNHDT,292.083,T*29
$PYRTM,2024,122.417042831678,13.526690241817
$GNGGA,100032.50,3334.95946695,N,11950.87525602,W,2,11,0.9,6.269,M,-37.446,M,7.4,0135*6E
$PYRTM,2024,122.417042831678,13.526690241817
$GNHDT,292.168,T*2D
$PYRTM,2024,122.417048673738,13.526696083877
$GNGGA,100033.00,3334.95989710,N,11950.87661117,W,2,11,0.9,6.397,M,-37.446,M,7.0,0135*61
$PYRTM,2024,122.417048673738,13.526696083877
$GNHDT,292.151,T*27
$PYRTM,2024,122.417054408796,13.526701818935
$GNGGA,100033.50,3334.96033677,N,11950.87800605,W,2,11,0.9,6.290,M,-37.446,M,7.4,0135*60
$PYRTM,2024,122.417054408796,13.526701818935
$GNHDT,292.240,T*24
$PYRTM,2024,122.417060245012,13.526707655150
$GNGGA,100034.00,3334.96073984,N,11950.87941993,W,2,11,0.9,6.052,M,-37.446,M,7.0,0135*69
$PYRTM,2024,122.417060245012,13.526707655150
$GNHDT,292.093,T*28
$PYRTM,2024,122.417065982407,13.526713392546
$GNGGA,100034.50,3334.96108443,N,11950.88080275,W,2,11,0.9,5.827,M,-37.446,M,7.4,0135*62
$PYRTM,2024,122.417065982407,13.526713392546
$GNHDT,292.114,T*26
$PYRTM,2024,122.417071815556,13.526719225694
$GNGGA,100035.00,3334.96136695,N,11950.88213984,W,2,11,0.9,5.722,M,-37.446,M,4.0,0135*62
$PYRTM,2024,122.417071815556,13.526719225694
$GNHDT,292.135,T*25
$PYRTM,2024,122.417077550949,13.526724961088
$GNGGA,100035.50,3334.96163052,N,11950.88345295,W,2,11,0.9,5.751,M,-37.446,M,4.4,0135*63
$PYRTM,2024,122.417077550949,13.526724961088
$GNHDT,292.006,T*24
$PYRTM,2024,122.417083391389,13.526730801528
$GNGGA,100036.00,3334.96193256,N,11950.88477632,W,2,11,0.9,5.832,M,-37.446,M,5.0,0135*6C
$PYRTM,2024,122.417083391389,13.526730801528
$GNHDT,291.725,T*21
$PYRTM,2024,122.417089132523,13.526736542662
$GNGGA,100036.50,3334.96229397,N,11950.88610305,W,2,11,0.9,5.902,M,-37.446,M,5.4,0135*63
$PYRTM,2024,122.417089132523,13.526736542662
$GNHDT,291.567,T*25
$PYRTM,2024,122.417094962859,13.526742372998
$GNGGA,100037.00,3334.96270651,N,11950.88741093,W,2,11,0.9,5.945,M,-37.446,M,6.0,0135*69
$PYRTM,2024,122.417094962859,13.526742372998
$GNHDT,291.687,T*28
$PYRTM,2024,122.417100705706,13.526748115845
$GNGGA,100037.50,3334.96313264,N,11950.88869633,W,2,11,0.9,5.978,M,-37.446,M,6.4,0135*69
$PYRTM,2024,122.417100705706,13.526748115845
$GNHDT,291.634,T*20
$PYRTM,2024,122.417106539711,13.526753949861
$GNGGA,100038.00,3334.96355197,N,11950.88998385,W,2,11,0.9,6.002,M,-37.446,M,7.0,0135*6B
$PYRTM,2024,122.417106539711,13.526753949861
$GNHDT,291.434,T*22
$PYRTM,2024,122.417112272905,13.526759683044
$GNGGA,100038.50,3334.96395983,N,11950.89129985,W,2,11,0.9,5.968,M,-37.446,M,7.4,0135*64
$PYRTM,2024,122.417112272905,13.526759683044
$GNHDT,291.600,T*27
$PYRTM,2024,122.417118113021,13.526765523160
$GNGGA,100039.00,3334.96434372,N,11950.89267133,W,2,11,0.9,5.825,M,-37.446,M,7.0,0135*68
$PYRTM,2024,122.417118113021,13.526765523160
$GNHDT,291.510,T*25
$PYRTM,2024,122.417123856644,13.526771266782
$GNGGA,100039.50,3334.96469831,N,11950.89408903,W,2,11,0.9,5.620,M,-37.446,M,7.4,0135*62
$PYRTM,2024,122.417123856644,13.526771266782
$GNHDT,291.358,T*2F
$PYRTM,2024,122.417129690394,13.526777100741
$GNGGA,100040.00,3334.96502973,N,11950.89554092,W,2,11,0.9,5.381,M,-37.446,M,7.0,0135*61
$PYRTM,2024,122.417129690394,13.526777100741
$GNHDT,291.561,T*23
$PYRTM,2024,122.417135428646,13.526782838785
$GNGGA,100040.50,3334.96536243,N,11950.89698705,W,2,11,0.9,5.165,M,-37.446,M,7.4,0135*6D
$PYRTM,2024,122.417135428646,13.526782838785
$GNHDT,291.652,T*20
$PYRTM,2024,122.417141265509,13.526788675648
$GNGGA,100041.00,3334.96570556,N,11950.89839660,W,2,11,0.9,5.076,M,-37.446,M,4.0,0135*6B
$PYRTM,2024,122.417141265509,13.526788675648
$GNHDT,291.755,T*26
$PYRTM,2024,122.417147004653,13.526794414792
$GNGGA,100041.50,3334.96606693,N,11950.89974875,W,2,11,0.9,5.196,M,-37.446,M,4.4,0135*6F
$PYRTM,2024,122.417147004653,13.526794414792
$GNHDT,291.865,T*2A
$PYRTM,2024,122.417152837465,13.526800247604
$GNGGA,100042.00,3334.96645993,N,11950.90104570,W,2,11,0.9,5.481,M,-37.446,M,5.0,0135*68
$PYRTM,2024,122.417152837465,13.526800247604
$GNHDT,292.039,T*28
$PYRTM,2024,122.417158574826,13.526805984965
$GNGGA,100042.50,3334.96689490,N,11950.90232845,W,2,11,0.9,5.842,M,-37.446,M,5.4,0135*69
$PYRTM,2024,122.417158574826,13.526805984965
$GNHDT,291.984,T*24
$PYRTM,2024,122.417164408970,13.526811819109
$GNGGA,100043.00,3334.96736968,N,11950.90363945,W,2,11,0.9,6.110,M,-37.446,M,6.0,0135*6C
$PYRTM,2024,122.417164408970,13.526811819109
$GNHDT,292.024,T*24
$PYRTM,2024,122.417170153229,13.526817563368
$GNGGA,100043.50,3334.96785515,N,11950.90500140,W,2,11,0.9,6.219,M,-37.446,M,6.4,0135*67
$PYRTM,2024,122.417170153229,13.526817563368
$GNHDT,292.222,T*20
$PYRTM,2024,122.417175984711,13.526823394850
$GNGGA,100044.00,3334.96831873,N,11950.90638997,W,2,11,0.9,6.190,M,-37.446,M,7.0,0135*65
$PYRTM,2024,122.417175984711,13.526823394850
$GNHDT,292.201,T*21
$PYRTM,2024,122.417181722743,13.526829132882
$GNGGA,100044.50,3334.96874736,N,11950.90779002,W,2,11,0.9,6.085,M,-37.446,M,7.4,0135*6F
$PYRTM,2024,122.417181722743,13.526829132882
$GNHDT,292.217,T*26
$PYRTM,2024,122.417187554734,13.526834964873
$GNGGA,100045.00,3334.96911600,N,11950.90919735,W,2,11,0.9,5.957,M,-37.446,M,7.0,0135*67
$PYRTM,2024,122.417187554734,13.526834964873
$GNHDT,291.866,T*29
$PYRTM,2024,122.417193292581,13.526840702731
$GNGGA,100045.50,3334.96942658,N,11950.91059976,W,2,11,0.9,5.876,M,-37.446,M,7.4,0135*6A
$PYRTM,2024,122.417193292581,13.526840702731
$GNHDT,291.678,T*28
$PYRTM,2024,122.417199131076,13.526846541227
$GNGGA,100046.00,3334.96970093,N,11950.91196756,W,2,11,0.9,5.907,M,-37.446,M,7.0,0135*61
$PYRTM,2024,122.417199131076,13.526846541227
$GNHDT,291.833,T*29
$PYRTM,2024,122.417204868183,13.526852278322
$GNGGA,100046.50,3334.96997852,N,11950.91329843,W,2,11,0.9,6.018,M,-37.446,M,7.4,0135*65
$PYRTM,2024,122.417204868183,13.526852278322
$GNHDT,292.064,T*20
$PYRTM,2024,122.417210704954,13.526858115093
$GNGGA,100047.00,3334.97029343,N,11950.91461008,W,2,11,0.9,6.130,M,-37.446,M,4.0,0135*67
$PYRTM,2024,122.417210704954,13.526858115093
$GNHDT,292.232,T*21
$PYRTM,2024,122.417216445104,13.526863855243
$GNGGA,100047.50,3334.97067567,N,11950.91592447,W,2,11,0.9,6.170,M,-37.446,M,4.4,0135*6A
$PYRTM,2024,122.417216445104,13.526863855243
$GNHDT,291.872,T*2C
$PYRTM,2024,122.417222300405,13.526869710544
$GNGGA,100048.00,3334.97111926,N,11950.91723908,W,2,11,0.9,6.093,M,-37.446,M,5.0,0135*6E
$PYRTM,2024,122.417222300405,13.526869710544
$GNHDT,291.788,T*26
$PYRTM,2024,122.417228018345,13.526875428484
$GNGGA,100048.50,3334.97159002,N,11950.91853319,W,2,11,0.9,5.957,M,-37.446,M,5.4,0135*6C
$PYRTM,2024,122.417228018345,13.526875428484
$GNHDT,292.506,T*21
$PYRTM,2024,122.417233857940,13.526881268090
$GNGGA,100049.00,3334.97206095,N,11950.91982252,W,2,11,0.9,5.785,M,-37.446,M,6.0,0135*6A
$PYRTM,2024,122.417233857940,13.526881268090
$GNHDT,292.635,T*22
$PYRTM,2024,122.417239589468,13.526886999606
$GNGGA,100049.50,3334.97251074,N,11950.92114990,W,2,11,0.9,5.583,M,-37.446,M,6.4,0135*63
$PYRTM,2024,122.417239589468,13.526886999606
$GNHDT,292.728,T*2F
$PYRTM,2024,122.417245431169,13.526892841319
$GNGGA,100050.00,3334.97292705,N,11950.92256684,W,2,11,0.9,5.273,M,-37.446,M,7.0,0135*62
$PYRTM,2024,122.417245431169,13.526892841319
$GNHDT,293.025,T*24
$PYRTM,2024,122.417251161435,13.526898571574
$GNGGA,100050.50,3334.97329769,N,11950.92404838,W,2,11,0.9,4.946,M,-37.446,M,7.4,0135*6C
$PYRTM,2024,122.417251161435,13.526898571574
$GNHDT,292.476,T*27
$PYRTM,2024,122.417257007558,13.526904417697
$GNGGA,100051.00,3334.97363356,N,11950.92551590,W,2,11,0.9,4.746,M,-37.446,M,7.0,0135*6A
$PYRTM,2024,122.417257007558,13.526904417697
$GNHDT,292.686,T*2A
$PYRTM,2024,122.417262743056,13.526910153194
$GNGGA,100051.50,3334.97394963,N,11950.92691654,W,2,11,0.9,4.795,M,-37.446,M,7.4,0135*65
$PYRTM,2024,122.417262743056,13.526910153194
$GNHDT,293.152,T*25
$PYRTM,2024,122.417268574977,13.526915985116
$GNGGA,100052.00,3334.97427589,N,11950.92826571,W,2,11,0.9,5.069,M,-37.446,M,7.0,0135*63
$PYRTM,2024,122.417268574977,13.526915985116
$GNHDT,293.525,T*21
$PYRTM,2024,122.417274313530,13.526921723669
$GNGGA,100052.50,3334.97465400,N,11950.92961201,W,2,11,0.9,5.408,M,-37.446,M,7.4,0135*65
$PYRTM,2024,122.417274313530,13.526921723669
$GNHDT,293.377,T*20
$PYRTM,2024,122.417280151331,13.526927561481
$GNGGA,100053.00,3334.97509786,N,11950.93100015,W,2,11,0.9,5.674,M,-37.446,M,4.0,0135*60
$PYRTM,2024,122.417280151331,13.526927561481
$GNHDT,293.085,T*2E
$PYRTM,2024,122.417285887292,13.526933297431
$GNGGA,100053.50,3334.97558557,N,11950.93239364,W,2,11,0.9,5.842,M,-37.446,M,4.4,0135*6C
$PYRTM,2024,122.417285887292,13.526933297431
$GNHDT,292.858,T*27
$PYRTM,2024,122.417291725035,13.526939135185
$GNGGA,100054.00,3334.97606681,N,11950.93374735,W,2,11,0.9,6.004,M,-37.446,M,5.0,0135*6A
$PYRTM,2024,122.417291725035,13.526939135185
$GNHDT,293.029,T*28
$PYRTM,2024,122.417297463657,13.526944873796
$GNGGA,100054.50,3334.97651785,N,11950.93504413,W,2,11,0.9,6.223,M,-37.446,M,5.4,0135*6D
$PYRTM,2024,122.417297463657,13.526944873796
$GNHDT,293.090,T*2A
$PYRTM,2024,122.417303300602,13.526950710752
$GNGGA,100055.00,3334.97694038,N,11950.93627968,W,2,11,0.9,6.537,M,-37.446,M,6.0,0135*67
$PYRTM,2024,122.417303300602,13.526950710752
$GNHDT,293.420,T*25
$PYRTM,2024,122.417309037106,13.526956447245
$GNGGA,100055.50,3334.97734107,N,11950.93748672,W,2,11,0.9,6.869,M,-37.446,M,6.4,0135*6A
$PYRTM,2024,122.417309037106,13.526956447245
$GNHDT,293.420,T*25
$PYRTM,2024,122.417314872141,13.526962282280
$GNGGA,100056.00,3334.97773294,N,11950.93872244,W,2,11,0.9,7.089,M,-37.446,M,7.0,0135*63
$PYRTM,2024,122.417314872141,13.526962282280
$GNHDT,293.552,T*21
$PYRTM,2024,122.417320612384,13.526968022523
$GNGGA,100056.50,3334.97812328,N,11950.94006435,W,2,11,0.9,6.979,M,-37.446,M,7.4,0135*67
$PYRTM,2024,122.417320612384,13.526968022523
$GNHDT,293.573,T*22
$PYRTM,2024,122.417326447616,13.526973857766
$GNGGA,100057.00,3334.97852498,N,11950.94152371,W,2,11,0.9,6.411,M,-37.446,M,7.0,0135*6B
$PYRTM,2024,122.417326447616,13.526973857766
$GNHDT,293.507,T*21
$PYRTM,2024,122.417332183681,13.526979593831
$GNGGA,100057.50,3334.97893735,N,11950.94302401,W,2,11,0.9,5.586,M,-37.446,M,7.4,0135*68
$PYRTM,2024,122.417332183681,13.526979593831
$GNHDT,293.738,T*2F
$PYRTM,2024,122.417338018183,13.526985428322
$GNGGA,100058.00,3334.97935175,N,11950.94448195,W,2,11,0.9,4.805,M,-37.446,M,7.0,0135*6F
$PYRTM,2024,122.417338018183,13.526985428322
$GNHDT,293.764,T*26
$PYRTM,2024,122.417343765023,13.526991175162
$GNGGA,100058.50,3334.97974990,N,11950.94586216,W,2,11,0.9,4.383,M,-37.446,M,7.4,0135*66
$PYRTM,2024,122.417343765023,13.526991175162
$GNHDT,293.638,T*2E
$PYRTM,2024,122.417349599560,13.526997009699
$GNGGA,100059.00,3334.98014040,N,11950.94712021,W,2,11,0.9,4.482,M,-37.446,M,4.0,0135*6E
$PYRTM,2024,122.417349599560,13.526997009699
$GNHDT,293.354,T*21
$PYRTM,2024,122.417355343252,13.527002753391
$GNGGA,100059.50,3334.98056055,N,11950.94834499,W,2,11,0.9,4.909,M,-37.446,M,4.4,0135*6F
$PYRTM,2024,122.417355343252,13.527002753391
$GNHDT,292.855,T*2A
$PYRTM,2024,122.417361176192,13.527008586331
$GNGGA,100100.00,3334.98100669,N,11950.94958643,W,2,11,0.9,5.499,M,-37.446,M,5.0,0135*62
$PYRTM,2024,122.417361176192,13.527008586331
$GNHDT,292.655,T*24
$PYRTM,2024,122.417366908495,13.527014318634
$GNGGA,100100.50,3334.98146434,N,11950.95089338,W,2,11,0.9,6.000,M,-37.446,M,5.4,0135*61
$PYRTM,2024,122.417366908495,13.527014318634
$GNHDT,292.923,T*2A
$PYRTM,2024,122.417372743403,13.527020153542
$GNGGA,100101.00,3334.98189872,N,11950.95228911,W,2,11,0.9,6.245,M,-37.446,M,6.0,0135*64
$PYRTM,2024,122.417372743403,13.527020153542
$GNHDT,292.712,T*26
$PYRTM,2024,122.417378479537,13.527025889676
$GNGGA,100101.50,3334.98230066,N,11950.95372918,W,2,11,0.9,6.234,M,-37.446,M,6.4,0135*68
$PYRTM,2024,122.417378479537,13.527025889676
$GNHDT,292.890,T*23
$PYRTM,2024,122.417384320775,13.527031730914
$GNGGA,100102.00,3334.98267775,N,11950.95516950,W,2,11,0.9,5.984,M,-37.446,M,7.0,0135*67
$PYRTM,2024,122.417384320775,13.527031730914
$GNHDT,293.026,T*27
$PYRTM,2024,122.417390054618,13.527037464757
$GNGGA,100102.50,3334.98304173,N,11950.95657881,W,2,11,0.9,5.665,M,-37.446,M,7.4,0135*69
$PYRTM,2024,122.417390054618,13.527037464757
$GNHDT,292.913,T*29
$PYRTM,2024,122.417395893843,13.527043303981
$GNGGA,100103.00,3334.98339264,N,11950.95793344,W,2,11,0.9,5.414,M,-37.446,M,7.0,0135*6D
$PYRTM,2024,122.417395893843,13.527043303981
$GNHDT,292.780,T*2D
$PYRTM,2024,122.417401627280,13.527049037419
$GNGGA,100103.50,3334.98373191,N,11950.95920695,W,2,11,0.9,5.378,M,-37.446,M,7.4,0135*69
$PYRTM,2024,122.417401627280,13.527049037419
$GNHDT,293.054,T*22
$PYRTM,2024,122.417407467072,13.527054877211
$GNGGA,100104.00,3334.98407231,N,11950.96042309,W,2,11,0.9,5.519,M,-37.446,M,7.0,0135*6D
$PYRTM,2024,122.417407467072,13.527054877211
$GNHDT,292.930,T*28
$PYRTM,2024,122.417413203681,13.527060613819
$GNGGA,100104.50,3334.98443364,N,11950.96162996,W,2,11,0.9,5.759,M,-37.446,M,7.4,0135*64
$PYRTM,2024,122.417413203681,13.527060613819
$GNHDT,292.829,T*21
$PYRTM,2024,122.417419042870,13.527066453021
$GNGGA,100105.00,3334.98482471,N,11950.96286210,W,2,11,0.9,5.967,M,-37.446,M,4.0,0135*66
$PYRTM,2024,122.417419042870,13.527066453021
$GNHDT,292.648,T*28
$PYRTM,2024,122.417424775127,13.527072185266
$GNGGA,100105.50,3334.98524556,N,11950.96416171,W,2,11,0.9,6.027,M,-37.446,M,4.4,0135*6B
$PYRTM,2024,122.417424775127,13.527072185266
$GNHDT,292.549,T*2A
$PYRTM,2024,122.417430612731,13.527078022882
$GNGGA,100106.00,3334.98568221,N,11950.96554209,W,2,11,0.9,5.855,M,-37.446,M,5.0,0135*62
$PYRTM,2024,122.417430612731,13.527078022882
$GNHDT,292.464,T*24
$PYRTM,2024,122.417436347315,13.527083757454
$GNGGA,100106.50,3334.98611473,N,11950.96695108,W,2,11,0.9,5.557,M,-37.446,M,5.4,0135*6C
$PYRTM,2024,122.417436347315,13.527083757454
$GNHDT,292.505,T*22
$PYRTM,2024,122.417442185891,13.527089596030
$GNGGA,100107.00,3334.98651895,N,11950.96836246,W,2,11,0.9,5.245,M,-37.446,M,6.0,0135*65
$PYRTM,2024,122.417442185891,13.527089596030
$GNHDT,292.290,T*29
$PYRTM,2024,122.417447922407,13.527095332546
$GNGGA,100107.50,3334.98690290,N,11950.96975118,W,2,11,0.9,5.043,M,-37.446,M,6.4,0135*6C
$PYRTM,2024,122.417447922407,13.527095332546
$GNHDT,291.993,T*22
$PYRTM,2024,122.417453761713,13.527101171852
$GNGGA,100108.00,3334.98727708,N,11950.97111939,W,2,11,0.9,5.004,M,-37.446,M,7.0,0135*69
$PYRTM,2024,122.417453761713,13.527101171852
$GNHDT,291.997,T*26
$PYRTM,2024,122.417459498611,13.527106908750
$GNGGA,100108.50,3334.98766579,N,11950.97248649,W,2,11,0.9,5.083,M,-37.446,M,7.4,0135*61
$PYRTM,2024,122.417459498611,13.527106908750
$GNHDT,292.345,T*20
$PYRTM,2024,122.417465336470,13.527112746609
$GNGGA,100109.00,3334.98807554,N,11950.97387918,W,2,11,0.9,5.242,M,-37.446,M,7.0,0135*60
$PYRTM,2024,122.417465336470,13.527112746609
$GNHDT,292.440,T*22
$PYRTM,2024,122.417471076227,13.527118486366
$GNGGA,100109.50,3334.98848356,N,11950.97525586,W,2,11,0.9,5.485,M,-37.446,M,7.4,0135*66
$PYRTM,2024,122.417471076227,13.527118486366
$GNHDT,292.174,T*20
$PYRTM,2024,122.417476914051,13.527124324190
$GNGGA,100110.00,3334.98885051,N,11950.97653705,W,2,11,0.9,5.949,M,-37.446,M,7.0,0135*6C
$PYRTM,2024,122.417476914051,13.527124324190
$GNHDT,292.172,T*26
$PYRTM,2024,122.417482644861,13.527130055000
$GNGGA,100110.50,3334.98919652,N,11950.97774893,W,2,11,0.9,6.512,M,-37.446,M,7.4,0135*69
$PYRTM,2024,122.417482644861,13.527130055000
$GNHDT,292.105,T*26
$PYRTM,2024,122.417488483600,13.527135893738
$GNGGA,100111.00,3334.98955360,N,11950.97894533,W,2,11,0.9,7.028,M,-37.446,M,4.0,0135*6D
$PYRTM,2024,122.417488483600,13.527135893738
$GNHDT,292.317,T*27
$PYRTM,2024,122.417494228171,13.527141638310
$GNGGA,100111.50,3334.98996028,N,11950.98023890,W,2,11,0.9,7.167,M,-37.446,M,4.4,0135*69
$PYRTM,2024,122.417494228171,13.527141638310
$GNHDT,292.394,T*2C
$PYRTM,2024,122.417500061979,13.527147472118
$GNGGA,100112.00,3334.99041693,N,11950.98166130,W,2,11,0.9,6.764,M,-37.446,M,5.0,0135*69
$PYRTM,2024,122.417500061979,13.527147472118
$GNHDT,292.859,T*26
$PYRTM,2024,122.417505799525,13.527153209664
$GNGGA,100112.50,3334.99087943,N,11950.98314933,W,2,11,0.9,5.926,M,-37.446,M,5.4,0135*67
$PYRTM,2024,122.417505799525,13.527153209664
$GNHDT,292.216,T*27
$PYRTM,2024,122.417511631377,13.527159041505
$GNGGA,100113.00,3334.99130201,N,11950.98459413,W,2,11,0.9,5.042,M,-37.446,M,6.0,0135*6E
$PYRTM,2024,122.417511631377,13.527159041505
$GNHDT,292.205,T*25
$PYRTM,2024,122.417517365683,13.527164775822
$GNGGA,100113.50,3334.99164657,N,11950.98593990,W,2,11,0.9,4.494,M,-37.446,M,6.4,0135*66
$PYRTM,2024,122.417517365683,13.527164775822
$GNHDT,292.546,T*25
$PYRTM,2024,122.417523207454,13.527170617593
$GNGGA,100114.00,3334.99191349,N,11950.98718160,W,2,11,0.9,4.488,M,-37.446,M,7.0,0135*6A
$PYRTM,2024,122.417523207454,13.527170617593
$GNHDT,292.594,T*2A
$PYRTM,2024,122.417528938866,13.527176349005
$GNGGA,100114.50,3334.99214019,N,11950.98837004,W,2,11,0.9,4.937,M,-37.446,M,7.4,0135*6B
$PYRTM,2024,122.417528938866,13.527176349005
$GNHDT,292.318,T*28
$PYRTM,2024,122.417534778079,13.527182188218
$GNGGA,100115.00,3334.99239004,N,11950.98958087,W,2,11,0.9,5.588,M,-37.446,M,7.0,0135*62
$PYRTM,2024,122.417534778079,13.527182188218
$GNHDT,291.890,T*20
$PYRTM,2024,122.417540523762,13.527187933900
$GNGGA,100115.50,3334.99273237,N,11950.99083893,W,2,11,0.9,6.130,M,-37.446,M,7.4,0135*68
$PYRTM,2024,122.417540523762,13.527187933900
$GNHDT,292.388,T*21
$PYRTM,2024,122.417546353102,13.527193763241
$GNGGA,100116.00,3334.99316058,N,11950.99214728,W,2,11,0.9,6.443,M,-37.446,M,7.0,0135*61
$PYRTM,2024,122.417546353102,13.527193763241
$GNHDT,292.279,T*2E
$PYRTM,2024,122.417552092662,13.527199502801
$GNGGA,100116.50,3334.99363949,N,11950.99349865,W,2,11,0.9,6.401,M,-37.446,M,7.4,0135*62
$PYRTM,2024,122.417552092662,13.527199502801
$GNHDT,292.460,T*20
$PYRTM,2024,122.417557935347,13.527205345486
$GNGGA,100117.00,3334.99411426,N,11950.99485874,W,2,11,0.9,6.104,M,-37.446,M,4.0,0135*60
$PYRTM,2024,122.417557935347,13.527205345486
$GNHDT,292.177,T*23
$PYRTM,2024,122.417563662361,13.527211072500
$GNGGA,100117.50,3334.99454962,N,11950.99621640,W,2,11,0.9,5.658,M,-37.446,M,4.4,0135*65
$PYRTM,2024,122.417563662361,13.527211072500
$GNHDT,292.005,T*27
$PYRTM,2024,122.417569505139,13.527216915278
$GNGGA,100118.00,3334.99492526,N,11950.99755966,W,2,11,0.9,5.246,M,-37.446,M,5.0,0135*6E
$PYRTM,2024,122.417569505139,13.527216915278
$GNHDT,291.916,T*2F
$PYRTM,2024,122.417575237778,13.527222647917
$GNGGA,100118.50,3334.99522298,N,11950.99888019,W,2,11,0.9,5.025,M,-37.446,M,5.4,0135*6E
$PYRTM,2024,122.417575237778,13.527222647917
$GNHDT,291.892,T*22
$PYRTM,2024,122.417581080417,13.527228490556
$GNGGA,100119.00,3334.99546378,N,11951.00017989,W,2,11,0.9,5.059,M,-37.446,M,6.0,0135*64
$PYRTM,2024,122.417581080417,13.527228490556
$GNHDT,291.914,T*2D
$PYRTM,2024,122.417586823148,13.527234233287
$GNGGA,100119.50,3334.99570437,N,11951.00146834,W,2,11,0.9,5.268,M,-37.446,M,6.4,0135*6E
$PYRTM,2024,122.417586823148,13.527234233287
$GNHDT,291.978,T*27
$PYRTM,2024,122.417592654039,13.527240064178
$GNGGA,100120.00,3334.99598607,N,11951.00276231,W,2,11,0.9,5.540,M,-37.446,M,7.0,0135*61
$PYRTM,2024,122.417592654039,13.527240064178
$GNHDT,292.076,T*23
$PYRTM,2024,122.417598386377,13.527245796516
$GNGGA,100120.50,3334.99635492,N,11951.00407256,W,2,11,0.9,5.763,M,-37.446,M,7.4,0135*68
$PYRTM,2024,122.417598386377,13.527245796516
$GNHDT,291.834,T*2E
$PYRTM,2024,122.417604228160,13.527251638310
$GNGGA,100121.00,3334.99679623,N,11951.00536265,W,2,11,0.9,5.951,M,-37.446,M,7.0,0135*64
$PYRTM,2024,122.417604228160,13.527251638310
$GNHDT,291.778,T*29
$PYRTM,2024,122.417609961794,13.527257371933
$GNGGA,100121.50,3334.99726156,N,11951.00660210,W,2,11,0.9,6.126,M,-37.446,M,7.4,0135*62
$PYRTM,2024,122.417609961794,13.527257371933
$GNHDT,291.773,T*22
$PYRTM,2024,122.417615797072,13.527263207222
$GNGGA,100122.00,3334.99770211,N,11951.00782369,W,2,11,0.9,6.302,M,-37.446,M,7.0,0135*65
$PYRTM,2024,122.417615797072,13.527263207222
$GNHDT,291.656,T*24
$PYRTM,2024,122.417621533229,13.527268943368
$GNGGA,100122.50,3334.99810211,N,11951.00908086,W,2,11,0.9,6.399,M,-37.446,M,7.4,0135*61
$PYRTM,2024,122.417621533229,13.527268943368
$GNHDT,291.693,T*2D
$PYRTM,2024,122.417627372014,13.527274782153
$GNGGA,100123.00,3334.99845692,N,11951.01043218,W,2,11,0.9,6.255,M,-37.446,M,4.0,0135*6E
$PYRTM,2024,122.417627372014,13.527274782153
$GNHDT,291.767,T*27
$PYRTM,2024,122.417633113843,13.527280523981
$GNGGA,100123.50,3334.99878512,N,11951.01185232,W,2,11,0.9,5.952,M,-37.446,M,4.4,0135*66
$PYRTM,2024,122.417633113843,13.527280523981
$GNHDT,291.230,T*20
$PYRTM,2024,122.417638947882,13.527286358021
$GNGGA,100124.00,3334.99908531,N,11951.01327030,W,2,11,0.9,5.583,M,-37.446,M,5.0,0135*6C
$PYRTM,2024,122.417638947882,13.527286358021
$GNHDT,291.357,T*20
$PYRTM,2024,122.417644679259,13.527292089410
$GNGGA,100124.50,3334.99936202,N,11951.01461907,W,2,11,0.9,5.346,M,-37.446,M,5.4,0135*60
$PYRTM,2024,122.417644679259,13.527292089410
$GNHDT,291.748,T*2A
$PYRTM,2024,122.417650522164,13.527297932303
$GNGGA,100125.00,3334.99963717,N,11951.01588021,W,2,11,0.9,5.345,M,-37.446,M,6.0,0135*6A
$PYRTM,2024,122.417650522164,13.527297932303
$GNHDT,292.049,T*2F
$PYRTM,2024,122.417656257153,13.527303667292
$GNGGA,100125.50,3334.99995632,N,11951.01708792,W,2,11,0.9,5.524,M,-37.446,M,6.4,0135*60
$PYRTM,2024,122.417656257153,13.527303667292
$GNHDT,292.243,T*27
$PYRTM,2024,122.417662096458,13.527309506597
$GNGGA,100126.00,3335.00036164,N,11951.01831767,W,2,11,0.9,5.711,M,-37.446,M,7.0,0135*6D
$PYRTM,2024,122.417662096458,13.527309506597
$GNHDT,292.447,T*25
$PYRTM,2024,122.417667835475,13.527315245613
$GNGGA,100126.50,3335.00085728,N,11951.01961950,W,2,11,0.9,5.710,M,-37.446,M,7.4,0135*65
$PYRTM,2024,122.417667835475,13.527315245613
$GNHDT,292.248,T*2C
$PYRTM,2024,122.417673668461,13.527321078600
$GNGGA,100127.00,3335.00139682,N,11951.02099812,W,2,11,0.9,5.507,M,-37.446,M,7.0,0135*6C
$PYRTM,2024,122.417673668461,13.527321078600
$GNHDT,292.375,T*23
$PYRTM,2024,122.417679403623,13.527326813762
$GNGGA,100127.50,3335.00191321,N,11951.02240641,W,2,11,0.9,5.218,M,-37.446,M,7.4,0135*64
$PYRTM,2024,122.417679403623,13.527326813762
$GNHDT,292.392,T*2A
$PYRTM,2024,122.417685242581,13.527332652720
$GNGGA,100128.00,3335.00232180,N,11951.02379496,W,2,11,0.9,5.067,M,-37.446,M,7.0,0135*60
$PYRTM,2024,122.417685242581,13.527332652720
$GNHDT,292.127,T*26
$PYRTM,2024,122.417690976690,13.527338386829
$GNGGA,100128.50,3335.00261237,N,11951.02512442,W,2,11,0.9,5.222,M,-37.446,M,7.4,0135*69
$PYRTM,2024,122.417690976690,13.527338386829
$GNHDT,292.134,T*24
$PYRTM,2024,122.417696820810,13.527344230949
$GNGGA,100129.00,3335.00282534,N,11951.02637393,W,2,11,0.9,5.660,M,-37.446,M,4.0,0135*6E
$PYRTM,2024,122.417696820810,13.527344230949
$GNHDT,291.878,T*26
$PYRTM,2024,122.417702554491,13.527349964641
$GNGGA,100129.50,3335.00303061,N,11951.02761042,W,2,11,0.9,6.171,M,-37.446,M,4.4,0135*6B
$PYRTM,2024,122.417702554491,13.527349964641
$GNHDT,291.802,T*2B
$PYRTM,2024,122.417708389005,13.527355799144
$GNGGA,100130.00,3335.00328491,N,11951.02889044,W,2,11,0.9,6.528,M,-37.446,M,5.0,0135*66
$PYRTM,2024,122.417708389005,13.527355799144
$GNHDT,291.855,T*29
$PYRTM,2024,122.417714130486,13.527361540637
$GNGGA,100130.50,3335.00363981,N,11951.03027638,W,2,11,0.9,6.431,M,-37.446,M,5.4,0135*6D
$PYRTM,2024,122.417714130486,13.527361540637
$GNHDT,291.754,T*27
$PYRTM,2024,122.417719965231,13.527367375370
$GNGGA,100131.00,3335.00407215,N,11951.03169398,W,2,11,0.9,5.993,M,-37.446,M,6.0,0135*6F
$PYRTM,2024,122.417719965231,13.527367375370
$GNHDT,291.730,T*25
$PYRTM,2024,122.417725699421,13.527373109560
$GNGGA,100131.50,3335.00451947,N,11951.03304971,W,2,11,0.9,5.441,M,-37.446,M,6.4,0135*67
$PYRTM,2024,122.417725699421,13.527373109560
$GNHDT,291.731,T*24
$PYRTM,2024,122.417731543495,13.527378953634
$GNGGA,100132.00,3335.00494647,N,11951.03430214,W,2,11,0.9,5.071,M,-37.446,M,7.0,0135*6D
$PYRTM,2024,122.417731543495,13.527378953634
$GNHDT,291.494,T*28
$PYRTM,2024,122.417737278889,13.527384689028
$GNGGA,100132.50,3335.00532813,N,11951.03544694,W,2,11,0.9,5.074,M,-37.446,M,7.4,0135*65
$PYRTM,2024,122.417737278889,13.527384689028
$GNHDT,291.891,T*21
$PYRTM,2024,122.417743119664,13.527390529803
$GNGGA,100133.00,3335.00565962,N,11951.03656945,W,2,11,0.9,5.368,M,-37.446,M,7.0,0135*6D
$PYRTM,2024,122.417743119664,13.527390529803
$GNHDT,292.068,T*2C
$PYRTM,2024,122.417748850544,13.527396260683
$GNGGA,100133.50,3335.00596934,N,11951.03775513,W,2,11,0.9,5.739,M,-37.446,M,7.4,0135*6C
$PYRTM,2024,122.417748850544,13.527396260683
$GNHDT,292.129,T*28
$PYRTM,2024,122.417754692697,13.527402102836
$GNGGA,100134.00,3335.00627461,N,11951.03908656,W,2,11,0.9,5.922,M,-37.446,M,7.0,0135*6C
$PYRTM,2024,122.417754692697,13.527402102836
$GNHDT,292.067,T*23
$PYRTM,2024,122.417760419398,13.527407829537
$GNGGA,100134.50,3335.00660412,N,11951.04053400,W,2,11,0.9,5.802,M,-37.446,M,7.4,0135*68
$PYRTM,2024,122.417760419398,13.527407829537
$GNHDT,292.352,T*26
$PYRTM,2024,122.417766260255,13.527413670394
$GNGGA,100135.00,3335.00694745,N,11951.04200083,W,2,11,0.9,5.460,M,-37.446,M,4.0,0135*62
$PYRTM,2024,122.417766260255,13.527413670394
$GNHDT,292.303,T*22
$PYRTM,2024,122.417772000706,13.527419410845
$GNGGA,100135.50,3335.00730781,N,11951.04341892,W,2,11,0.9,5.061,M,-37.446,M,4.4,0135*6D
$PYRTM,2024,122.417772000706,13.527419410845
$GNHDT,291.859,T*25
$PYRTM,2024,122.417777839132,13.527425249271
$GNGGA,100136.00,3335.00769163,N,11951.04473544,W,2,11,0.9,4.835,M,-37.446,M,5.0,0135*60
$PYRTM,2024,122.417777839132,13.527425249271
$GNHDT,292.146,T*21
$PYRTM,2024,122.417783571759,13.527430981898
$GNGGA,100136.50,3335.00810050,N,11951.04595871,W,2,11,0.9,4.876,M,-37.446,M,5.4,0135*64
$PYRTM,2024,122.417783571759,13.527430981898
$GNHDT,292.933,T*2B
$PYRTM,2024,122.417789415822,13.527436825961
$GNGGA,100137.00,3335.00852204,N,11951.04714944,W,2,11,0.9,5.142,M,-37.446,M,6.0,0135*61
$PYRTM,2024,122.417789415822,13.527436825961
$GNHDT,292.940,T*2F
$PYRTM,2024,122.417795146123,13.527442556262
$GNGGA,100137.50,3335.00893703,N,11951.04837820,W,2,11,0.9,5.498,M,-37.446,M,6.4,0135*60
$PYRTM,2024,122.417795146123,13.527442556262
$GNHDT,292.474,T*25
$PYRTM,2024,122.417800984271,13.527448394410
$GNGGA,100138.00,3335.00933681,N,11951.04968291,W,2,11,0.9,5.806,M,-37.446,M,7.0,0135*6F
$PYRTM,2024,122.417800984271,13.527448394410
$GNHDT,292.367,T*20
$PYRTM,2024,122.417806724132,13.527454134271
$GNGGA,100138.50,3335.00972971,N,11951.05102414,W,2,11,0.9,5.981,M,-37.446,M,7.4,0135*6B
$PYRTM,2024,122.417806724132,13.527454134271
$GNHDT,292.333,T*21
$PYRTM,2024,122.417812558611,13.527459968750
$GNGGA,100139.00,3335.01010794,N,11951.05234592,W,2,11,0.9,6.073,M,-37.446,M,7.0,0135*6C
$PYRTM,2024,122.417812558611,13.527459968750
$GNHDT,292.595,T*2B
$PYRTM,2024,122.417818297373,13.527465707512
$GNGGA,100139.50,3335.01047190,N,11951.05362103,W,2,11,0.9,6.172,M,-37.446,M,7.4,0135*63
$PYRTM,2024,122.417818297373,13.527465707512
$GNHDT,293.062,T*27
$PYRTM,2024,122.417824128669,13.527471538808
$GNGGA,100140.00,3335.01082923,N,11951.05486718,W,2,11,0.9,6.277,M,-37.446,M,7.0,0135*62
$PYRTM,2024,122.417824128669,13.527471538808
$GNHDT,293.196,T*2D
$PYRTM,2024,122.417829872222,13.527477282361
$GNGGA,100140.50,3335.01119697,N,11951.05610979,W,2,11,0.9,6.347,M,-37.446,M,7.4,0135*66
$PYRTM,2024,122.417829872222,13.527477282361
$GNHDT,292.989,T*2A
$PYRTM,2024,122.417835705012,13.527483115150
$GNGGA,100141.00,3335.01156457,N,11951.05738316,W,2,11,0.9,6.323,M,-37.446,M,4.0,0135*6A
$PYRTM,2024,122.417835705012,13.527483115150
$GNHDT,292.558,T*2A
$PYRTM,2024,122.417841444248,13.527488854398
$GNGGA,100141.50,3335.01192365,N,11951.05870157,W,2,11,0.9,6.184,M,-37.446,M,4.4,0135*6E
$PYRTM,2024,122.417841444248,13.527488854398
$GNHDT,292.317,T*27
$PYRTM,2024,122.417847282789,13.527494692928
$GNGGA,100142.00,3335.01226813,N,11951.06005325,W,2,11,0.9,5.950,M,-37.446,M,5.0,0135*67
$PYRTM,2024,122.417847282789,13.527494692928
$GNHDT,292.426,T*22
$PYRTM,2024,122.417853016065,13.527500426204
$GNGGA,100142.50,3335.01261505,N,11951.06139575,W,2,11,0.9,5.696,M,-37.446,M,5.4,0135*67
$PYRTM,2024,122.417853016065,13.527500426204
$GNHDT,292.170,T*24
$PYRTM,2024,122.417858850648,13.527506260787
$GNGGA,100143.00,3335.01297228,N,11951.06270268,W,2,11,0.9,5.510,M,-37.446,M,6.0,0135*6D
$PYRTM,2024,122.417858850648,13.527506260787
$GNHDT,292.121,T*20
$PYRTM,2024,122.417864586771,13.527511996910
$GNGGA,100143.50,3335.01335343,N,11951.06396574,W,2,11,0.9,5.429,M,-37.446,M,6.4,0135*61
$PYRTM,2024,122.417864586771,13.527511996910
$GNHDT,292.353,T*27
$PYRTM,2024,122.417870432002,13.527517842141
$GNGGA,100144.00,3335.01376580,N,11951.06522431,W,2,11,0.9,5.417,M,-37.446,M,7.0,0135*6C
$PYRTM,2024,122.417870432002,13.527517842141
$GNHDT,292.678,T*2B
$PYRTM,2024,122.417876166956,13.527523577095
$GNGGA,100144.50,3335.01421705,N,11951.06654329,W,2,11,0.9,5.364,M,-37.446,M,7.4,0135*68
$PYRTM,2024,122.417876166956,13.527523577095
$GNHDT,292.650,T*21
$PYRTM,2024,122.417882004282,13.527529414421
$GNGGA,100145.00,3335.01469605,N,11951.06794008,W,2,11,0.9,5.180,M,-37.446,M,7.0,0135*60
$PYRTM,2024,122.417882004282,13.527529414421
$GNHDT,292.724,T*23
$PYRTM,2024,122.417887736933,13.527535147072
$GNGGA,100145.50,3335.01515299,N,11951.06938367,W,2,11,0.9,4.918,M,-37.446,M,7.4,0135*60
$PYRTM,2024,122.417887736933,13.527535147072
$GNHDT,292.836,T*2F
$PYRTM,2024,122.417893574421,13.527540984560
$GNGGA,100146.00,3335.01554263,N,11951.07083581,W,2,11,0.9,4.723,M,-37.446,M,7.0,0135*62
$PYRTM,2024,122.417893574421,13.527540984560
$GNHDT,292.669,T*2B
$PYRTM,2024,122.417899315139,13.527546725278
$GNGGA,100146.50,3335.01584975,N,11951.07220462,W,2,11,0.9,4.814,M,-37.446,M,7.4,0135*6E
$PYRTM,2024,122.417899315139,13.527546725278
$GNHDT,292.641,T*21
$PYRTM,2024,122.417905150764,13.527552560903
$GNGGA,100147.00,3335.01611094,N,11951.07345581,W,2,11,0.9,5.249,M,-37.446,M,4.0,0135*69
$PYRTM,2024,122.417905150764,13.527552560903
$GNHDT,292.702,T*27
$PYRTM,2024,122.417910887743,13.527558297882
$GNGGA,100147.50,3335.01638525,N,11951.07464153,W,2,11,0.9,5.841,M,-37.446,M,4.4,0135*61
$PYRTM,2024,122.417910887743,13.527558297882
$GNHDT,292.846,T*28
$PYRTM,2024,122.417916728657,13.527564138796
$GNGGA,100148.00,3335.01673556,N,11951.07584239,W,2,11,0.9,6.382,M,-37.446,M,5.0,0135*62
$PYRTM,2024,122.417916728657,13.527564138796
$GNHDT,292.914,T*2E
$PYRTM,2024,122.417922458495,13.527569868634
$GNGGA,100148.50,3335.01718988,N,11951.07715912,W,2,11,0.9,6.495,M,-37.446,M,5.4,0135*69
$PYRTM,2024,122.417922458495,13.527569868634
$GNHDT,293.109,T*2B
$PYRTM,2024,122.417928300729,13.527575710868
$GNGGA,100149.00,3335.01768478,N,11951.07856066,W,2,11,0.9,6.191,M,-37.446,M,6.0,0135*6C
$PYRTM,2024,122.417928300729,13.527575710868
$GNHDT,293.048,T*2F
$PYRTM,2024,122.417934037650,13.527581447789
$GNGGA,100149.50,3335.01815184,N,11951.07992934,W,2,11,0.9,5.704,M,-37.446,M,6.4,0135*60
$PYRTM,2024,122.417934037650,13.527581447789
$GNHDT,292.625,T*23
$PYRTM,2024,122.417939870324,13.527587280463
$GNGGA,100150.00,3335.01855421,N,11951.08120357,W,2,11,0.9,5.337,M,-37.446,M,7.0,0135*63
$PYRTM,2024,122.417939870324,13.527587280463
$GNHDT,292.515,T*23
$PYRTM,2024,122.417945606678,13.527593016829
$GNGGA,100150.50,3335.01888038,N,11951.08238163,W,2,11,0.9,5.289,M,-37.446,M,7.4,0135*65
$PYRTM,2024,122.417945606678,13.527593016829
$GNHDT,292.892,T*21
$PYRTM,2024,122.417951450417,13.527598860556
$GNGGA,100151.00,3335.01916728,N,11951.08351377,W,2,11,0.9,5.531,M,-37.446,M,7.0,0135*68
$PYRTM,2024,122.417951450417,13.527598860556
$GNHDT,292.932,T*2A
$PYRTM,2024,122.417957179780,13.527604589919
$GNGGA,100151.50,3335.01946682,N,11951.08469577,W,2,11,0.9,5.838,M,-37.446,M,7.4,0135*63
$PYRTM,2024,122.417957179780,13.527604589919
$GNHDT,292.930,T*28
$PYRTM,2024,122.417963016412,13.527610426551
$GNGGA,100152.00,3335.01981411,N,11951.08599761,W,2,11,0.9,5.977,M,-37.446,M,7.0,0135*63
$PYRTM,2024,122.417963016412,13.527610426551
$GNHDT,292.825,T*2D
$PYRTM,2024,122.417968754745,13.527616164884
$GNGGA,100152.50,3335.02021515,N,11951.08736768,W,2,11,0.9,5.864,M,-37.446,M,7.4,0135*6A
$PYRTM,2024,122.417968754745,13.527616164884
$GNHDT,292.549,T*2A
$PYRTM,2024,122.417974599340,13.527622009491
$GNGGA,100153.00,3335.02064762,N,11951.08873621,W,2,11,0.9,5.592,M,-37.446,M,4.0,0135*6C
$PYRTM,2024,122.417974599340,13.527622009491
$GNHDT,292.929,T*20
$PYRTM,2024,122.417980329329,13.527627739468
$GNGGA,100153.50,3335.02109252,N,11951.09005953,W,2,11,0.9,5.278,M,-37.446,M,4.4,0135*60
$PYRTM,2024,122.417980329329,13.527627739468
$GNHDT,292.992,T*20
$PYRTM,2024,122.417986167581,13.527633577720
$GNGGA,100154.00,3335.02154440,N,11951.09132647,W,2,11,0.9,5.080,M,-37.446,M,5.0,0135*60
$PYRTM,2024,122.417986167581,13.527633577720
$GNHDT,293.220,T*23
$PYRTM,2024,122.417991905301,13.527639315451
$GNGGA,100154.50,3335.02199770,N,11951.09257723,W,2,11,0.9,5.052,M,-37.446,M,5.4,0135*6C
$PYRTM,2024,122.417991905301,13.527639315451
$GNHDT,293.009,T*2A
$PYRTM,2024,122.417997739201,13.527645149340
$GNGGA,100155.00,3335.02244127,N,11951.09384557,W,2,11,0.9,5.187,M,-37.446,M,6.0,0135*6F
$PYRTM,2024,122.417997739201,13.527645149340
$GNHDT,292.785,T*28
$PYRTM,2024,122.418003477720,13.527650887859
$GNGGA,100155.50,3335.02285813,N,11951.09514473,W,2,11,0.9,5.415,M,-37.446,M,6.4,0135*6B
$PYRTM,2024,122.418003477720,13.527650887859
$GNHDT,292.221,T*23
$PYRTM,2024,122.418009313194,13.527656723333
$GNGGA,100156.00,3335.02322108,N,11951.09646521,W,2,11,0.9,5.718,M,-37.446,M,7.0,0135*6B
$PYRTM,2024,122.418009313194,13.527656723333
$GNHDT,292.001,T*23
$PYRTM,2024,122.418015049942,13.527662460081
$GNGGA,100156.50,3335.02353223,N,11951.09779710,W,2,11,0.9,6.007,M,-37.446,M,7.4,0135*61
$PYRTM,2024,122.418015049942,13.527662460081
$GNHDT,292.201,T*21
$PYRTM,2024,122.418020898403,13.527668308542
$GNGGA,100157.00,3335.02382089,N,11951.09915021,W,2,11,0.9,6.192,M,-37.446,M,7.0,0135*63
$PYRTM,2024,122.418020898403,13.527668308542
$GNHDT,292.197,T*2D
$PYRTM,2024,122.418026624317,13.527674034456
$GNGGA,100157.50,3335.02413266,N,11951.10054007,W,2,11,0.9,6.188,M,-37.446,M,7.4,0135*65
$PYRTM,2024,122.418026624317,13.527674034456
$GNHDT,291.867,T*28
$PYRTM,2024,122.418032465046,13.527679875185
$GNGGA,100158.00,3335.02449234,N,11951.10196771,W,2,11,0.9,5.950,M,-37.446,M,7.0,0135*64
$PYRTM,2024,122.418032465046,13.527679875185
$GNHDT,291.713,T*24
$PYRTM,2024,122.418038201111,13.527685611250
$GNGGA,100158.50,3335.02489223,N,11951.10336786,W,2,11,0.9,5.646,M,-37.446,M,7.4,0135*67
$PYRTM,2024,122.418038201111,13.527685611250
$GNHDT,291.553,T*22
$PYRTM,2024,122.418044035278,13.527691445417
$GNGGA,100159.00,3335.02531865,N,11951.10467110,W,2,11,0.9,5.440,M,-37.446,M,4.0,0135*60
$PYRTM,2024,122.418044035278,13.527691445417
$GNHDT,291.320,T*20
$PYRTM,2024,122.418049781829,13.527697191968
$GNGGA,100159.50,3335.02575756,N,11951.10587163,W,2,11,0.9,5.451,M,-37.446,M,4.4,0135*65
$PYRTM,2024,122.418049781829,13.527697191968
$GNHDT,291.920,T*2A
$PYRTM,2024,122.418055619074,13.527703029213
$GNGGA,100200.00,3335.02619389,N,11951.10702709,W,2,11,0.9,5.653,M,-37.446,M,5.0,0135*60
$PYRTM,2024,122.418055619074,13.527703029213
$GNHDT,292.032,T*23
$PYRTM,2024,122.418061345799,13.527708755937
$GNGGA,100200.50,3335.02661425,N,11951.10822936,W,2,11,0.9,5.905,M,-37.446,M,5.4,0135*6C
$PYRTM,2024,122.418061345799,13.527708755937
$GNHDT,291.921,T*2B
$PYRTM,2024,122.418067194363,13.527714604514
$GNGGA,100201.00,3335.02702249,N,11951.10952030,W,2,11,0.9,6.055,M,-37.446,M,6.0,0135*61
$PYRTM,2024,122.418067194363,13.527714604514
$GNHDT,292.111,T*23
$PYRTM,2024,122.418072922616,13.527720332755
$GNGGA,100201.50,3335.02741311,N,11951.11089561,W,2,11,0.9,6.014,M,-37.446,M,6.4,0135*61
$PYRTM,2024,122.418072922616,13.527720332755
$GNHDT,292.011,T*22
$PYRTM,2024,122.418078764062,13.527726174201
$GNGGA,100202.00,3335.02776901,N,11951.11232138,W,2,11,0.9,5.811,M,-37.446,M,7.0,0135*69
$PYRTM,2024,122.418078764062,13.527726174201
$GNHDT,292.272,T*25
$PYRTM,2024,122.418084495139,13.527731905278
$GNGGA,100202.50,3335.02809023,N,11951.11376078,W,2,11,0.9,5.541,M,-37.446,M,7.4,0135*6A
$PYRTM,2024,122.418084495139,13.527731905278
$GNHDT,292.087,T*2D
$PYRTM,2024,122.418090331794,13.527737741933
$GNGGA,100203.00,3335.02838300,N,11951.11515064,W,2,11,0.9,5.328,M,-37.446,M,7.0,0135*6D
$PYRTM,2024,122.418090331794,13.527737741933
$GNHDT,292.047,T*21
$PYRTM,2024,122.418096071192,13.527743481331
$GNGGA,100203.50,3335.02866381,N,11951.11644484,W,2,11,0.9,5.355,M,-37.446,M,7.4,0135*69
$PYRTM,2024,122.418096071192,13.527743481331
$GNHDT,292.001,T*23
$PYRTM,2024,122.418101912778,13.527749322917
$GNGGA,100204.00,3335.02896501,N,11951.11766303,W,2,11,0.9,5.600,M,-37.446,M,7.0,0135*62
$PYRTM,2024,122.418101912778,13.527749322917
$GNHDT,291.896,T*26
$PYRTM,2024,122.418107650104,13.527755060243
$GNGGA,100204.50,3335.02931781,N,11951.11884241,W,2,11,0.9,5.923,M,-37.446,M,7.4,0135*6F
$PYRTM,2024,122.418107650104,13.527755060243
$GNHDT,291.915,T*2C
$PYRTM,2024,122.418113481933,13.527760892072
$GNGGA,100205.00,3335.02974201,N,11951.12006497,W,2,11,0.9,6.089,M,-37.446,M,4.0,0135*66
$PYRTM,2024,122.418113481933,13.527760892072
$GNHDT,291.910,T*29
$PYRTM,2024,122.418119224699,13.527766634838
$GNGGA,100205.50,3335.03022421,N,11951.12139025,W,2,11,0.9,5.900,M,-37.446,M,4.4,0135*63
$PYRTM,2024,122.418119224699,13.527766634838
$GNHDT,292.392,T*2A
$PYRTM,2024,122.418125058102,13.527772468241
$GNGGA,100206.00,3335.03070899,N,11951.12279772,W,2,11,0.9,5.398,M,-37.446,M,5.0,0135*61
$PYRTM,2024,122.418125058102,13.527772468241
$GNHDT,292.452,T*21
$PYRTM,2024,122.418130798137,13.527778208287
$GNGGA,100206.50,3335.03114512,N,11951.12423315,W,2,11,0.9,4.827,M,-37.446,M,5.4,0135*6F
$PYRTM,2024,122.418130798137,13.527778208287
$GNHDT,292.151,T*27
$PYRTM,2024,122.418136634664,13.527784044803
$GNGGA,100207.00,3335.03150458,N,11951.12563547,W,2,11,0.9,4.430,M,-37.446,M,6.0,0135*6D
$PYRTM,2024,122.418136634664,13.527784044803
$GNHDT,292.301,T*20
$PYRTM,2024,122.418142367546,13.527789777685
$GNGGA,100207.50,3335.03178223,N,11951.12694105,W,2,11,0.9,4.506,M,-37.446,M,6.4,0135*61
$PYRTM,2024,122.418142367546,13.527789777685
$GNHDT,291.889,T*28
$PYRTM,2024,122.418148209572,13.527795619711
$GNGGA,100208.00,3335.03201963,N,11951.12815140,W,2,11,0.9,5.017,M,-37.446,M,7.0,0135*6E
$PYRTM,2024,122.418148209572,13.527795619711
$GNHDT,292.081,T*2B
$PYRTM,2024,122.418153950914,13.527801361053
$GNGGA,100208.50,3335.03226569,N,11951.12931454,W,2,11,0.9,5.756,M,-37.446,M,7.4,0135*69
$PYRTM,2024,122.418153950914,13.527801361053
$GNHDT,292.369,T*2E
$PYRTM,2024,122.418159780995,13.527807191134
$GNGGA,100209.00,3335.03256616,N,11951.13050276,W,2,11,0.9,6.440,M,-37.446,M,7.0,0135*6B
$PYRTM,2024,122.418159780995,13.527807191134
$GNHDT,292.294,T*2D
$PYRTM,2024,122.418165517326,13.527812927465
$GNGGA,100209.50,3335.03296117,N,11951.13177720,W,2,11,0.9,6.756,M,-37.446,M,7.4,0135*66
$PYRTM,2024,122.418165517326,13.527812927465
$GNHDT,292.571,T*21
$PYRTM,2024,122.418171355949,13.527818766088
$GNGGA,100210.00,3335.03343251,N,11951.13312583,W,2,11,0.9,6.604,M,-37.446,M,7.0,0135*6B
$PYRTM,2024,122.418171355949,13.527818766088
$GNHDT,292.240,T*24
$PYRTM,2024,122.418177088519,13.527824498657
$GNGGA,100210.50,3335.03392316,N,11951.13452644,W,2,11,0.9,6.065,M,-37.446,M,7.4,0135*6E
$PYRTM,2024,122.418177088519,13.527824498657
$GNHDT,292.337,T*25
$PYRTM,2024,122.418182934109,13.527830344248
$GNGGA,100211.00,3335.03437423,N,11951.13593420,W,2,11,0.9,5.359,M,-37.446,M,4.0,0135*67
$PYRTM,2024,122.418182934109,13.527830344248
$GNHDT,291.872,T*2C
$PYRTM,2024,122.418188661713,13.527836071852
$GNGGA,100211.50,3335.03476431,N,11951.13730335,W,2,11,0.9,4.799,M,-37.446,M,4.4,0135*61
$PYRTM,2024,122.418188661713,13.527836071852
$GNHDT,292.091,T*2A
$PYRTM,2024,122.418194504051,13.527841914190
$GNGGA,100212.00,3335.03510145,N,11951.13860130,W,2,11,0.9,4.628,M,-37.446,M,5.0,0135*63
$PYRTM,2024,122.418194504051,13.527841914190
$GNHDT,292.052,T*25
$PYRTM,2024,122.418200240984,13.527847651123
$GNGGA,100212.50,3335.03540715,N,11951.13978902,W,2,11,0.9,4.978,M,-37.446,M,5.4,0135*6F
$PYRTM,2024,122.418200240984,13.527847651123
$GNHDT,292.177,T*23
$PYRTM,2024,122.418206074618,13.527853484757
$GNGGA,100213.00,3335.03571519,N,11951.14090002,W,2,11,0.9,5.678,M,-37.446,M,6.0,0135*6F
$PYRTM,2024,122.418206074618,13.527853484757
$GNHDT,292.144,T*23
$PYRTM,2024,122.418211818391,13.527859228530
$GNGGA,100213.50,3335.03604617,N,11951.14202081,W,2,11,0.9,6.478,M,-37.446,M,6.4,0135*61
$PYRTM,2024,122.418211818391,13.527859228530
$GNHDT,292.526,T*23
$PYRTM,2024,122.418217653576,13.527865063715
$GNGGA,100214.00,3335.03641338,N,11951.14321315,W,2,11,0.9,7.076,M,-37.446,M,7.0,0135*6A
$PYRTM,2024,122.418217653576,13.527865063715
$GNHDT,292.448,T*2A
$PYRTM,2024,122.418223383634,13.527870793785
$GNGGA,100214.50,3335.03682602,N,11951.14452958,W,2,11,0.9,7.189,M,-37.445,M,7.4,0135*6A
$PYRTM,2024,122.418223383634,13.527870793785
$GNHDT,292.351,T*25
$PYRTM,2024,122.418229225231,13.527876635370
$GNGGA,100215.00,3335.03726426,N,11951.14594269,W,2,11,0.9,6.748,M,-37.445,M,7.0,0135*69
$PYRTM,2024,122.418229225231,13.527876635370
$GNHDT,292.354,T*20
$PYRTM,2024,122.418234961817,13.527882371956
$GNGGA,100215.50,3335.03769090,N,11951.14738517,W,2,11,0.9,5.939,M,-37.445,M,7.4,0135*6B
$PYRTM,2024,122.418234961817,13.527882371956
$GNHDT,292.256,T*23
$PYRTM,2024,122.418240801111,13.527888211250
$GNGGA,100216.00,3335.03808868,N,11951.14879202,W,2,11,0.9,5.076,M,-37.445,M,7.0,0135*65
$PYRTM,2024,122.418240801111,13.527888211250
$GNHDT,292.355,T*21
$PYRTM,2024,122.418246531123,13.527893941262
$GNGGA,100216.50,3335.03844416,N,11951.15011601,W,2,11,0.9,4.533,M,-37.445,M,7.4,0135*6C
$PYRTM,2024,122.418246531123,13.527893941262
$GNHDT,292.331,T*23
$PYRTM,2024,122.418252375579,13.527899785718
$GNGGA,100217.00,3335.03875980,N,11951.15136313,W,2,11,0.9,4.442,M,-37.445,M,4.0,0135*6A
$PYRTM,2024,122.418252375579,13.527899785718
$GNHDT,292.043,T*25
$PYRTM,2024,122.418258120914,13.527905531053
$GNGGA,100217.50,3335.03905774,N,11951.15256963,W,2,11,0.9,4.746,M,-37.445,M,4.4,0135*67
$PYRTM,2024,122.418258120914,13.527905531053
$GNHDT,291.939,T*22
$PYRTM,2024,122.418263944606,13.527911354745
$GNGGA,100218.00,3335.03936150,N,11951.15376950,W,2,11,0.9,5.262,M,-37.445,M,5.0,0135*69
$PYRTM,2024,122.418263944606,13.527911354745
$GNHDT,291.576,T*25
$PYRTM,2024,122.418269685880,13.527917096019
$GNGGA,100218.50,3335.03969761,N,11951.15499465,W,2,11,0.9,5.751,M,-37.445,M,5.4,0135*6E
$PYRTM,2024,122.418269685880,13.527917096019
$GNHDT,291.399,T*22
$PYRTM,2024,122.418275518356,13.527922928495
$GNGGA,100219.00,3335.04006110,N,11951.15626080,W,2,11,0.9,6.087,M,-37.445,M,6.0,0135*6C
$PYRTM,2024,122.418275518356,13.527922928495
$GNHDT,291.517,T*22
$PYRTM,2024,122.418281255162,13.527928665301
$GNGGA,100219.50,3335.04045041,N,11951.15761580,W,2,11,0.9,6.089,M,-37.445,M,6.4,0135*66
$PYRTM,2024,122.418281255162,13.527928665301
$GNHDT,291.952,T*2F
$PYRTM,2024,122.418287096736,13.527934506887
$GNGGA,100220.00,3335.04085250,N,11951.15901636,W,2,11,0.9,5.795,M,-37.445,M,7.0,0135*6D
$PYRTM,2024,122.418287096736,13.527934506887
$GNHDT,292.072,T*27
$PYRTM,2024,122.418292836458,13.527940246597
$GNGGA,100220.50,3335.04124976,N,11951.16038059,W,2,11,0.9,5.368,M,-37.445,M,7.4,0135*60
$PYRTM,2024,122.418292836458,13.527940246597
$GNHDT,291.892,T*22
$PYRTM,2024,122.418298665706,13.527946075845
$GNGGA,100221.00,3335.04162032,N,11951.16167889,W,2,11,0.9,5.055,M,-37.445,M,7.0,0135*68
$PYRTM,2024,122.418298665706,13.527946075845
$GNHDT,291.840,T*2D
$PYRTM,2024,122.418304413391,13.527951823530
$GNGGA,100221.50,3335.04194532,N,11951.16288118,W,2,11,0.9,5.055,M,-37.445,M,7.4,0135*66
$PYRTM,2024,122.418304413391,13.527951823530
$GNHDT,292.126,T*27
$PYRTM,2024,122.418310243738,13.527957653877
$GNGGA,100222.00,3335.04223953,N,11951.16402142,W,2,11,0.9,5.364,M,-37.445,M,7.0,0135*6A
$PYRTM,2024,122.418310243738,13.527957653877
$GNHDT,292.520,T*25
$PYRTM,2024,122.418315985891,13.527963396030
$GNGGA,100222.50,3335.04253156,N,11951.16516271,W,2,11,0.9,5.778,M,-37.445,M,7.4,0135*6F
$PYRTM,2024,122.418315985891,13.527963396030
$GNHDT,292.279,T*2E
$PYRTM,2024,122.418321818646,13.527969228785
$GNGGA,100223.00,3335.04284007,N,11951.16634978,W,2,11,0.9,6.145,M,-37.445,M,4.0,0135*69
$PYRTM,2024,122.418321818646,13.527969228785
$GNHDT,292.048,T*2E
$PYRTM,2024,122.418327549410,13.527974959549
$GNGGA,100223.50,3335.04317254,N,11951.16762337,W,2,11,0.9,6.281,M,-37.445,M,4.4,0135*6F
$PYRTM,2024,122.418327549410,13.527974959549
$GNHDT,291.942,T*2E
$PYRTM,2024,122.418333393403,13.527980803542
$GNGGA,100224.00,3335.04353389,N,11951.16897735,W,2,11,0.9,6.115,M,-37.445,M,5.0,0135*64
$PYRTM,2024,122.418333393403,13.527980803542
$GNHDT,291.972,T*2D
$PYRTM,2024,122.418339127951,13.527986538090
$GNGGA,100224.50,3335.04392362,N,11951.17034855,W,2,11,0.9,5.746,M,-37.445,M,5.4,0135*67
$PYRTM,2024,122.418339127951,13.527986538090
$GNHDT,291.877,T*29
$PYRTM,2024,122.418344963588,13.527992373727
$GNGGA,100225.00,3335.04433196,N,11951.17169276,W,2,11,0.9,5.319,M,-37.445,M,6.0,0135*6D
$PYRTM,2024,122.418344963588,13.527992373727
$GNHDT,291.686,T*29
$PYRTM,2024,122.418350697569,13.527998107708
$GNGGA,100225.50,3335.04474132,N,11951.17298283,W,2,11,0.9,5.000,M,-37.445,M,6.4,0135*6D
$PYRTM,2024,122.418350697569,13.527998107708
$GNHDT,291.762,T*22
$PYRTM,2024,122.418356537940,13.528003948079
$GNGGA,100226.00,3335.04513052,N,11951.17423488,W,2,11,0.9,4.918,M,-37.445,M,7.0,0135*63
$PYRTM,2024,122.418356537940,13.528003948079
$GNHDT,291.496,T*2A
$PYRTM,2024,122.418362278044,13.528009688183
$GNGGA,100226.50,3335.04549662,N,11951.17548331,W,2,11,0.9,5.012,M,-37.445,M,7.4,0135*63
$PYRTM,2024,122.418362278044,13.528009688183
$GNHDT,291.585,T*29
$PYRTM,2024,122.418368115336,13.528015525475
$GNGGA,100227.00,3335.04583345,N,11951.17675910,W,2,11,0.9,5.215,M,-37.445,M,7.0,0135*64
$PYRTM,2024,122.418368115336,13.528015525475
$GNHDT,291.297,T*2D
$PYRTM,2024,122.418373853229,13.528021263380
$GNGGA,100227.50,3335.04614210,N,11951.17807882,W,2,11,0.9,5.419,M,-37.445,M,7.4,0135*62
$PYRTM,2024,122.418373853229,13.528021263380
$GNHDT,291.433,T*25
$PYRTM,2024,122.418379691817,13.528027101956
$GNGGA,100228.00,3335.04644321,N,11951.17944554,W,2,11,0.9,5.549,M,-37.445,M,7.0,0135*6E
$PYRTM,2024,122.418379691817,13.528027101956
$GNHDT,291.509,T*2D
$PYRTM,2024,122.418385426123,13.528032836262
$GNGGA,100228.50,3335.04676689,N,11951.18082329,W,2,11,0.9,5.575,M,-37.445,M,7.4,0135*66
$PYRTM,2024,122.418385426123,13.528032836262
$GNHDT,291.498,T*24
$PYRTM,2024,122.418391264086,13.528038674225
