$PYRTM,2024,123.666672304259,14.776319714398
$GNGGA,160000.50,3427.28893083,N,12056.98529380,W,2,13,0.9,8.478,M,-37.622,M,5.4,0135*6B
$PYRTM,2024,123.666672304259,14.776319714398
$GNHDT,328.629,T*2F
$PYRTM,2024,123.666678146366,14.776325556505
$GNGGA,160001.00,3427.28947183,N,12056.98590604,W,2,13,0.9,8.766,M,-37.622,M,6.0,0135*66
$PYRTM,2024,123.666678146366,14.776325556505
$GNHDT,328.440,T*22
$PYRTM,2024,123.666683876053,14.776331286192
$GNGGA,160001.50,3427.29010905,N,12056.98651783,W,2,13,0.9,8.608,M,-37.622,M,6.4,0135*62
$PYRTM,2024,123.666683876053,14.776331286192
$GNHDT,328.885,T*27
$PYRTM,2024,123.666689721400,14.776337131539
$GNGGA,160002.00,3427.29077646,N,12056.98705278,W,2,13,0.9,8.217,M,-37.622,M,7.0,0135*63
$PYRTM,2024,123.666689721400,14.776337131539
$GNHDT,328.896,T*25
$PYRTM,2024,123.666695443785,14.776342853924
$GNGGA,160002.50,3427.29141697,N,12056.98747109,W,2,13,0.9,7.825,M,-37.622,M,7.4,0135*6D
$PYRTM,2024,123.666695443785,14.776342853924
$GNHDT,328.975,T*29
$PYRTM,2024,123.666701289074,14.776348699213
$GNGGA,160003.00,3427.29200686,N,12056.98775615,W,2,13,0.9,7.608,M,-37.622,M,7.0,0135*61
$PYRTM,2024,123.666701289074,14.776348699213
$GNHDT,328.855,T*2A
$PYRTM,2024,123.666707023495,14.776354433634
$GNGGA,160003.50,3427.29255780,N,12056.98795997,W,2,13,0.9,7.663,M,-37.622,M,7.4,0135*61
$PYRTM,2024,123.666707023495,14.776354433634
$GNHDT,329.629,T*2E
$PYRTM,2024,123.666712871412,14.776360281551
$GNGGA,160004.00,3427.29309445,N,12056.98816325,W,2,13,0.9,7.874,M,-37.622,M,7.0,0135*6A
$PYRTM,2024,123.666712871412,14.776360281551
$GNHDT,329.593,T*2C
$PYRTM,2024,123.666718597801,14.776366007940
$GNGGA,160004.50,3427.29363695,N,12056.98843469,W,2,13,0.9,8.139,M,-37.622,M,7.4,0135*68
$PYRTM,2024,123.666718597801,14.776366007940
$GNHDT,329.695,T*29
$PYRTM,2024,123.666724437407,14.776371847558
$GNGGA,160005.00,3427.29422947,N,12056.98880153,W,2,13,0.9,8.257,M,-37.622,M,4.0,0135*61
$PYRTM,2024,123.666724437407,14.776371847558
$GNHDT,329.452,T*20
$PYRTM,2024,123.666730168993,14.776377579132
$GNGGA,160005.50,3427.29488150,N,12056.98929143,W,2,13,0.9,8.143,M,-37.622,M,4.4,0135*6B
$PYRTM,2024,123.666730168993,14.776377579132
$GNHDT,329.961,T*2D
$PYRTM,2024,123.666736023021,14.776383433160
$GNGGA,160006.00,3427.29556309,N,12056.98983865,W,2,13,0.9,7.871,M,-37.622,M,5.0,0135*6E
$PYRTM,2024,123.666736023021,14.776383433160
$GNHDT,329.916,T*2D
$PYRTM,2024,123.666741743090,14.776389153229
$GNGGA,160006.50,3427.29623349,N,12056.99037696,W,2,13,0.9,7.581,M,-37.622,M,5.4,0135*6D
$PYRTM,2024,123.666741743090,14.776389153229
$GNHDT,330.515,T*2A
$PYRTM,2024,123.666747587731,14.776394997882
$GNGGA,160007.00,3427.29685052,N,12056.99090008,W,2,13,0.9,7.447,M,-37.622,M,6.0,0135*6C
$PYRTM,2024,123.666747587731,14.776394997882
$GNHDT,330.238,T*22
$PYRTM,2024,123.666753321262,14.776400731400
$GNGGA,160007.50,3427.29740437,N,12056.99137647,W,2,13,0.9,7.559,M,-37.622,M,6.4,0135*6D
$PYRTM,2024,123.666753321262,14.776400731400
$GNHDT,330.043,T*2C
$PYRTM,2024,123.666759160509,14.776406570660
$GNGGA,160008.00,3427.29793155,N,12056.99179985,W,2,13,0.9,7.869,M,-37.622,M,7.0,0135*68
$PYRTM,2024,123.666759160509,14.776406570660
$GNHDT,329.733,T*24
$PYRTM,2024,123.666764890995,14.776412301134
$GNGGA,160008.50,3427.29847603,N,12056.99217579,W,2,13,0.9,8.213,M,-37.622,M,7.4,0135*67
$PYRTM,2024,123.666764890995,14.776412301134
$GNHDT,329.884,T*27
$PYRTM,2024,123.666770740359,14.776418150498
$GNGGA,160009.00,3427.29906923,N,12056.99253114,W,2,13,0.9,8.482,M,-37.622,M,7.0,0135*6F
$PYRTM,2024,123.666770740359,14.776418150498
$GNHDT,330.012,T*28
$PYRTM,2024,123.666776466644,14.776423876782
$GNGGA,160009.50,3427.29970546,N,12056.99289194,W,2,13,0.9,8.571,M,-37.622,M,7.4,0135*62
$PYRTM,2024,123.666776466644,14.776423876782
$GNHDT,330.666,T*2D
$PYRTM,2024,123.666782314074,14.776429724213
$GNGGA,160010.00,3427.30035959,N,12056.99323635,W,2,13,0.9,8.509,M,-37.622,M,7.0,0135*6B
$PYRTM,2024,123.666782314074,14.776429724213
$GNHDT,330.778,T*23
$PYRTM,2024,123.666788036053,14.776435446204
$GNGGA,160010.50,3427.30098958,N,12056.99358153,W,2,13,0.9,8.396,M,-37.622,M,7.4,0135*67
$PYRTM,2024,123.666788036053,14.776435446204
$GNHDT,330.372,T*2D
$PYRTM,2024,123.666793890486,14.776441300625
$GNGGA,160011.00,3427.30157925,N,12056.99391658,W,2,13,0.9,8.294,M,-37.622,M,4.0,0135*66
$PYRTM,2024,123.666793890486,14.776441300625
$GNHDT,330.512,T*2D
$PYRTM,2024,123.666799619468,14.776447029606
$GNGGA,160011.50,3427.30213178,N,12056.99427105,W,2,13,0.9,8.243,M,-37.622,M,4.4,0135*6B
$PYRTM,2024,123.666799619468,14.776447029606
$GNHDT,331.059,T*26
$PYRTM,2024,123.666805469572,14.776452879711
$GNGGA,160012.00,3427.30266809,N,12056.99467251,W,2,13,0.9,8.203,M,-37.622,M,5.0,0135*67
$PYRTM,2024,123.666805469572,14.776452879711
$GNHDT,331.622,T*2C
$PYRTM,2024,123.666811187789,14.776458597928
$GNGGA,160012.50,3427.30322841,N,12056.99512828,W,2,13,0.9,8.063,M,-37.622,M,5.4,0135*68
$PYRTM,2024,123.666811187789,14.776458597928
$GNHDT,331.538,T*24
$PYRTM,2024,123.666817036250,14.776464446389
$GNGGA,160013.00,3427.30383170,N,12056.99563059,W,2,13,0.9,7.776,M,-37.622,M,6.0,0135*6F
$PYRTM,2024,123.666817036250,14.776464446389
$GNHDT,331.188,T*2B
$PYRTM,2024,123.666822765417,14.776470175556
$GNGGA,160013.50,3427.30446800,N,12056.99617839,W,2,13,0.9,7.359,M,-37.622,M,6.4,0135*69
$PYRTM,2024,123.666822765417,14.776470175556
$GNHDT,330.659,T*21
$PYRTM,2024,123.666828606111,14.776476016250
$GNGGA,160014.00,3427.30510718,N,12056.99675906,W,2,13,0.9,6.939,M,-37.622,M,7.0,0135*6E
$PYRTM,2024,123.666828606111,14.776476016250
$GNHDT,330.523,T*2F
$PYRTM,2024,123.666834337072,14.776481747211
$GNGGA,160014.50,3427.30571761,N,12056.99728098,W,2,13,0.9,6.728,M,-37.622,M,7.4,0135*6F
$PYRTM,2024,123.666834337072,14.776481747211
$GNHDT,330.532,T*2F
$PYRTM,2024,123.666840190799,14.776487600938
$GNGGA,160015.00,3427.30629275,N,12056.99770298,W,2,13,0.9,6.895,M,-37.622,M,7.0,0135*67
$PYRTM,2024,123.666840190799,14.776487600938
$GNHDT,330.207,T*2E
$PYRTM,2024,123.666845920521,14.776493330660
$GNGGA,160015.50,3427.30686177,N,12056.99800467,W,2,13,0.9,7.324,M,-37.622,M,7.4,0135*6C
$PYRTM,2024,123.666845920521,14.776493330660
$GNHDT,330.633,T*2D
$PYRTM,2024,123.666851758588,14.776499168727
$GNGGA,160016.00,3427.30746624,N,12056.99821916,W,2,13,0.9,7.899,M,-37.622,M,7.0,0135*67
$PYRTM,2024,123.666851758588,14.776499168727
$GNHDT,331.545,T*2E
$PYRTM,2024,123.666857495289,14.776504905428
$GNGGA,160016.50,3427.30812109,N,12056.99837811,W,2,13,0.9,8.419,M,-37.622,M,7.4,0135*6A
$PYRTM,2024,123.666857495289,14.776504905428
$GNHDT,331.422,T*2E
$PYRTM,2024,123.666863334757,14.776510744896
$GNGGA,160017.00,3427.30881139,N,12056.99858247,W,2,13,0.9,8.709,M,-37.622,M,4.0,0135*62
$PYRTM,2024,123.666863334757,14.776510744896
$GNHDT,331.826,T*26
$PYRTM,2024,123.666869067535,14.776516477685
$GNGGA,160017.50,3427.30947971,N,12056.99887652,W,2,13,0.9,8.796,M,-37.622,M,4.4,0135*68
$PYRTM,2024,123.666869067535,14.776516477685
$GNHDT,331.745,T*2C
$PYRTM,2024,123.666874906250,14.776522316389
$GNGGA,160018.00,3427.31006445,N,12056.99931904,W,2,13,0.9,8.748,M,-37.622,M,5.0,0135*63
$PYRTM,2024,123.666874906250,14.776522316389
$GNHDT,331.311,T*29
$PYRTM,2024,123.666880634190,14.776528044329
$GNGGA,160018.50,3427.31057119,N,12056.99989129,W,2,13,0.9,8.576,M,-37.622,M,5.4,0135*61
$PYRTM,2024,123.666880634190,14.776528044329
$GNHDT,331.153,T*2D
$PYRTM,2024,123.666886476215,14.776533886354
$GNGGA,160019.00,3427.31104217,N,12057.00053441,W,2,13,0.9,8.321,M,-37.622,M,6.0,0135*68
$PYRTM,2024,123.666886476215,14.776533886354
$GNHDT,330.704,T*28
$PYRTM,2024,123.666892201956,14.776539612095
$GNGGA,160019.50,3427.31152322,N,12057.00118014,W,2,13,0.9,7.999,M,-37.622,M,6.4,0135*61
$PYRTM,2024,123.666892201956,14.776539612095
$GNHDT,330.090,T*22
$PYRTM,2024,123.666898055718,14.776545465856
$GNGGA,160020.00,3427.31207628,N,12057.00173499,W,2,13,0.9,7.608,M,-37.622,M,7.0,0135*6C
$PYRTM,2024,123.666898055718,14.776545465856
$GNHDT,330.230,T*2A
$PYRTM,2024,123.666903786678,14.776551196817
$GNGGA,160020.50,3427.31271851,N,12057.00211957,W,2,13,0.9,7.272,M,-37.622,M,7.4,0135*6D
$PYRTM,2024,123.666903786678,14.776551196817
$GNHDT,330.309,T*21
$PYRTM,2024,123.666909634606,14.776557044745
$GNGGA,160021.00,3427.31342218,N,12057.00235330,W,2,13,0.9,7.103,M,-37.622,M,7.0,0135*63
$PYRTM,2024,123.666909634606,14.776557044745
$GNHDT,330.418,T*26
$PYRTM,2024,123.666915355810,14.776562765961
$GNGGA,160021.50,3427.31415302,N,12057.00250113,W,2,13,0.9,7.174,M,-37.622,M,7.4,0135*6D
$PYRTM,2024,123.666915355810,14.776562765961
$GNHDT,330.344,T*28
$PYRTM,2024,123.666921213924,14.776568624063
$GNGGA,160022.00,3427.31487797,N,12057.00262734,W,2,13,0.9,7.459,M,-37.622,M,7.0,0135*64
$PYRTM,2024,123.666921213924,14.776568624063
$GNHDT,329.946,T*28
$PYRTM,2024,123.666926929039,14.776574339178
$GNGGA,160022.50,3427.31559098,N,12057.00278354,W,2,13,0.9,7.899,M,-37.622,M,7.4,0135*66
$PYRTM,2024,123.666926929039,14.776574339178
$GNHDT,329.849,T*26
$PYRTM,2024,123.666932778252,14.776580188403
$GNGGA,160023.00,3427.31625780,N,12057.00308426,W,2,13,0.9,8.409,M,-37.622,M,4.0,0135*6D
$PYRTM,2024,123.666932778252,14.776580188403
$GNHDT,329.765,T*27
$PYRTM,2024,123.666938502153,14.776585912292
$GNGGA,160023.50,3427.31688349,N,12057.00359430,W,2,13,0.9,8.784,M,-37.622,M,4.4,0135*6F
$PYRTM,2024,123.666938502153,14.776585912292
$GNHDT,329.758,T*29
$PYRTM,2024,123.666944356481,14.776591766620
$GNGGA,160024.00,3427.31749970,N,12057.00430324,W,2,13,0.9,8.822,M,-37.621,M,5.0,0135*6E
$PYRTM,2024,123.666944356481,14.776591766620
$GNHDT,329.714,T*21
$PYRTM,2024,123.666950076192,14.776597486331
$GNGGA,160024.50,3427.31810519,N,12057.00508384,W,2,13,0.9,8.551,M,-37.621,M,5.4,0135*66
$PYRTM,2024,123.666950076192,14.776597486331
$GNHDT,329.644,T*25
$PYRTM,2024,123.666955926539,14.776603336678
$GNGGA,160025.00,3427.31869876,N,12057.00577916,W,2,13,0.9,8.137,M,-37.621,M,6.0,0135*62
$PYRTM,2024,123.666955926539,14.776603336678
$GNHDT,329.813,T*29
$PYRTM,2024,123.666961648113,14.776609058252
$GNGGA,160025.50,3427.31927725,N,12057.00629867,W,2,13,0.9,7.806,M,-37.621,M,6.4,0135*6A
$PYRTM,2024,123.666961648113,14.776609058252
$GNHDT,329.782,T*2E
$PYRTM,2024,123.666967507049,14.776614917188
$GNGGA,160026.00,3427.31985885,N,12057.00659414,W,2,13,0.9,7.716,M,-37.621,M,7.0,0135*65
$PYRTM,2024,123.666967507049,14.776614917188
$GNHDT,330.122,T*2A
$PYRTM,2024,123.666973231447,14.776620641586
$GNGGA,160026.50,3427.32046460,N,12057.00671295,W,2,13,0.9,7.854,M,-37.621,M,7.4,0135*6A
$PYRTM,2024,123.666973231447,14.776620641586
$GNHDT,330.117,T*2C
$PYRTM,2024,123.666979075417,14.776626485556
$GNGGA,160027.00,3427.32112737,N,12057.00679182,W,2,13,0.9,8.092,M,-37.621,M,7.0,0135*6B
$PYRTM,2024,123.666979075417,14.776626485556
$GNHDT,330.190,T*23
$PYRTM,2024,123.666984799155,14.776632209294
$GNGGA,160027.50,3427.32183277,N,12057.00692453,W,2,13,0.9,8.252,M,-37.621,M,7.4,0135*61
$PYRTM,2024,123.666984799155,14.776632209294
$GNHDT,330.547,T*2D
$PYRTM,2024,123.666990648032,14.776638058171
$GNGGA,160028.00,3427.32254193,N,12057.00720009,W,2,13,0.9,8.323,M,-37.621,M,7.0,0135*6B
$PYRTM,2024,123.666990648032,14.776638058171
$GNHDT,330.740,T*28
$PYRTM,2024,123.666996376991,14.776643787130
$GNGGA,160028.50,3427.32321219,N,12057.00762832,W,2,13,0.9,8.229,M,-37.621,M,7.4,0135*65
$PYRTM,2024,123.666996376991,14.776643787130
$GNHDT,330.536,T*2B
$PYRTM,2024,123.667002216829,14.776649626968
$GNGGA,160029.00,3427.32384227,N,12057.00817204,W,2,13,0.9,8.033,M,-37.621,M,4.0,0135*6F
$PYRTM,2024,123.667002216829,14.776649626968
$GNHDT,330.711,T*2C
$PYRTM,2024,123.667007952326,14.776655362465
$GNGGA,160029.50,3427.32443851,N,12057.00876763,W,2,13,0.9,7.758,M,-37.621,M,4.4,0135*6F
$PYRTM,2024,123.667007952326,14.776655362465
$GNHDT,330.546,T*2C
$PYRTM,2024,123.667013795394,14.776661205532
$GNGGA,160030.00,3427.32500098,N,12057.00937093,W,2,13,0.9,7.501,M,-37.621,M,5.0,0135*6E
$PYRTM,2024,123.667013795394,14.776661205532
$GNHDT,330.654,T*2C
$PYRTM,2024,123.667019524502,14.776666934641
$GNGGA,160030.50,3427.32553202,N,12057.00990025,W,2,13,0.9,7.364,M,-37.621,M,5.4,0135*6D
$PYRTM,2024,123.667019524502,14.776666934641
$GNHDT,330.367,T*29
$PYRTM,2024,123.667025370046,14.776672780197
$GNGGA,160031.00,3427.32606236,N,12057.01032463,W,2,13,0.9,7.395,M,-37.621,M,6.0,0135*62
$PYRTM,2024,123.667025370046,14.776672780197
$GNHDT,330.480,T*27
$PYRTM,2024,123.667031100833,14.776678510984
$GNGGA,160031.50,3427.32663796,N,12057.01065920,W,2,13,0.9,7.507,M,-37.621,M,6.4,0135*6A
$PYRTM,2024,123.667031100833,14.776678510984
$GNHDT,330.236,T*2C
$PYRTM,2024,123.667036942257,14.776684352396
$GNGGA,160032.00,3427.32727778,N,12057.01095587,W,2,13,0.9,7.594,M,-37.621,M,7.0,0135*6C
$PYRTM,2024,123.667036942257,14.776684352396
$GNHDT,329.819,T*23
$PYRTM,2024,123.667042677593,14.776690087731
$GNGGA,160032.50,3427.32795970,N,12057.01126204,W,2,13,0.9,7.633,M,-37.621,M,7.4,0135*69
$PYRTM,2024,123.667042677593,14.776690087731
$GNHDT,329.595,T*2A
$PYRTM,2024,123.667048525208,14.776695935347
$GNGGA,160033.00,3427.32864999,N,12057.01157494,W,2,13,0.9,7.644,M,-37.621,M,7.0,0135*66
$PYRTM,2024,123.667048525208,14.776695935347
$GNHDT,329.057,T*21
$PYRTM,2024,123.667054248970,14.776701659109
$GNGGA,160033.50,3427.32931243,N,12057.01189238,W,2,13,0.9,7.708,M,-37.621,M,7.4,0135*60
$PYRTM,2024,123.667054248970,14.776701659109
$GNHDT,329.897,T*25
$PYRTM,2024,123.667060086528,14.776707496667
$GNGGA,160034.00,3427.32993414,N,12057.01221337,W,2,13,0.9,7.862,M,-37.621,M,7.0,0135*66
$PYRTM,2024,123.667060086528,14.776707496667
$GNHDT,330.237,T*2D
$PYRTM,2024,123.667065818322,14.776713228461
$GNGGA,160034.50,3427.33051886,N,12057.01256017,W,2,13,0.9,8.096,M,-37.621,M,7.4,0135*6B
$PYRTM,2024,123.667065818322,14.776713228461
$GNHDT,330.527,T*2B
$PYRTM,2024,123.667071665313,14.776719075463
$GNGGA,160035.00,3427.33108317,N,12057.01295539,W,2,13,0.9,8.329,M,-37.621,M,4.0,0135*67
$PYRTM,2024,123.667071665313,14.776719075463
$GNHDT,330.056,T*28
$PYRTM,2024,123.667077395625,14.776724805764
$GNGGA,160035.50,3427.33165910,N,12057.01339385,W,2,13,0.9,8.435,M,-37.621,M,4.4,0135*6C
$PYRTM,2024,123.667077395625,14.776724805764
$GNHDT,330.535,T*28
$PYRTM,2024,123.667083237801,14.776730647940
$GNGGA,160036.00,3427.33225626,N,12057.01391020,W,2,13,0.9,8.313,M,-37.621,M,5.0,0135*6F
$PYRTM,2024,123.667083237801,14.776730647940
$GNHDT,330.002,T*29
$PYRTM,2024,123.667088970556,14.776736380706
$GNGGA,160036.50,3427.33288889,N,12057.01443376,W,2,13,0.9,8.036,M,-37.621,M,5.4,0135*6E
$PYRTM,2024,123.667088970556,14.776736380706
$GNHDT,330.199,T*2A
$PYRTM,2024,123.667094818565,14.776742228704
$GNGGA,160037.00,3427.33354652,N,12057.01496459,W,2,13,0.9,7.740,M,-37.621,M,6.0,0135*6E
$PYRTM,2024,123.667094818565,14.776742228704
$GNHDT,329.940,T*2E
$PYRTM,2024,123.667100536574,14.776747946713
$GNGGA,160037.50,3427.33420889,N,12057.01541062,W,2,13,0.9,7.570,M,-37.621,M,6.4,0135*65
$PYRTM,2024,123.667100536574,14.776747946713
$GNHDT,329.801,T*2A
$PYRTM,2024,123.667106388704,14.776753798843
$GNGGA,160038.00,3427.33486832,N,12057.01575757,W,2,13,0.9,7.580,M,-37.621,M,7.0,0135*6F
$PYRTM,2024,123.667106388704,14.776753798843
$GNHDT,329.331,T*22
$PYRTM,2024,123.667112118519,14.776759528657
$GNGGA,160038.50,3427.33554068,N,12057.01602310,W,2,13,0.9,7.717,M,-37.621,M,7.4,0135*6F
$PYRTM,2024,123.667112118519,14.776759528657
$GNHDT,329.418,T*2E
$PYRTM,2024,123.667117961215,14.776765371354
$GNGGA,160039.00,3427.33624648,N,12057.01627330,W,2,13,0.9,7.869,M,-37.621,M,7.0,0135*6C
$PYRTM,2024,123.667117961215,14.776765371354
$GNHDT,329.203,T*22
$PYRTM,2024,123.667123686782,14.776771096921
$GNGGA,160039.50,3427.33697657,N,12057.01656549,W,2,13,0.9,7.946,M,-37.621,M,7.4,0135*69
$PYRTM,2024,123.667123686782,14.776771096921
$GNHDT,329.519,T*2E
$PYRTM,2024,123.667129530671,14.776776940822
$GNGGA,160040.00,3427.33768209,N,12057.01693854,W,2,13,0.9,7.996,M,-37.621,M,7.0,0135*6D
$PYRTM,2024,123.667129530671,14.776776940822
$GNHDT,329.479,T*29
$PYRTM,2024,123.667135264097,14.776782674236
$GNGGA,160040.50,3427.33830272,N,12057.01738403,W,2,13,0.9,8.163,M,-37.621,M,7.4,0135*61
$PYRTM,2024,123.667135264097,14.776782674236
$GNHDT,329.465,T*24
$PYRTM,2024,123.667141107963,14.776788518102
$GNGGA,160041.00,3427.33884801,N,12057.01790804,W,2,13,0.9,8.399,M,-37.621,M,4.0,0135*6D
$PYRTM,2024,123.667141107963,14.776788518102
$GNHDT,329.402,T*25
$PYRTM,2024,123.667146837870,14.776794248009
$GNGGA,160041.50,3427.33936992,N,12057.01850381,W,2,13,0.9,8.558,M,-37.621,M,4.4,0135*61
$PYRTM,2024,123.667146837870,14.776794248009
$GNHDT,328.811,T*2A
$PYRTM,2024,123.667152682778,14.776800092917
$GNGGA,160042.00,3427.33994890,N,12057.01914037,W,2,13,0.9,8.420,M,-37.621,M,5.0,0135*68
$PYRTM,2024,123.667152682778,14.776800092917
$GNHDT,328.708,T*2D
$PYRTM,2024,123.667158415035,14.776805825174
$GNGGA,160042.50,3427.34060671,N,12057.01973939,W,2,13,0.9,7.985,M,-37.621,M,5.4,0135*66
$PYRTM,2024,123.667158415035,14.776805825174
$GNHDT,329.058,T*2E
$PYRTM,2024,123.667164254769,14.776811664919
$GNGGA,160043.00,3427.34129206,N,12057.02022635,W,2,13,0.9,7.518,M,-37.621,M,6.0,0135*68
$PYRTM,2024,123.667164254769,14.776811664919
$GNHDT,329.142,T*24
$PYRTM,2024,123.667169993403,14.776817403542
$GNGGA,160043.50,3427.34193890,N,12057.02055373,W,2,13,0.9,7.265,M,-37.621,M,6.4,0135*67
$PYRTM,2024,123.667169993403,14.776817403542
$GNHDT,329.164,T*20
$PYRTM,2024,123.667175834942,14.776823245081
$GNGGA,160044.00,3427.34250850,N,12057.02076297,W,2,13,0.9,7.407,M,-37.621,M,7.0,0135*68
$PYRTM,2024,123.667175834942,14.776823245081
$GNHDT,329.333,T*20
$PYRTM,2024,123.667181567106,14.776828977245
$GNGGA,160044.50,3427.34302006,N,12057.02091295,W,2,13,0.9,7.839,M,-37.621,M,7.4,0135*6E
$PYRTM,2024,123.667181567106,14.776828977245
$GNHDT,329.610,T*24
$PYRTM,2024,123.667187407164,14.776834817303
$GNGGA,160045.00,3427.34350950,N,12057.02108679,W,2,13,0.9,8.429,M,-37.621,M,7.0,0135*66
$PYRTM,2024,123.667187407164,14.776834817303
$GNHDT,329.872,T*2E
$PYRTM,2024,123.667193132847,14.776840542986
$GNGGA,160045.50,3427.34403283,N,12057.02136787,W,2,13,0.9,8.902,M,-37.621,M,7.4,0135*6A
$PYRTM,2024,123.667193132847,14.776840542986
$GNHDT,329.879,T*25
$PYRTM,2024,123.667198981817,14.776846391956
$GNGGA,160046.00,3427.34464659,N,12057.02177921,W,2,13,0.9,8.948,M,-37.621,M,7.0,0135*63
$PYRTM,2024,123.667198981817,14.776846391956
$GNHDT,329.827,T*2E
$PYRTM,2024,123.667204715868,14.776852126007
$GNGGA,160046.50,3427.34535698,N,12057.02228983,W,2,13,0.9,8.438,M,-37.621,M,7.4,0135*61
$PYRTM,2024,123.667204715868,14.776852126007
$GNHDT,330.454,T*2E
$PYRTM,2024,123.667210559931,14.776857970069
$GNGGA,160047.00,3427.34606628,N,12057.02283667,W,2,13,0.9,7.612,M,-37.621,M,4.0,0135*6B
$PYRTM,2024,123.667210559931,14.776857970069
$GNHDT,330.294,T*24
$PYRTM,2024,123.667216280440,14.776863690579
$GNGGA,160047.50,3427.34666346,N,12057.02340775,W,2,13,0.9,6.998,M,-37.621,M,4.4,0135*61
$PYRTM,2024,123.667216280440,14.776863690579
$GNHDT,330.095,T*27
$PYRTM,2024,123.667222130116,14.776869540266
$GNGGA,160048.00,3427.34714717,N,12057.02394194,W,2,13,0.9,6.785,M,-37.621,M,5.0,0135*68
$PYRTM,2024,123.667222130116,14.776869540266
$GNHDT,330.054,T*2A
$PYRTM,2024,123.667227866655,14.776875276794
$GNGGA,160048.50,3427.34753810,N,12057.02438709,W,2,13,0.9,7.054,M,-37.621,M,5.4,0135*6B
$PYRTM,2024,123.667227866655,14.776875276794
$GNHDT,329.862,T*2F
$PYRTM,2024,123.667233708449,14.776881118588
$GNGGA,160049.00,3427.34792353,N,12057.02471303,W,2,13,0.9,7.611,M,-37.621,M,6.0,0135*6D
$PYRTM,2024,123.667233708449,14.776881118588
$GNHDT,330.247,T*2A
$PYRTM,2024,123.667239430613,14.776886840752
$GNGGA,160049.50,3427.34842093,N,12057.02497888,W,2,13,0.9,8.101,M,-37.621,M,6.4,0135*68
$PYRTM,2024,123.667239430613,14.776886840752
$GNHDT,330.056,T*28
$PYRTM,2024,123.667245277014,14.776892687153
$GNGGA,160050.00,3427.34904161,N,12057.02523608,W,2,13,0.9,8.348,M,-37.621,M,7.0,0135*68
$PYRTM,2024,123.667245277014,14.776892687153
$GNHDT,330.168,T*24
$PYRTM,2024,123.667251004549,14.776898414687
$GNGGA,160050.50,3427.34971975,N,12057.02549748,W,2,13,0.9,8.389,M,-37.621,M,7.4,0135*62
$PYRTM,2024,123.667251004549,14.776898414687
$GNHDT,330.116,T*2D
$PYRTM,2024,123.667256846493,14.776904256632
$GNGGA,160051.00,3427.35037637,N,12057.02577201,W,2,13,0.9,8.300,M,-37.621,M,7.0,0135*65
$PYRTM,2024,123.667256846493,14.776904256632
$GNHDT,330.403,T*2C
$PYRTM,2024,123.667262575139,14.776909985278
$GNGGA,160051.50,3427.35097755,N,12057.02604927,W,2,13,0.9,8.189,M,-37.621,M,7.4,0135*60
$PYRTM,2024,123.667262575139,14.776909985278
$GNHDT,330.607,T*2A
$PYRTM,2024,123.667268425590,14.776915835729
$GNGGA,160052.00,3427.35149632,N,12057.02637573,W,2,13,0.9,8.204,M,-37.621,M,7.0,0135*6B
$PYRTM,2024,123.667268425590,14.776915835729
$GNHDT,331.073,T*2E
$PYRTM,2024,123.667274152188,14.776921562326
$GNGGA,160052.50,3427.35198191,N,12057.02675354,W,2,13,0.9,8.252,M,-37.621,M,7.4,0135*6E
$PYRTM,2024,123.667274152188,14.776921562326
$GNHDT,331.349,T*24
$PYRTM,2024,123.667280000012,14.776927410150
$GNGGA,160053.00,3427.35248070,N,12057.02721279,W,2,13,0.9,8.252,M,-37.621,M,4.0,0135*63
$PYRTM,2024,123.667280000012,14.776927410150
$GNHDT,331.480,T*26
$PYRTM,2024,123.667285728831,14.776933138970
$GNGGA,160053.50,3427.35301831,N,12057.02773470,W,2,13,0.9,8.144,M,-37.621,M,4.4,0135*6F
$PYRTM,2024,123.667285728831,14.776933138970
$GNHDT,330.800,T*23
$PYRTM,2024,123.667291572986,14.776938983125
$GNGGA,160054.00,3427.35355194,N,12057.02829108,W,2,13,0.9,8.021,M,-37.621,M,5.0,0135*67
$PYRTM,2024,123.667291572986,14.776938983125
$GNHDT,330.415,T*2B
$PYRTM,2024,123.667297303252,14.776944713391
$GNGGA,160054.50,3427.35406645,N,12057.02876934,W,2,13,0.9,7.955,M,-37.621,M,5.4,0135*64
$PYRTM,2024,123.667297303252,14.776944713391
$GNHDT,330.296,T*26
$PYRTM,2024,123.667303153148,14.776950563287
$GNGGA,160055.00,3427.35457434,N,12057.02914964,W,2,13,0.9,8.009,M,-37.621,M,6.0,0135*68
$PYRTM,2024,123.667303153148,14.776950563287
$GNHDT,330.061,T*2C
$PYRTM,2024,123.667308874306,14.776956284444
$GNGGA,160055.50,3427.35512989,N,12057.02944203,W,2,13,0.9,8.086,M,-37.621,M,6.4,0135*6A
$PYRTM,2024,123.667308874306,14.776956284444
$GNHDT,330.126,T*2E
$PYRTM,2024,123.667314727280,14.776962137419
$GNGGA,160056.00,3427.35578875,N,12057.02968619,W,2,13,0.9,8.058,M,-37.621,M,7.0,0135*65
$PYRTM,2024,123.667314727280,14.776962137419
$GNHDT,330.174,T*29
$PYRTM,2024,123.667320447512,14.776967857650
$GNGGA,160056.50,3427.35654314,N,12057.02992522,W,2,13,0.9,7.884,M,-37.621,M,7.4,0135*6D
$PYRTM,2024,123.667320447512,14.776967857650
$GNHDT,330.648,T*21
$PYRTM,2024,123.667326297581,14.776973707720
$GNGGA,160057.00,3427.35732318,N,12057.03017530,W,2,13,0.9,7.680,M,-37.621,M,7.0,0135*6C
$PYRTM,2024,123.667326297581,14.776973707720
$GNHDT,330.872,T*26
$PYRTM,2024,123.667332023264,14.776979433403
$GNGGA,160057.50,3427.35804109,N,12057.03051300,W,2,13,0.9,7.588,M,-37.621,M,7.4,0135*69
$PYRTM,2024,123.667332023264,14.776979433403
$GNHDT,330.861,T*24
$PYRTM,2024,123.667337870856,14.776985280995
$GNGGA,160058.00,3427.35863347,N,12057.03091124,W,2,13,0.9,7.807,M,-37.621,M,7.0,0135*6C
$PYRTM,2024,123.667337870856,14.776985280995
$GNHDT,331.003,T*29
$PYRTM,2024,123.667343597894,14.776991008032
$GNGGA,160058.50,3427.35910183,N,12057.03138251,W,2,13,0.9,8.274,M,-37.621,M,7.4,0135*60
$PYRTM,2024,123.667343597894,14.776991008032
$GNHDT,330.925,T*25
$PYRTM,2024,123.667349444722,14.776996854861
$GNGGA,160059.00,3427.35948675,N,12057.03184892,W,2,13,0.9,8.879,M,-37.621,M,4.0,0135*65
$PYRTM,2024,123.667349444722,14.776996854861
$GNHDT,331.425,T*29
$PYRTM,2024,123.667355176377,14.777002586516
$GNGGA,160059.50,3427.35985616,N,12057.03226477,W,2,13,0.9,9.427,M,-37.621,M,4.4,0135*6A
$PYRTM,2024,123.667355176377,14.777002586516
$GNHDT,330.991,T*2A
$PYRTM,2024,123.667361019931,14.777008430069
$GNGGA,160100.00,3427.36029140,N,12057.03260988,W,2,13,0.9,9.688,M,-37.621,M,5.0,0135*67
$PYRTM,2024,123.667361019931,14.777008430069
$GNHDT,331.181,T*22
$PYRTM,2024,123.667366748241,14.777014158380
$GNGGA,160100.50,3427.36085411,N,12057.03292058,W,2,13,0.9,9.493,M,-37.621,M,5.4,0135*60
$PYRTM,2024,123.667366748241,14.777014158380
$GNHDT,331.124,T*2D
$PYRTM,2024,123.667372593773,14.777020003912
$GNGGA,160101.00,3427.36153255,N,12057.03320155,W,2,13,0.9,8.846,M,-37.621,M,6.0,0135*6E
$PYRTM,2024,123.667372593773,14.777020003912
$GNHDT,331.405,T*2B
$PYRTM,2024,123.667378319884,14.777025730023
$GNGGA,160101.50,3427.36225027,N,12057.03350025,W,2,13,0.9,7.970,M,-37.621,M,6.4,0135*60
$PYRTM,2024,123.667378319884,14.777025730023
$GNHDT,331.397,T*27
$PYRTM,2024,123.667384161956,14.777031572095
$GNGGA,160102.00,3427.36292877,N,12057.03386383,W,2,13,0.9,7.109,M,-37.621,M,7.0,0135*60
$PYRTM,2024,123.667384161956,14.777031572095
$GNHDT,331.082,T*20
$PYRTM,2024,123.667389896505,14.777037306655
$GNGGA,160102.50,3427.36351373,N,12057.03428186,W,2,13,0.9,6.603,M,-37.621,M,7.4,0135*68
$PYRTM,2024,123.667389896505,14.777037306655
$GNHDT,330.538,T*25
$PYRTM,2024,123.667395739942,14.777043150081
$GNGGA,160103.00,3427.36401011,N,12057.03470569,W,2,13,0.9,6.584,M,-37.621,M,7.0,0135*69
$PYRTM,2024,123.667395739942,14.777043150081
$GNHDT,330.128,T*20
$PYRTM,2024,123.667401470706,14.777048880856
$GNGGA,160103.50,3427.36448054,N,12057.03507727,W,2,13,0.9,6.917,M,-37.621,M,7.4,0135*6B
$PYRTM,2024,123.667401470706,14.777048880856
$GNHDT,330.136,T*2F
$PYRTM,2024,123.667407315856,14.777054725995
$GNGGA,160104.00,3427.36496806,N,12057.03540429,W,2,13,0.9,7.444,M,-37.621,M,7.0,0135*65
$PYRTM,2024,123.667407315856,14.777054725995
$GNHDT,330.580,T*26
$PYRTM,2024,123.667413044421,14.777060454560
$GNGGA,160104.50,3427.36552471,N,12057.03571558,W,2,13,0.9,7.973,M,-37.621,M,7.4,0135*6D
$PYRTM,2024,123.667413044421,14.777060454560
$GNHDT,331.071,T*2C
$PYRTM,2024,123.667418884329,14.777066294468
$GNGGA,160105.00,3427.36613794,N,12057.03604269,W,2,13,0.9,8.389,M,-37.621,M,4.0,0135*64
$PYRTM,2024,123.667418884329,14.777066294468
$GNHDT,331.078,T*25
$PYRTM,2024,123.667424618472,14.777072028611
$GNGGA,160105.50,3427.36678163,N,12057.03639100,W,2,13,0.9,8.663,M,-37.621,M,4.4,0135*65
$PYRTM,2024,123.667424618472,14.777072028611
$GNHDT,330.672,T*28
$PYRTM,2024,123.667430467789,14.777077877928
$GNGGA,160106.00,3427.36739899,N,12057.03677269,W,2,13,0.9,8.789,M,-37.621,M,5.0,0135*6D
$PYRTM,2024,123.667430467789,14.777077877928
$GNHDT,330.042,T*2D
$PYRTM,2024,123.667436193542,14.777083603692
$GNGGA,160106.50,3427.36794695,N,12057.03716443,W,2,13,0.9,8.857,M,-37.621,M,5.4,0135*6D
$PYRTM,2024,123.667436193542,14.777083603692
$GNHDT,330.156,T*29
$PYRTM,2024,123.667442039213,14.777089449363
$GNGGA,160107.00,3427.36843601,N,12057.03753379,W,2,13,0.9,8.886,M,-37.621,M,6.0,0135*65
$PYRTM,2024,123.667442039213,14.777089449363
$GNHDT,330.243,T*2E
$PYRTM,2024,123.667447762859,14.777095172998
$GNGGA,160107.50,3427.36890409,N,12057.03787873,W,2,13,0.9,8.858,M,-37.621,M,6.4,0135*6B
$PYRTM,2024,123.667447762859,14.777095172998
$GNHDT,330.045,T*2A
$PYRTM,2024,123.667453616840,14.777101026979
$GNGGA,160108.00,3427.36939782,N,12057.03824184,W,2,13,0.9,8.694,M,-37.621,M,7.0,0135*6F
$PYRTM,2024,123.667453616840,14.777101026979
$GNHDT,330.167,T*2B
$PYRTM,2024,123.667459336852,14.777106747002
$GNGGA,160108.50,3427.36997407,N,12057.03863401,W,2,13,0.9,8.311,M,-37.620,M,7.4,0135*66
$PYRTM,2024,123.667459336852,14.777106747002
$GNHDT,330.218,T*20
$PYRTM,2024,123.667465190382,14.777112600521
$GNGGA,160109.00,3427.37062733,N,12057.03903606,W,2,13,0.9,7.751,M,-37.620,M,7.0,0135*6D
$PYRTM,2024,123.667465190382,14.777112600521
$GNHDT,329.950,T*2F
$PYRTM,2024,123.667470918808,14.777118328947
$GNGGA,160109.50,3427.37131115,N,12057.03944408,W,2,13,0.9,7.212,M,-37.620,M,7.4,0135*64
$PYRTM,2024,123.667470918808,14.777118328947
$GNHDT,329.553,T*20
$PYRTM,2024,123.667476753993,14.777124164132
$GNGGA,160110.00,3427.37197896,N,12057.03984795,W,2,13,0.9,6.944,M,-37.620,M,7.0,0135*61
$PYRTM,2024,123.667476753993,14.777124164132
$GNHDT,329.245,T*20
$PYRTM,2024,123.667482486829,14.777129896968
$GNGGA,160110.50,3427.37259519,N,12057.04021990,W,2,13,0.9,7.064,M,-37.620,M,7.4,0135*6B
$PYRTM,2024,123.667482486829,14.777129896968
$GNHDT,329.772,T*21
$PYRTM,2024,123.667488335289,14.777135745428
$GNGGA,160111.00,3427.37317796,N,12057.04051448,W,2,13,0.9,7.508,M,-37.620,M,4.0,0135*66
$PYRTM,2024,123.667488335289,14.777135745428
$GNHDT,330.569,T*21
$PYRTM,2024,123.667494065764,14.777141475903
$GNGGA,160111.50,3427.37375448,N,12057.04076009,W,2,13,0.9,8.151,M,-37.620,M,4.4,0135*60
$PYRTM,2024,123.667494065764,14.777141475903
$GNHDT,330.160,T*2C
$PYRTM,2024,123.667499912072,14.777147322211
$GNGGA,160112.00,3427.37436497,N,12057.04104010,W,2,13,0.9,8.737,M,-37.620,M,5.0,0135*6B
$PYRTM,2024,123.667499912072,14.777147322211
$GNHDT,330.305,T*2D
$PYRTM,2024,123.667505638275,14.777153048414
$GNGGA,160112.50,3427.37503190,N,12057.04142713,W,2,13,0.9,9.093,M,-37.620,M,5.4,0135*61
$PYRTM,2024,123.667505638275,14.777153048414
$GNHDT,330.157,T*28
$PYRTM,2024,123.667511482697,14.777158892836
$GNGGA,160113.00,3427.37570629,N,12057.04187309,W,2,13,0.9,9.214,M,-37.620,M,6.0,0135*68
$PYRTM,2024,123.667511482697,14.777158892836
$GNHDT,330.193,T*20
$PYRTM,2024,123.667517207072,14.777164617211
$GNGGA,160113.50,3427.37633041,N,12057.04232041,W,2,13,0.9,9.139,M,-37.620,M,6.4,0135*6B
$PYRTM,2024,123.667517207072,14.777164617211
$GNHDT,330.752,T*2B
$PYRTM,2024,123.667523060370,14.777170470509
$GNGGA,160114.00,3427.37689799,N,12057.04273518,W,2,13,0.9,8.992,M,-37.620,M,7.0,0135*6B
$PYRTM,2024,123.667523060370,14.777170470509
$GNHDT,330.852,T*24
$PYRTM,2024,123.667528779306,14.777176189444
$GNGGA,160114.50,3427.37743649,N,12057.04307655,W,2,13,0.9,8.804,M,-37.620,M,7.4,0135*67
$PYRTM,2024,123.667528779306,14.777176189444
$GNHDT,331.435,T*28
$PYRTM,2024,123.667534634641,14.777182044780
$GNGGA,160115.00,3427.37798216,N,12057.04336526,W,2,13,0.9,8.568,M,-37.620,M,7.0,0135*6D
$PYRTM,2024,123.667534634641,14.777182044780
$GNHDT,331.416,T*29
$PYRTM,2024,123.667540357014,14.777187767153
$GNGGA,160115.50,3427.37855669,N,12057.04365047,W,2,13,0.9,8.290,M,-37.620,M,7.4,0135*6A
$PYRTM,2024,123.667540357014,14.777187767153
$GNHDT,331.476,T*2F
$PYRTM,2024,123.667546204329,14.777193614468
$GNGGA,160116.00,3427.37916411,N,12057.04392586,W,2,13,0.9,8.001,M,-37.620,M,7.0,0135*69
$PYRTM,2024,123.667546204329,14.777193614468
$GNHDT,330.862,T*27
$PYRTM,2024,123.667551926968,14.777199337106
$GNGGA,160116.50,3427.37978125,N,12057.04429790,W,2,13,0.9,7.710,M,-37.620,M,7.4,0135*68
$PYRTM,2024,123.667551926968,14.777199337106
$GNHDT,331.005,T*2F
$PYRTM,2024,123.667557777928,14.777205188067
$GNGGA,160117.00,3427.38041395,N,12057.04472125,W,2,13,0.9,7.419,M,-37.620,M,4.0,0135*62
$PYRTM,2024,123.667557777928,14.777205188067
$GNHDT,331.118,T*22
$PYRTM,2024,123.667563500706,14.777210910845
$GNGGA,160117.50,3427.38105762,N,12057.04513512,W,2,13,0.9,7.194,M,-37.620,M,4.4,0135*68
$PYRTM,2024,123.667563500706,14.777210910845
$GNHDT,331.418,T*27
$PYRTM,2024,123.667569357581,14.777216767720
$GNGGA,160118.00,3427.38170841,N,12057.04549001,W,2,13,0.9,7.095,M,-37.620,M,5.0,0135*63
$PYRTM,2024,123.667569357581,14.777216767720
$GNHDT,331.661,T*2B
$PYRTM,2024,123.667575080313,14.777222490451
$GNGGA,160118.50,3427.38233833,N,12057.04582302,W,2,13,0.9,7.201,M,-37.620,M,5.4,0135*6B
$PYRTM,2024,123.667575080313,14.777222490451
$GNHDT,332.149,T*25
$PYRTM,2024,123.667580932095,14.777228342245
$GNGGA,160119.00,3427.38294372,N,12057.04612868,W,2,13,0.9,7.509,M,-37.620,M,6.0,0135*69
$PYRTM,2024,123.667580932095,14.777228342245
$GNHDT,332.331,T*28
$PYRTM,2024,123.667586666597,14.777234076736
$GNGGA,160119.50,3427.38353435,N,12057.04646966,W,2,13,0.9,7.925,M,-37.620,M,6.4,0135*6A
$PYRTM,2024,123.667586666597,14.777234076736
$GNHDT,332.430,T*2E
$PYRTM,2024,123.667592499259,14.777239909398
$GNGGA,160120.00,3427.38413863,N,12057.04682659,W,2,13,0.9,8.339,M,-37.620,M,7.0,0135*6F
$PYRTM,2024,123.667592499259,14.777239909398
$GNHDT,332.385,T*27
$PYRTM,2024,123.667598233009,14.777245643148
$GNGGA,160120.50,3427.38476757,N,12057.04719398,W,2,13,0.9,8.598,M,-37.620,M,7.4,0135*63
$PYRTM,2024,123.667598233009,14.777245643148
$GNHDT,331.975,T*21
$PYRTM,2024,123.667604078264,14.777251488403
$GNGGA,160121.00,3427.38539077,N,12057.04760643,W,2,13,0.9,8.677,M,-37.620,M,7.0,0135*63
$PYRTM,2024,123.667604078264,14.777251488403
$GNHDT,331.786,T*23
$PYRTM,2024,123.667609805486,14.777257215625
$GNGGA,160121.50,3427.38600958,N,12057.04803164,W,2,13,0.9,8.589,M,-37.620,M,7.4,0135*65
$PYRTM,2024,123.667609805486,14.777257215625
$GNHDT,332.077,T*29
$PYRTM,2024,123.667615642928,14.777263053067
$GNGGA,160122.00,3427.38661746,N,12057.04849953,W,2,13,0.9,8.339,M,-37.620,M,7.0,0135*6E
$PYRTM,2024,123.667615642928,14.777263053067
$GNHDT,331.828,T*28
$PYRTM,2024,123.667621378356,14.777268788495
$GNGGA,160122.50,3427.38723744,N,12057.04894996,W,2,13,0.9,8.027,M,-37.620,M,7.4,0135*6F
$PYRTM,2024,123.667621378356,14.777268788495
$GNHDT,331.988,T*23
$PYRTM,2024,123.667627233102,14.777274643241
$GNGGA,160123.00,3427.38786967,N,12057.04934152,W,2,13,0.9,7.771,M,-37.620,M,4.0,0135*6C
$PYRTM,2024,123.667627233102,14.777274643241
$GNHDT,332.092,T*22
$PYRTM,2024,123.667632948137,14.777280358275
$GNGGA,160123.50,3427.38850925,N,12057.04966837,W,2,13,0.9,7.681,M,-37.620,M,4.4,0135*6C
$PYRTM,2024,123.667632948137,14.777280358275
$GNHDT,332.036,T*2C
$PYRTM,2024,123.667638794120,14.777286204259
$GNGGA,160124.00,3427.38913063,N,12057.05001430,W,2,13,0.9,7.740,M,-37.620,M,5.0,0135*68
$PYRTM,2024,123.667638794120,14.777286204259
$GNHDT,331.273,T*2C
$PYRTM,2024,123.667644518889,14.777291929028
$GNGGA,160124.50,3427.38974100,N,12057.05040189,W,2,13,0.9,7.933,M,-37.620,M,5.4,0135*64
$PYRTM,2024,123.667644518889,14.777291929028
$GNHDT,331.039,T*20
$PYRTM,2024,123.667650369433,14.777297779572
$GNGGA,160125.00,3427.39035340,N,12057.05082656,W,2,13,0.9,8.164,M,-37.620,M,6.0,0135*62
$PYRTM,2024,123.667650369433,14.777297779572
$GNHDT,330.670,T*2A
$PYRTM,2024,123.667656105266,14.777303515405
$GNGGA,160125.50,3427.39099510,N,12057.05126133,W,2,13,0.9,8.331,M,-37.620,M,6.4,0135*6F
$PYRTM,2024,123.667656105266,14.777303515405
$GNHDT,330.639,T*27
$PYRTM,2024,123.667661945278,14.777309355417
$GNGGA,160126.00,3427.39168866,N,12057.05169588,W,2,13,0.9,8.358,M,-37.620,M,7.0,0135*6F
$PYRTM,2024,123.667661945278,14.777309355417
$GNHDT,331.178,T*24
$PYRTM,2024,123.667667675035,14.777315085174
$GNGGA,160126.50,3427.39242770,N,12057.05210241,W,2,13,0.9,8.273,M,-37.620,M,7.4,0135*6A
$PYRTM,2024,123.667667675035,14.777315085174
$GNHDT,331.217,T*2E
$PYRTM,2024,123.667673518924,14.777320929062
$GNGGA,160127.00,3427.39318588,N,12057.05248203,W,2,13,0.9,8.121,M,-37.620,M,7.0,0135*6E
$PYRTM,2024,123.667673518924,14.777320929062
$GNHDT,331.186,T*25
$PYRTM,2024,123.667679245764,14.777326655914
$GNGGA,160127.50,3427.39391370,N,12057.05281878,W,2,13,0.9,8.038,M,-37.620,M,7.4,0135*65
$PYRTM,2024,123.667679245764,14.777326655914
$GNHDT,330.902,T*20
$PYRTM,2024,123.667685089433,14.777332499583
$GNGGA,160128.00,3427.39455857,N,12057.05319976,W,2,13,0.9,8.123,M,-37.620,M,7.0,0135*6E
$PYRTM,2024,123.667685089433,14.777332499583
$GNHDT,330.602,T*2F
$PYRTM,2024,123.667690822512,14.777338232650
$GNGGA,160128.50,3427.39512202,N,12057.05360724,W,2,13,0.9,8.387,M,-37.620,M,7.4,0135*6C
$PYRTM,2024,123.667690822512,14.777338232650
$GNHDT,330.115,T*2E
$PYRTM,2024,123.667696667616,14.777344077755
$GNGGA,160129.00,3427.39563111,N,12057.05407250,W,2,13,0.9,8.773,M,-37.620,M,4.0,0135*67
$PYRTM,2024,123.667696667616,14.777344077755
$GNHDT,329.888,T*2B
$PYRTM,2024,123.667702394560,14.777349804699
$GNGGA,160129.50,3427.39615995,N,12057.05456092,W,2,13,0.9,9.086,M,-37.620,M,4.4,0135*64
$PYRTM,2024,123.667702394560,14.777349804699
$GNHDT,329.875,T*29
$PYRTM,2024,123.667708235012,14.777355645150
$GNGGA,160130.00,3427.39677987,N,12057.05501861,W,2,13,0.9,9.114,M,-37.620,M,5.0,0135*66
$PYRTM,2024,123.667708235012,14.777355645150
$GNHDT,330.121,T*29
$PYRTM,2024,123.667713968715,14.777361378854
$GNGGA,160130.50,3427.39750485,N,12057.05546907,W,2,13,0.9,8.769,M,-37.620,M,5.4,0135*63
$PYRTM,2024,123.667713968715,14.777361378854
$GNHDT,329.520,T*24
$PYRTM,2024,123.667719810208,14.777367220347
$GNGGA,160131.00,3427.39828309,N,12057.05589659,W,2,13,0.9,8.156,M,-37.620,M,6.0,0135*6E
$PYRTM,2024,123.667719810208,14.777367220347
$GNHDT,329.761,T*23
$PYRTM,2024,123.667725537940,14.777372948090
$GNGGA,160131.50,3427.39905331,N,12057.05627970,W,2,13,0.9,7.510,M,-37.620,M,6.4,0135*60
$PYRTM,2024,123.667725537940,14.777372948090
$GNHDT,329.786,T*2A
$PYRTM,2024,123.667731386505,14.777378796644
$GNGGA,160132.00,3427.39974919,N,12057.05661586,W,2,13,0.9,7.131,M,-37.620,M,7.0,0135*65
$PYRTM,2024,123.667731386505,14.777378796644
$GNHDT,329.497,T*29
$PYRTM,2024,123.667737118715,14.777384528866
$GNGGA,160132.50,3427.40035164,N,12057.05692994,W,2,13,0.9,7.184,M,-37.620,M,7.4,0135*69
$PYRTM,2024,123.667737118715,14.777384528866
$GNHDT,329.393,T*2A
$PYRTM,2024,123.667742972234,14.777390382373
$GNGGA,160133.00,3427.40086501,N,12057.05726924,W,2,13,0.9,7.612,M,-37.620,M,7.0,0135*6B
$PYRTM,2024,123.667742972234,14.777390382373
$GNHDT,329.587,T*29
$PYRTM,2024,123.667748689271,14.777396099421
$GNGGA,160133.50,3427.40133816,N,12057.05769184,W,2,13,0.9,8.240,M,-37.620,M,7.4,0135*6B
$PYRTM,2024,123.667748689271,14.777396099421
$GNHDT,329.239,T*2B
$PYRTM,2024,123.667754545046,14.777401955185
$GNGGA,160134.00,3427.40183487,N,12057.05816914,W,2,13,0.9,8.850,M,-37.620,M,7.0,0135*6F
$PYRTM,2024,123.667754545046,14.777401955185
$GNHDT,329.107,T*25
$PYRTM,2024,123.667760263715,14.777407673854
$GNGGA,160134.50,3427.40243027,N,12057.05868562,W,2,13,0.9,9.140,M,-37.620,M,7.4,0135*62
$PYRTM,2024,123.667760263715,14.777407673854
$GNHDT,328.833,T*2A
$PYRTM,2024,123.667766117674,14.777413527813
$GNGGA,160135.00,3427.40309781,N,12057.05923116,W,2,13,0.9,9.039,M,-37.620,M,4.0,0135*63
$PYRTM,2024,123.667766117674,14.777413527813
$GNHDT,328.697,T*2A
$PYRTM,2024,123.667771840197,14.777419250336
$GNGGA,160135.50,3427.40376156,N,12057.05973923,W,2,13,0.9,8.686,M,-37.620,M,4.4,0135*6E
$PYRTM,2024,123.667771840197,14.777419250336
$GNHDT,328.697,T*2A
$PYRTM,2024,123.667777684201,14.777425094340
$GNGGA,160136.00,3427.40438537,N,12057.06017509,W,2,13,0.9,8.275,M,-37.620,M,5.0,0135*67
$PYRTM,2024,123.667777684201,14.777425094340
$GNHDT,328.827,T*2F
$PYRTM,2024,123.667783414931,14.777430825069
$GNGGA,160136.50,3427.40498959,N,12057.06053391,W,2,13,0.9,7.939,M,-37.620,M,5.4,0135*63
$PYRTM,2024,123.667783414931,14.777430825069
$GNHDT,329.122,T*22
$PYRTM,2024,123.667789258808,14.777436668947
$GNGGA,160137.00,3427.40558991,N,12057.06083874,W,2,13,0.9,7.724,M,-37.620,M,6.0,0135*66
$PYRTM,2024,123.667789258808,14.777436668947
$GNHDT,329.340,T*24
$PYRTM,2024,123.667794994606,14.777442404757
$GNGGA,160137.50,3427.40620960,N,12057.06114515,W,2,13,0.9,7.589,M,-37.620,M,6.4,0135*65
$PYRTM,2024,123.667794994606,14.777442404757
$GNHDT,329.577,T*26
$PYRTM,2024,123.667800840000,14.777448250139
$GNGGA,160138.00,3427.40685233,N,12057.06147907,W,2,13,0.9,7.530,M,-37.620,M,7.0,0135*63
$PYRTM,2024,123.667800840000,14.777448250139
$GNHDT,329.606,T*23
$PYRTM,2024,123.667806568646,14.777453978785
$GNGGA,160138.50,3427.40750385,N,12057.06187315,W,2,13,0.9,7.536,M,-37.620,M,7.4,0135*64
$PYRTM,2024,123.667806568646,14.777453978785
$GNHDT,329.501,T*27
$PYRTM,2024,123.667812405926,14.777459816065
$GNGGA,160139.00,3427.40815139,N,12057.06232670,W,2,13,0.9,7.647,M,-37.620,M,7.0,0135*61
$PYRTM,2024,123.667812405926,14.777459816065
$GNHDT,329.126,T*26
$PYRTM,2024,123.667818140556,14.777465550694
$GNGGA,160139.50,3427.40877491,N,12057.06287192,W,2,13,0.9,7.840,M,-37.620,M,7.4,0135*6F
$PYRTM,2024,123.667818140556,14.777465550694
$GNHDT,329.435,T*21
$PYRTM,2024,123.667823988634,14.777471398785
$GNGGA,160140.00,3427.40937003,N,12057.06346729,W,2,13,0.9,8.128,M,-37.620,M,7.0,0135*68
$PYRTM,2024,123.667823988634,14.777471398785
$GNHDT,328.941,T*2E
$PYRTM,2024,123.667829704838,14.777477114977
$GNGGA,160140.50,3427.40994336,N,12057.06401782,W,2,13,0.9,8.488,M,-37.620,M,7.4,0135*6F
$PYRTM,2024,123.667829704838,14.777477114977
$GNHDT,329.246,T*23
$PYRTM,2024,123.667835561794,14.777482971933
$GNGGA,160141.00,3427.41048920,N,12057.06446122,W,2,13,0.9,8.898,M,-37.620,M,4.0,0135*6A
$PYRTM,2024,123.667835561794,14.777482971933
$GNHDT,329.518,T*2F
$PYRTM,2024,123.667841284213,14.777488694352
$GNGGA,160141.50,3427.41103393,N,12057.06476462,W,2,13,0.9,9.272,M,-37.620,M,4.4,0135*6A
$PYRTM,2024,123.667841284213,14.777488694352
$GNHDT,330.086,T*25
$PYRTM,2024,123.667847129838,14.777494539977
$GNGGA,160142.00,3427.41159978,N,12057.06493705,W,2,13,0.9,9.523,M,-37.620,M,5.0,0135*63
$PYRTM,2024,123.667847129838,14.777494539977
$GNHDT,330.446,T*2D
$PYRTM,2024,123.667852858935,14.777500269074
$GNGGA,160142.50,3427.41225454,N,12057.06507976,W,2,13,0.9,9.400,M,-37.620,M,5.4,0135*6F
$PYRTM,2024,123.667852858935,14.777500269074
$GNHDT,330.652,T*2A
$PYRTM,2024,123.667858700197,14.777506110336
$GNGGA,160143.00,3427.41298863,N,12057.06528749,W,2,13,0.9,8.854,M,-37.620,M,6.0,0135*61
$PYRTM,2024,123.667858700197,14.777506110336
$GNHDT,330.758,T*21
$PYRTM,2024,123.667864437384,14.777511847523
$GNGGA,160143.50,3427.41375162,N,12057.06564028,W,2,13,0.9,8.025,M,-37.620,M,6.4,0135*6C
$PYRTM,2024,123.667864437384,14.777511847523
$GNHDT,330.826,T*27
$PYRTM,2024,123.667870280197,14.777517690336
$GNGGA,160144.00,3427.41448514,N,12057.06616245,W,2,13,0.9,7.165,M,-37.620,M,7.0,0135*62
$PYRTM,2024,123.667870280197,14.777517690336
$GNHDT,330.399,T*28
$PYRTM,2024,123.667876005498,14.777523415648
$GNGGA,160144.50,3427.41513381,N,12057.06678900,W,2,13,0.9,6.590,M,-37.620,M,7.4,0135*6B
$PYRTM,2024,123.667876005498,14.777523415648
$GNHDT,329.941,T*2F
$PYRTM,2024,123.667881853021,14.777529263160
$GNGGA,160145.00,3427.41566895,N,12057.06744223,W,2,13,0.9,6.587,M,-37.620,M,7.0,0135*65
$PYRTM,2024,123.667881853021,14.777529263160
$GNHDT,329.611,T*25
$PYRTM,2024,123.667887584838,14.777534994977
$GNGGA,160145.50,3427.41612931,N,12057.06800242,W,2,13,0.9,7.056,M,-37.620,M,7.4,0135*6B
$PYRTM,2024,123.667887584838,14.777534994977
$GNHDT,330.303,T*2B
$PYRTM,2024,123.667893428067,14.777540838206
$GNGGA,160146.00,3427.41658184,N,12057.06840357,W,2,13,0.9,7.826,M,-37.619,M,7.0,0135*65
$PYRTM,2024,123.667893428067,14.777540838206
$GNHDT,330.243,T*2E
$PYRTM,2024,123.667899160590,14.777546570729
$GNGGA,160146.50,3427.41713604,N,12057.06866551,W,2,13,0.9,8.580,M,-37.619,M,7.4,0135*6F
$PYRTM,2024,123.667899160590,14.777546570729
$GNHDT,330.831,T*21
$PYRTM,2024,123.667904999676,14.777552409815
$GNGGA,160147.00,3427.41782490,N,12057.06885474,W,2,13,0.9,9.098,M,-37.619,M,4.0,0135*6D
$PYRTM,2024,123.667904999676,14.777552409815
$GNHDT,331.054,T*2B
$PYRTM,2024,123.667910729028,14.777558139178
$GNGGA,160147.50,3427.41863090,N,12057.06901538,W,2,13,0.9,9.168,M,-37.619,M,4.4,0135*62
$PYRTM,2024,123.667910729028,14.777558139178
$GNHDT,330.640,T*29
$PYRTM,2024,123.667916578206,14.777563988356
$GNGGA,160148.00,3427.41943214,N,12057.06921075,W,2,13,0.9,8.890,M,-37.619,M,5.0,0135*61
$PYRTM,2024,123.667916578206,14.777563988356
$GNHDT,330.725,T*2B
$PYRTM,2024,123.667922296644,14.777569706782
$GNGGA,160148.50,3427.42012134,N,12057.06945799,W,2,13,0.9,8.570,M,-37.619,M,5.4,0135*6B
$PYRTM,2024,123.667922296644,14.777569706782
$GNHDT,330.843,T*24
$PYRTM,2024,123.667928150336,14.777575560486
$GNGGA,160149.00,3427.42068746,N,12057.06980909,W,2,13,0.9,8.332,M,-37.619,M,6.0,0135*68
$PYRTM,2024,123.667928150336,14.777575560486
$GNHDT,330.761,T*2B
$PYRTM,2024,123.667933877940,14.777581288079
$GNGGA,160149.50,3427.42115359,N,12057.07029842,W,2,13,0.9,8.229,M,-37.619,M,6.4,0135*66
$PYRTM,2024,123.667933877940,14.777581288079
$GNHDT,330.702,T*2E
$PYRTM,2024,123.667939719514,14.777587129653
$GNGGA,160150.00,3427.42157132,N,12057.07089725,W,2,13,0.9,8.144,M,-37.619,M,7.0,0135*6B
$PYRTM,2024,123.667939719514,14.777587129653
$GNHDT,329.939,T*20
$PYRTM,2024,123.667945449514,14.777592859653
$GNGGA,160150.50,3427.42202960,N,12057.07158076,W,2,13,0.9,7.946,M,-37.619,M,7.4,0135*6F
$PYRTM,2024,123.667945449514,14.777592859653
$GNHDT,329.408,T*2F
$PYRTM,2024,123.667951293773,14.777598703912
$GNGGA,160151.00,3427.42257767,N,12057.07221650,W,2,13,0.9,7.619,M,-37.619,M,7.0,0135*6C
$PYRTM,2024,123.667951293773,14.777598703912
$GNHDT,329.051,T*27
$PYRTM,2024,123.667957019248,14.777604429398
$GNGGA,160151.50,3427.42321752,N,12057.07270920,W,2,13,0.9,7.260,M,-37.619,M,7.4,0135*6D
$PYRTM,2024,123.667957019248,14.777604429398
$GNHDT,329.384,T*2C
$PYRTM,2024,123.667962872917,14.777610283056
$GNGGA,160152.00,3427.42390849,N,12057.07296895,W,2,13,0.9,7.081,M,-37.619,M,7.0,0135*6A
$PYRTM,2024,123.667962872917,14.777610283056
$GNHDT,329.880,T*23
$PYRTM,2024,123.667968604745,14.777616014884
$GNGGA,160152.50,3427.42458877,N,12057.07313489,W,2,13,0.9,7.124,M,-37.619,M,7.4,0135*66
$PYRTM,2024,123.667968604745,14.777616014884
$GNHDT,329.481,T*2E
$PYRTM,2024,123.667974447280,14.777621857419
$GNGGA,160153.00,3427.42522579,N,12057.07334660,W,2,13,0.9,7.434,M,-37.619,M,4.0,0135*6E
$PYRTM,2024,123.667974447280,14.777621857419
$GNHDT,328.758,T*28
$PYRTM,2024,123.667980172755,14.777627582905
$GNGGA,160153.50,3427.42583110,N,12057.07364422,W,2,13,0.9,7.858,M,-37.619,M,4.4,0135*68
$PYRTM,2024,123.667980172755,14.777627582905
$GNHDT,328.616,T*23
$PYRTM,2024,123.667986016956,14.777633427095
$GNGGA,160154.00,3427.42641565,N,12057.07408541,W,2,13,0.9,8.224,M,-37.619,M,5.0,0135*63
$PYRTM,2024,123.667986016956,14.777633427095
$GNHDT,328.176,T*22
$PYRTM,2024,123.667991743657,14.777639153796
$GNGGA,160154.50,3427.42698897,N,12057.07463869,W,2,13,0.9,8.380,M,-37.619,M,5.4,0135*63
$PYRTM,2024,123.667991743657,14.777639153796
$GNHDT,328.549,T*2A
$PYRTM,2024,123.667997587627,14.777644997766
$GNGGA,160155.00,3427.42754775,N,12057.07525490,W,2,13,0.9,8.367,M,-37.619,M,6.0,0135*62
$PYRTM,2024,123.667997587627,14.777644997766
$GNHDT,328.617,T*22
$PYRTM,2024,123.668003325938,14.777650736076
$GNGGA,160155.50,3427.42809128,N,12057.07582407,W,2,13,0.9,8.265,M,-37.619,M,6.4,0135*6A
$PYRTM,2024,123.668003325938,14.777650736076
$GNHDT,328.821,T*29
$PYRTM,2024,123.668009171319,14.777656581458
$GNGGA,160156.00,3427.42861936,N,12057.07629230,W,2,13,0.9,8.149,M,-37.619,M,7.0,0135*6D
$PYRTM,2024,123.668009171319,14.777656581458
$GNHDT,328.735,T*23
$PYRTM,2024,123.668014893333,14.777662303472
$GNGGA,160156.50,3427.42913791,N,12057.07669647,W,2,13,0.9,8.076,M,-37.619,M,7.4,0135*66
$PYRTM,2024,123.668014893333,14.777662303472
$GNHDT,328.674,T*27
$PYRTM,2024,123.668020735694,14.777668145845
$GNGGA,160157.00,3427.42966338,N,12057.07709554,W,2,13,0.9,8.027,M,-37.619,M,7.0,0135*61
$PYRTM,2024,123.668020735694,14.777668145845
$GNHDT,328.437,T*22
$PYRTM,2024,123.668026469248,14.777673879387
$GNGGA,160157.50,3427.43023695,N,12057.07748582,W,2,13,0.9,7.954,M,-37.619,M,7.4,0135*67
$PYRTM,2024,123.668026469248,14.777673879387
$GNHDT,327.958,T*29
$PYRTM,2024,123.668032315266,14.777679725405
$GNGGA,160158.00,3427.43086187,N,12057.07787139,W,2,13,0.9,7.821,M,-37.619,M,7.0,0135*66
$PYRTM,2024,123.668032315266,14.777679725405
$GNHDT,327.576,T*29
$PYRTM,2024,123.668038043009,14.777685453148
$GNGGA,160158.50,3427.43151545,N,12057.07822152,W,2,13,0.9,7.700,M,-37.619,M,7.4,0135*67
$PYRTM,2024,123.668038043009,14.777685453148
$GNHDT,328.119,T*2B
$PYRTM,2024,123.668043888819,14.777691298958
$GNGGA,160159.00,3427.43215438,N,12057.07857614,W,2,13,0.9,7.682,M,-37.619,M,4.0,0135*60
$PYRTM,2024,123.668043888819,14.777691298958
$GNHDT,328.560,T*21
$PYRTM,2024,123.668049612222,14.777697022361
$GNGGA,160159.50,3427.43276290,N,12057.07894703,W,2,13,0.9,7.839,M,-37.619,M,4.4,0135*66
$PYRTM,2024,123.668049612222,14.777697022361
$GNHDT,328.395,T*2D
$PYRTM,2024,123.668055466470,14.777702876609
$GNGGA,160200.00,3427.43333778,N,12057.07933283,W,2,13,0.9,8.132,M,-37.619,M,5.0,0135*66
$PYRTM,2024,123.668055466470,14.777702876609
$GNHDT,328.559,T*2B
$PYRTM,2024,123.668061188495,14.777708598634
$GNGGA,160200.50,3427.43390325,N,12057.07974380,W,2,13,0.9,8.467,M,-37.619,M,5.4,0135*66
$PYRTM,2024,123.668061188495,14.777708598634
$GNHDT,328.862,T*2E
$PYRTM,2024,123.668067042130,14.777714452269
$GNGGA,160201.00,3427.43447205,N,12057.08020019,W,2,13,0.9,8.716,M,-37.619,M,6.0,0135*6A
$PYRTM,2024,123.668067042130,14.777714452269
$GNHDT,328.633,T*24
$PYRTM,2024,123.668072766667,14.777720176806
$GNGGA,160201.50,3427.43506613,N,12057.08071228,W,2,13,0.9,8.775,M,-37.619,M,6.4,0135*6D
$PYRTM,2024,123.668072766667,14.777720176806
$GNHDT,328.269,T*2F
$PYRTM,2024,123.668078613125,14.777726023264
$GNGGA,160202.00,3427.43567485,N,12057.08125594,W,2,13,0.9,8.598,M,-37.619,M,7.0,0135*65
$PYRTM,2024,123.668078613125,14.777726023264
$GNHDT,328.090,T*2B
$PYRTM,2024,123.668084336019,14.777731746157
$GNGGA,160202.50,3427.43629613,N,12057.08176514,W,2,13,0.9,8.286,M,-37.619,M,7.4,0135*66
$PYRTM,2024,123.668084336019,14.777731746157
$GNHDT,328.811,T*2A
$PYRTM,2024,123.668090184005,14.777737594144
$GNGGA,160203.00,3427.43691821,N,12057.08222515,W,2,13,0.9,7.910,M,-37.619,M,7.0,0135*62
$PYRTM,2024,123.668090184005,14.777737594144
$GNHDT,329.034,T*24
$PYRTM,2024,123.668095911227,14.777743321377
$GNGGA,160203.50,3427.43754926,N,12057.08264116,W,2,13,0.9,7.585,M,-37.619,M,7.4,0135*68
$PYRTM,2024,123.668095911227,14.777743321377
$GNHDT,329.167,T*23
$PYRTM,2024,123.668101761887,14.777749172025
$GNGGA,160204.00,3427.43820293,N,12057.08303018,W,2,13,0.9,7.360,M,-37.619,M,7.0,0135*65
$PYRTM,2024,123.668101761887,14.777749172025
$GNHDT,328.940,T*2F
$PYRTM,2024,123.668107483021,14.777754893160
$GNGGA,160204.50,3427.43887975,N,12057.08341094,W,2,13,0.9,7.255,M,-37.619,M,7.4,0135*6F
$PYRTM,2024,123.668107483021,14.777754893160
$GNHDT,328.939,T*21
$PYRTM,2024,123.668113338912,14.777760749051
$GNGGA,160205.00,3427.43954873,N,12057.08379681,W,2,13,0.9,7.318,M,-37.619,M,4.0,0135*65
$PYRTM,2024,123.668113338912,14.777760749051
$GNHDT,329.024,T*25
$PYRTM,2024,123.668119060324,14.777766470463
$GNGGA,160205.50,3427.44017245,N,12057.08421106,W,2,13,0.9,7.561,M,-37.619,M,4.4,0135*68
$PYRTM,2024,123.668119060324,14.777766470463
$GNHDT,328.719,T*2D
$PYRTM,2024,123.668124906030,14.777772316169
$GNGGA,160206.00,3427.44074422,N,12057.08464481,W,2,13,0.9,7.978,M,-37.619,M,5.0,0135*66
$PYRTM,2024,123.668124906030,14.777772316169
$GNHDT,328.601,T*25
$PYRTM,2024,123.668130629653,14.777778039803
$GNGGA,160206.50,3427.44129236,N,12057.08508305,W,2,13,0.9,8.426,M,-37.619,M,5.4,0135*64
$PYRTM,2024,123.668130629653,14.777778039803
$GNHDT,329.593,T*2C
$PYRTM,2024,123.668136484977,14.777783895116
$GNGGA,160207.00,3427.44185549,N,12057.08555585,W,2,13,0.9,8.792,M,-37.619,M,6.0,0135*64
$PYRTM,2024,123.668136484977,14.777783895116
$GNHDT,329.303,T*23
$PYRTM,2024,123.668142209861,14.777789620000
$GNGGA,160207.50,3427.44247204,N,12057.08606690,W,2,13,0.9,8.799,M,-37.619,M,6.4,0135*6F
$PYRTM,2024,123.668142209861,14.777789620000
$GNHDT,329.089,T*22
$PYRTM,2024,123.668148061227,14.777795471377
$GNGGA,160208.00,3427.44314050,N,12057.08658280,W,2,13,0.9,8.417,M,-37.619,M,7.0,0135*6F
$PYRTM,2024,123.668148061227,14.777795471377
$GNHDT,329.243,T*26
$PYRTM,2024,123.668153787002,14.777801197141
$GNGGA,160208.50,3427.44382609,N,12057.08705546,W,2,13,0.9,7.769,M,-37.619,M,7.4,0135*6A
$PYRTM,2024,123.668153787002,14.777801197141
$GNHDT,329.931,T*28
$PYRTM,2024,123.668159631042,14.777807041192
$GNGGA,160209.00,3427.44447024,N,12057.08749294,W,2,13,0.9,7.161,M,-37.619,M,7.0,0135*63
$PYRTM,2024,123.668159631042,14.777807041192
$GNHDT,329.659,T*29
$PYRTM,2024,123.668165355312,14.777812765451
$GNGGA,160209.50,3427.44505223,N,12057.08787118,W,2,13,0.9,6.863,M,-37.619,M,7.4,0135*6F
$PYRTM,2024,123.668165355312,14.777812765451
$GNHDT,329.793,T*2E
$PYRTM,2024,123.668171205648,14.777818615787
$GNGGA,160210.00,3427.44556733,N,12057.08819083,W,2,13,0.9,7.041,M,-37.619,M,7.0,0135*66
$PYRTM,2024,123.668171205648,14.777818615787
$GNHDT,329.659,T*29
$PYRTM,2024,123.668176946424,14.777824356563
$GNGGA,160210.50,3427.44606225,N,12057.08847874,W,2,13,0.9,7.531,M,-37.619,M,7.4,0135*6A
$PYRTM,2024,123.668176946424,14.777824356563
$GNHDT,329.378,T*2F
$PYRTM,2024,123.668182778935,14.777830189074
$GNGGA,160211.00,3427.44658954,N,12057.08876612,W,2,13,0.9,8.085,M,-37.619,M,4.0,0135*66
$PYRTM,2024,123.668182778935,14.777830189074
$GNHDT,329.754,T*25
$PYRTM,2024,123.668188508102,14.777835918241
$GNGGA,160211.50,3427.44719332,N,12057.08910335,W,2,13,0.9,8.450,M,-37.619,M,4.4,0135*64
$PYRTM,2024,123.668188508102,14.777835918241
$GNHDT,329.871,T*2D
$PYRTM,2024,123.668194351863,14.777841762002
$GNGGA,160212.00,3427.44788147,N,12057.08954810,W,2,13,0.9,8.398,M,-37.619,M,5.0,0135*60
$PYRTM,2024,123.668194351863,14.777841762002
$GNHDT,330.157,T*28
$PYRTM,2024,123.668200078310,14.777847488449
$GNGGA,160212.50,3427.44860764,N,12057.09006750,W,2,13,0.9,8.004,M,-37.619,M,5.4,0135*6D
$PYRTM,2024,123.668200078310,14.777847488449
$GNHDT,329.946,T*28
$PYRTM,2024,123.668205921956,14.777853332095
$GNGGA,160213.00,3427.44930283,N,12057.09066638,W,2,13,0.9,7.423,M,-37.619,M,6.0,0135*61
$PYRTM,2024,123.668205921956,14.777853332095
$GNHDT,329.543,T*21
$PYRTM,2024,123.668211657616,14.777859067755
$GNGGA,160213.50,3427.44992108,N,12057.09124535,W,2,13,0.9,6.973,M,-37.619,M,6.4,0135*68
$PYRTM,2024,123.668211657616,14.777859067755
$GNHDT,329.520,T*24
$PYRTM,2024,123.668217496829,14.777864906968
$GNGGA,160214.00,3427.45044725,N,12057.09172643,W,2,13,0.9,6.958,M,-37.619,M,7.0,0135*6D
$PYRTM,2024,123.668217496829,14.777864906968
$GNHDT,329.433,T*27
$PYRTM,2024,123.668223235116,14.777870645255
$GNGGA,160214.50,3427.45091024,N,12057.09210488,W,2,13,0.9,7.334,M,-37.619,M,7.4,0135*61
$PYRTM,2024,123.668223235116,14.777870645255
$GNHDT,330.011,T*2B
$PYRTM,2024,123.668229078438,14.777876488576
$GNGGA,160215.00,3427.45137769,N,12057.09235295,W,2,13,0.9,7.964,M,-37.619,M,7.0,0135*60
$PYRTM,2024,123.668229078438,14.777876488576
$GNHDT,330.696,T*22
$PYRTM,2024,123.668234804225,14.777882214363
$GNGGA,160215.50,3427.45190949,N,12057.09250256,W,2,13,0.9,8.585,M,-37.619,M,7.4,0135*60
$PYRTM,2024,123.668234804225,14.777882214363
$GNHDT,331.106,T*2D
$PYRTM,2024,123.668240647373,14.777888057512
$GNGGA,160216.00,3427.45251161,N,12057.09263694,W,2,13,0.9,9.003,M,-37.619,M,7.0,0135*6E
$PYRTM,2024,123.668240647373,14.777888057512
$GNHDT,331.545,T*2E
$PYRTM,2024,123.668246380498,14.777893790637
$GNGGA,160216.50,3427.45318968,N,12057.09283737,W,2,13,0.9,9.062,M,-37.619,M,7.4,0135*63
$PYRTM,2024,123.668246380498,14.777893790637
$GNHDT,331.961,T*24
$PYRTM,2024,123.668252227662,14.777899637801
$GNGGA,160217.00,3427.45391371,N,12057.09316848,W,2,13,0.9,8.677,M,-37.619,M,4.0,0135*6A
$PYRTM,2024,123.668252227662,14.777899637801
$GNHDT,332.284,T*27
$PYRTM,2024,123.668257950544,14.777905360683
$GNGGA,160217.50,3427.45462465,N,12057.09358679,W,2,13,0.9,8.085,M,-37.619,M,4.4,0135*6F
$PYRTM,2024,123.668257950544,14.777905360683
$GNHDT,331.915,T*27
$PYRTM,2024,123.668263798576,14.777911208715
$GNGGA,160218.00,3427.45527224,N,12057.09408062,W,2,13,0.9,7.489,M,-37.619,M,5.0,0135*6A
$PYRTM,2024,123.668263798576,14.777911208715
$GNHDT,331.967,T*22
$PYRTM,2024,123.668269531169,14.777916941308
$GNGGA,160218.50,3427.45582339,N,12057.09461444,W,2,13,0.9,7.185,M,-37.619,M,5.4,0135*6F
$PYRTM,2024,123.668269531169,14.777916941308
$GNHDT,331.801,T*23
$PYRTM,2024,123.668275367894,14.777922778032
$GNGGA,160219.00,3427.45628996,N,12057.09514875,W,2,13,0.9,7.266,M,-37.619,M,6.0,0135*63
$PYRTM,2024,123.668275367894,14.777922778032
$GNHDT,331.833,T*22
$PYRTM,2024,123.668281103032,14.777928513171
$GNGGA,160219.50,3427.45672969,N,12057.09566681,W,2,13,0.9,7.580,M,-37.619,M,6.4,0135*62
$PYRTM,2024,123.668281103032,14.777928513171
$GNHDT,330.996,T*2D
$PYRTM,2024,123.668286944144,14.777934354282
$GNGGA,160220.00,3427.45721571,N,12057.09612389,W,2,13,0.9,7.959,M,-37.619,M,7.0,0135*6F
$PYRTM,2024,123.668286944144,14.777934354282
$GNHDT,330.742,T*2A
$PYRTM,2024,123.668292675602,14.777940085741
$GNGGA,160220.50,3427.45782375,N,12057.09650401,W,2,13,0.9,8.219,M,-37.619,M,7.4,0135*64
$PYRTM,2024,123.668292675602,14.777940085741
$GNHDT,330.830,T*20
$PYRTM,2024,123.668298517049,14.777945927188
$GNGGA,160221.00,3427.45852708,N,12057.09679796,W,2,13,0.9,8.292,M,-37.619,M,7.0,0135*6D
$PYRTM,2024,123.668298517049,14.777945927188
$GNHDT,330.103,T*29
$PYRTM,2024,123.668304243264,14.777951653403
$GNGGA,160221.50,3427.45928092,N,12057.09701385,W,2,13,0.9,8.206,M,-37.619,M,7.4,0135*61
$PYRTM,2024,123.668304243264,14.777951653403
$GNHDT,331.188,T*2B
$PYRTM,2024,123.668310090729,14.777957500868
$GNGGA,160222.00,3427.46002118,N,12057.09720511,W,2,13,0.9,8.070,M,-37.619,M,7.0,0135*69
$PYRTM,2024,123.668310090729,14.777957500868
$GNHDT,331.376,T*28
$PYRTM,2024,123.668315818090,14.777963228229
$GNGGA,160222.50,3427.46070694,N,12057.09744791,W,2,13,0.9,7.984,M,-37.619,M,7.4,0135*6B
$PYRTM,2024,123.668315818090,14.777963228229
$GNHDT,331.797,T*23
$PYRTM,2024,123.668321666620,14.777969076759
$GNGGA,160223.00,3427.46132976,N,12057.09774541,W,2,13,0.9,8.002,M,-37.619,M,4.0,0135*68
$PYRTM,2024,123.668321666620,14.777969076759
$GNHDT,331.810,T*23
$PYRTM,2024,123.668327396655,14.777974806794
$GNGGA,160223.50,3427.46188567,N,12057.09815069,W,2,13,0.9,8.114,M,-37.619,M,4.4,0135*65
$PYRTM,2024,123.668327396655,14.777974806794
$GNHDT,331.628,T*26
$PYRTM,2024,123.668333246528,14.777980656667
$GNGGA,160224.00,3427.46235821,N,12057.09862334,W,2,13,0.9,8.353,M,-37.619,M,5.0,0135*62
$PYRTM,2024,123.668333246528,14.777980656667
$GNHDT,331.702,T*2F
$PYRTM,2024,123.668338969931,14.777986380069
$GNGGA,160224.50,3427.46277809,N,12057.09910551,W,2,13,0.9,8.613,M,-37.619,M,5.4,0135*6F
$PYRTM,2024,123.668338969931,14.777986380069
$GNHDT,331.936,T*26
$PYRTM,2024,123.668344816528,14.777992226667
$GNGGA,160225.00,3427.46322282,N,12057.09950123,W,2,13,0.9,8.803,M,-37.619,M,6.0,0135*6E
$PYRTM,2024,123.668344816528,14.777992226667
$GNHDT,332.010,T*28
$PYRTM,2024,123.668350538183,14.777997948322
$GNGGA,160225.50,3427.46377623,N,12057.09983852,W,2,13,0.9,8.726,M,-37.619,M,6.4,0135*69
$PYRTM,2024,123.668350538183,14.777997948322
$GNHDT,331.884,T*2E
$PYRTM,2024,123.668356384317,14.778003794456
$GNGGA,160226.00,3427.46445888,N,12057.10015095,W,2,13,0.9,8.300,M,-37.619,M,7.0,0135*6E
$PYRTM,2024,123.668356384317,14.778003794456
$GNHDT,331.929,T*28
$PYRTM,2024,123.668362114942,14.778009525081
$GNGGA,160226.50,3427.46521069,N,12057.10049027,W,2,13,0.9,7.661,M,-37.619,M,7.4,0135*66
$PYRTM,2024,123.668362114942,14.778009525081
$GNHDT,331.621,T*2F
$PYRTM,2024,123.668367957616,14.778015367755
$GNGGA,160227.00,3427.46593995,N,12057.10088805,W,2,13,0.9,7.056,M,-37.619,M,7.0,0135*62
$PYRTM,2024,123.668367957616,14.778015367755
$GNHDT,331.003,T*29
$PYRTM,2024,123.668373689329,14.778021099468
$GNGGA,160227.50,3427.46656008,N,12057.10128606,W,2,13,0.9,6.790,M,-37.619,M,7.4,0135*6E
$PYRTM,2024,123.668373689329,14.778021099468
$GNHDT,330.531,T*2C
$PYRTM,2024,123.668379539456,14.778026949595
$GNGGA,160228.00,3427.46706302,N,12057.10170332,W,2,13,0.9,7.010,M,-37.619,M,7.0,0135*6C
$PYRTM,2024,123.668379539456,14.778026949595
$GNHDT,330.227,T*2C
$PYRTM,2024,123.668385263241,14.778032673380
$GNGGA,160228.50,3427.46751260,N,12057.10210831,W,2,13,0.9,7.522,M,-37.619,M,7.4,0135*63
$PYRTM,2024,123.668385263241,14.778032673380
$GNHDT,330.418,T*26
$PYRTM,2024,123.668391115243,14.778038525382
$GNGGA,160229.00,3427.46801193,N,12057.10246754,W,2,13,0.9,8.102,M,-37.619,M,4.0,0135*63
$PYRTM,2024,123.668391115243,14.778038525382
$GNHDT,330.702,T*2E
$PYRTM,2024,123.668396846296,14.778044256447
