$PYRTM,2024,122.083339006968,13.192986417106
$GNGGA,020000.50,3313.83587008,N,11837.94751986,W,2,10,1.0,5.423,M,-37.623,M,5.4,0135*6C
$PYRTM,2024,122.083339006968,13.192986417106
$GNHDT,292.925,T*2C
$PYRTM,2024,122.083344847801,13.192992257940
$GNGGA,020001.00,3313.83625367,N,11837.94877062,W,2,10,1.0,5.092,M,-37.623,M,6.0,0135*68
$PYRTM,2024,122.083344847801,13.192992257940
$GNHDT,292.790,T*2C
$PYRTM,2024,122.083350582211,13.192997992350
$GNGGA,020001.50,3313.83660371,N,11837.94991632,W,2,10,1.0,5.127,M,-37.623,M,6.4,0135*6A
$PYRTM,2024,122.083350582211,13.192997992350
$GNHDT,292.709,T*2C
$PYRTM,2024,122.083356425394,13.193003835532
$GNGGA,020002.00,3313.83696468,N,11837.95099280,W,2,10,1.0,5.511,M,-37.623,M,7.0,0135*63
$PYRTM,2024,122.083356425394,13.193003835532
$GNHDT,292.991,T*23
$PYRTM,2024,122.083362154132,13.193009564271
$GNGGA,020002.50,3313.83735808,N,11837.95209628,W,2,10,1.0,5.919,M,-37.623,M,7.4,0135*69
$PYRTM,2024,122.083362154132,13.193009564271
$GNHDT,292.794,T*28
$PYRTM,2024,122.083367995370,13.193015405509
$GNGGA,020003.00,3313.83780732,N,11837.95326978,W,2,10,1.0,6.223,M,-37.623,M,7.0,0135*66
$PYRTM,2024,122.083367995370,13.193015405509
$GNHDT,292.688,T*24
$PYRTM,2024,122.083373735035,13.193021145174
$GNGGA,020003.50,3313.83828489,N,11837.95450843,W,2,10,1.0,6.303,M,-37.623,M,7.4,0135*65
$PYRTM,2024,122.083373735035,13.193021145174
$GNHDT,292.598,T*26
$PYRTM,2024,122.083379572384,13.193026982523
$GNGGA,020004.00,3313.83875749,N,11837.95575160,W,2,10,1.0,6.289,M,-37.623,M,7.0,0135*69
$PYRTM,2024,122.083379572384,13.193026982523
$GNHDT,292.504,T*23
$PYRTM,2024,122.083385310521,13.193032720660
$GNGGA,020004.50,3313.83920494,N,11837.95695899,W,2,10,1.0,6.232,M,-37.623,M,7.4,0135*68
$PYRTM,2024,122.083385310521,13.193032720660
$GNHDT,292.564,T*25
$PYRTM,2024,122.083391143067,13.193038553206
$GNGGA,020005.00,3313.83963031,N,11837.95811285,W,2,10,1.0,6.202,M,-37.623,M,4.0,0135*61
$PYRTM,2024,122.083391143067,13.193038553206
$GNHDT,292.720,T*27
$PYRTM,2024,122.083396878588,13.193044288727
$GNGGA,020005.50,3313.84005100,N,11837.95924807,W,2,10,1.0,6.229,M,-37.623,M,4.4,0135*63
$PYRTM,2024,122.083396878588,13.193044288727
$GNHDT,292.824,T*2C
$PYRTM,2024,122.083402715961,13.193050126100
$GNGGA,020006.00,3313.84048572,N,11837.96041388,W,2,10,1.0,6.193,M,-37.623,M,5.0,0135*6F
$PYRTM,2024,122.083402715961,13.193050126100
$GNHDT,292.614,T*21
$PYRTM,2024,122.083408451447,13.193055861586
$GNGGA,020006.50,3313.84093739,N,11837.96162420,W,2,10,1.0,6.077,M,-37.623,M,5.4,0135*6B
$PYRTM,2024,122.083408451447,13.193055861586
$GNHDT,292.524,T*21
$PYRTM,2024,122.083414292731,13.193061702870
$GNGGA,020007.00,3313.84138257,N,11837.96285106,W,2,10,1.0,5.910,M,-37.623,M,6.0,0135*65
$PYRTM,2024,122.083414292731,13.193061702870
$GNHDT,292.261,T*27
$PYRTM,2024,122.083420032639,13.193067442778
$GNGGA,020007.50,3313.84179371,N,11837.96407537,W,2,10,1.0,5.783,M,-37.623,M,6.4,0135*6A
$PYRTM,2024,122.083420032639,13.193067442778
$GNHDT,292.095,T*2E
$PYRTM,2024,122.083425863854,13.193073273993
$GNGGA,020008.00,3313.84217002,N,11837.96527493,W,2,10,1.0,5.778,M,-37.623,M,7.0,0135*61
$PYRTM,2024,122.083425863854,13.193073273993
$GNHDT,292.254,T*21
$PYRTM,2024,122.083431608773,13.193079018924
$GNGGA,020008.50,3313.84253061,N,11837.96645062,W,2,10,1.0,5.909,M,-37.623,M,7.4,0135*60
$PYRTM,2024,122.083431608773,13.193079018924
$GNHDT,291.918,T*21
$PYRTM,2024,122.083437439456,13.193084849595
$GNGGA,020009.00,3313.84290443,N,11837.96760474,W,2,10,1.0,6.122,M,-37.623,M,7.0,0135*6C
$PYRTM,2024,122.083437439456,13.193084849595
$GNHDT,291.789,T*27
$PYRTM,2024,122.083443176632,13.193090586771
$GNGGA,020009.50,3313.84333464,N,11837.96875647,W,2,10,1.0,6.333,M,-37.623,M,7.4,0135*6B
$PYRTM,2024,122.083443176632,13.193090586771
$GNHDT,291.909,T*21
$PYRTM,2024,122.083449012512,13.193096422650
$GNGGA,020010.00,3313.84381198,N,11837.96992036,W,2,10,1.0,6.470,M,-37.623,M,7.0,0135*65
$PYRTM,2024,122.083449012512,13.193096422650
$GNHDT,291.784,T*2A
$PYRTM,2024,122.083454758032,13.193102168171
$GNGGA,020010.50,3313.84430922,N,11837.97109665,W,2,10,1.0,6.487,M,-37.623,M,7.4,0135*63
$PYRTM,2024,122.083454758032,13.193102168171
$GNHDT,291.953,T*2E
$PYRTM,2024,122.083460585382,13.193107995521
$GNGGA,020011.00,3313.84478744,N,11837.97228094,W,2,10,1.0,6.392,M,-37.623,M,4.0,0135*69
$PYRTM,2024,122.083460585382,13.193107995521
$GNHDT,291.800,T*29
$PYRTM,2024,122.083466328264,13.193113738403
$GNGGA,020011.50,3313.84522328,N,11837.97348007,W,2,10,1.0,6.208,M,-37.623,M,4.4,0135*67
$PYRTM,2024,122.083466328264,13.193113738403
$GNHDT,291.415,T*21
$PYRTM,2024,122.083472161400,13.193119571539
$GNGGA,020012.00,3313.84560393,N,11837.97472277,W,2,10,1.0,5.967,M,-37.623,M,5.0,0135*68
$PYRTM,2024,122.083472161400,13.193119571539
$GNHDT,291.094,T*2C
$PYRTM,2024,122.083477898831,13.193125308970
$GNGGA,020012.50,3313.84594255,N,11837.97600940,W,2,10,1.0,5.690,M,-37.623,M,5.4,0135*66
$PYRTM,2024,122.083477898831,13.193125308970
$GNHDT,291.017,T*27
$PYRTM,2024,122.083483736910,13.193131147049
$GNGGA,020013.00,3313.84626296,N,11837.97731298,W,2,10,1.0,5.418,M,-37.623,M,6.0,0135*6F
$PYRTM,2024,122.083483736910,13.193131147049
$GNHDT,290.912,T*2A
$PYRTM,2024,122.083489473889,13.193136884039
$GNGGA,020013.50,3313.84660624,N,11837.97859692,W,2,10,1.0,5.215,M,-37.623,M,6.4,0135*65
$PYRTM,2024,122.083489473889,13.193136884039
$GNHDT,290.641,T*23
$PYRTM,2024,122.083495311227,13.193142721366
$GNGGA,020014.00,3313.84699797,N,11837.97984587,W,2,10,1.0,5.111,M,-37.623,M,7.0,0135*6C
$PYRTM,2024,122.083495311227,13.193142721366
$GNHDT,290.443,T*23
$PYRTM,2024,122.083501047778,13.193148457928
$GNGGA,020014.50,3313.84744750,N,11837.98107164,W,2,10,1.0,5.131,M,-37.623,M,7.4,0135*60
$PYRTM,2024,122.083501047778,13.193148457928
$GNHDT,290.976,T*28
$PYRTM,2024,122.083506886539,13.193154296678
$GNGGA,020015.00,3313.84792483,N,11837.98227569,W,2,10,1.0,5.229,M,-37.623,M,7.0,0135*64
$PYRTM,2024,122.083506886539,13.193154296678
$GNHDT,290.959,T*25
$PYRTM,2024,122.083512621030,13.193160031169
$GNGGA,020015.50,3313.84839773,N,11837.98346965,W,2,10,1.0,5.438,M,-37.623,M,7.4,0135*67
$PYRTM,2024,122.083512621030,13.193160031169
$GNHDT,290.937,T*2D
$PYRTM,2024,122.083518459826,13.193165869965
$GNGGA,020016.00,3313.84884362,N,11837.98467618,W,2,10,1.0,5.687,M,-37.623,M,7.0,0135*60
$PYRTM,2024,122.083518459826,13.193165869965
$GNHDT,290.930,T*2A
$PYRTM,2024,122.083524200475,13.193171610613
$GNGGA,020016.50,3313.84925405,N,11837.98590124,W,2,10,1.0,5.925,M,-37.623,M,7.4,0135*6B
$PYRTM,2024,122.083524200475,13.193171610613
$GNHDT,290.994,T*24
$PYRTM,2024,122.083530030451,13.193177440590
$GNGGA,020017.00,3313.84962467,N,11837.98713837,W,2,10,1.0,6.131,M,-37.623,M,4.0,0135*63
$PYRTM,2024,122.083530030451,13.193177440590
$GNHDT,291.148,T*2C
$PYRTM,2024,122.083535776759,13.193183186898
$GNGGA,020017.50,3313.84996657,N,11837.98838041,W,2,10,1.0,6.277,M,-37.623,M,4.4,0135*66
$PYRTM,2024,122.083535776759,13.193183186898
$GNHDT,291.224,T*25
$PYRTM,2024,122.083541606620,13.193189016759
$GNGGA,020018.00,3313.85030267,N,11837.98961355,W,2,10,1.0,6.345,M,-37.623,M,5.0,0135*61
$PYRTM,2024,122.083541606620,13.193189016759
$GNHDT,291.568,T*2A
$PYRTM,2024,122.083547341192,13.193194751331
$GNGGA,020018.50,3313.85064383,N,11837.99081670,W,2,10,1.0,6.375,M,-37.623,M,5.4,0135*6D
$PYRTM,2024,122.083547341192,13.193194751331
$GNHDT,291.297,T*2D
$PYRTM,2024,122.083553183981,13.193200594120
$GNGGA,020019.00,3313.85100380,N,11837.99198413,W,2,10,1.0,6.373,M,-37.623,M,6.0,0135*66
$PYRTM,2024,122.083553183981,13.193200594120
$GNHDT,291.134,T*27
$PYRTM,2024,122.083558914606,13.193206324745
$GNGGA,020019.50,3313.85138888,N,11837.99314757,W,2,10,1.0,6.326,M,-37.623,M,6.4,0135*6A
$PYRTM,2024,122.083558914606,13.193206324745
$GNHDT,291.041,T*24
$PYRTM,2024,122.083564756852,13.193212166991
$GNGGA,020020.00,3313.85180000,N,11837.99432756,W,2,10,1.0,6.187,M,-37.623,M,7.0,0135*60
$PYRTM,2024,122.083564756852,13.193212166991
$GNHDT,291.005,T*24
$PYRTM,2024,122.083570489630,13.193217899769
$GNGGA,020020.50,3313.85223921,N,11837.99554669,W,2,10,1.0,5.955,M,-37.623,M,7.4,0135*69
$PYRTM,2024,122.083570489630,13.193217899769
$GNHDT,291.144,T*20
$PYRTM,2024,122.083576327060,13.193223737199
$GNGGA,020021.00,3313.85268668,N,11837.99679143,W,2,10,1.0,5.683,M,-37.623,M,7.0,0135*63
$PYRTM,2024,122.083576327060,13.193223737199
$GNHDT,291.173,T*24
$PYRTM,2024,122.083582067442,13.193229477581
$GNGGA,020021.50,3313.85312030,N,11837.99804147,W,2,10,1.0,5.494,M,-37.623,M,7.4,0135*61
$PYRTM,2024,122.083582067442,13.193229477581
$GNHDT,291.122,T*20
$PYRTM,2024,122.083587904664,13.193235314803
$GNGGA,020022.00,3313.85353497,N,11837.99928749,W,2,10,1.0,5.439,M,-37.623,M,7.0,0135*6F
$PYRTM,2024,122.083587904664,13.193235314803
$GNHDT,291.538,T*2F
$PYRTM,2024,122.083593639329,13.193241049479
$GNGGA,020022.50,3313.85393888,N,11838.00052968,W,2,10,1.0,5.524,M,-37.623,M,7.4,0135*6B
$PYRTM,2024,122.083593639329,13.193241049479
$GNHDT,291.343,T*25
$PYRTM,2024,122.083599475891,13.193246886030
$GNGGA,020023.00,3313.85433531,N,11838.00179144,W,2,10,1.0,5.685,M,-37.623,M,4.0,0135*6C
$PYRTM,2024,122.083599475891,13.193246886030
$GNHDT,291.552,T*23
$PYRTM,2024,122.083605216806,13.193252626944
$GNGGA,020023.50,3313.85473760,N,11838.00307759,W,2,10,1.0,5.809,M,-37.623,M,4.4,0135*64
$PYRTM,2024,122.083605216806,13.193252626944
$GNHDT,291.637,T*23
$PYRTM,2024,122.083611053576,13.193258463727
$GNGGA,020024.00,3313.85515273,N,11838.00438710,W,2,10,1.0,5.890,M,-37.623,M,5.0,0135*63
$PYRTM,2024,122.083611053576,13.193258463727
$GNHDT,291.861,T*2E
$PYRTM,2024,122.083616790891,13.193264201030
$GNGGA,020024.50,3313.85558090,N,11838.00569435,W,2,10,1.0,5.904,M,-37.623,M,5.4,0135*69
$PYRTM,2024,122.083616790891,13.193264201030
$GNHDT,291.804,T*2D
$PYRTM,2024,122.083622624456,13.193270034595
$GNGGA,020025.00,3313.85601188,N,11838.00697399,W,2,10,1.0,5.898,M,-37.623,M,6.0,0135*6A
$PYRTM,2024,122.083622624456,13.193270034595
$GNHDT,291.862,T*2D
$PYRTM,2024,122.083628369942,13.193275780081
$GNGGA,020025.50,3313.85643945,N,11838.00821171,W,2,10,1.0,5.937,M,-37.623,M,6.4,0135*67
$PYRTM,2024,122.083628369942,13.193275780081
$GNHDT,291.700,T*26
$PYRTM,2024,122.083634199456,13.193281609606
$GNGGA,020026.00,3313.85686072,N,11838.00940307,W,2,10,1.0,6.029,M,-37.623,M,7.0,0135*60
$PYRTM,2024,122.083634199456,13.193281609606
$GNHDT,291.669,T*28
$PYRTM,2024,122.083639938414,13.193287348553
$GNGGA,020026.50,3313.85728087,N,11838.01057671,W,2,10,1.0,6.169,M,-37.623,M,7.4,0135*61
$PYRTM,2024,122.083639938414,13.193287348553
$GNHDT,291.910,T*29
$PYRTM,2024,122.083645778322,13.193293188472
$GNGGA,020027.00,3313.85770078,N,11838.01176242,W,2,10,1.0,6.253,M,-37.623,M,7.0,0135*60
$PYRTM,2024,122.083645778322,13.193293188472
$GNHDT,291.944,T*28
$PYRTM,2024,122.083651515162,13.193298925312
$GNGGA,020027.50,3313.85812028,N,11838.01298427,W,2,10,1.0,6.240,M,-37.623,M,7.4,0135*6B
$PYRTM,2024,122.083651515162,13.193298925312
$GNHDT,291.920,T*2A
$PYRTM,2024,122.083657350139,13.193304760278
$GNGGA,020028.00,3313.85853394,N,11838.01422408,W,2,10,1.0,6.111,M,-37.623,M,7.0,0135*69
$PYRTM,2024,122.083657350139,13.193304760278
$GNHDT,291.803,T*2A
$PYRTM,2024,122.083663092211,13.193310502350
$GNGGA,020028.50,3313.85893698,N,11838.01547831,W,2,10,1.0,5.898,M,-37.623,M,7.4,0135*62
$PYRTM,2024,122.083663092211,13.193310502350
$GNHDT,291.940,T*2C
$PYRTM,2024,122.083668925799,13.193316335937
$GNGGA,020029.00,3313.85933125,N,11838.01674319,W,2,10,1.0,5.651,M,-37.623,M,4.0,0135*62
$PYRTM,2024,122.083668925799,13.193316335937
$GNHDT,292.048,T*2E
$PYRTM,2024,122.083674654479,13.193322064618
$GNGGA,020029.50,3313.85972713,N,11838.01801834,W,2,10,1.0,5.437,M,-37.623,M,4.4,0135*6F
$PYRTM,2024,122.083674654479,13.193322064618
$GNHDT,292.037,T*26
$PYRTM,2024,122.083680495949,13.193327906088
$GNGGA,020030.00,3313.86013159,N,11838.01928402,W,2,10,1.0,5.286,M,-37.623,M,5.0,0135*6D
$PYRTM,2024,122.083680495949,13.193327906088
$GNHDT,291.967,T*29
$PYRTM,2024,122.083686233669,13.193333643808
$GNGGA,020030.50,3313.86054770,N,11838.02052946,W,2,10,1.0,5.278,M,-37.623,M,5.4,0135*69
$PYRTM,2024,122.083686233669,13.193333643808
$GNHDT,292.168,T*2D
$PYRTM,2024,122.083692073206,13.193339483345
$GNGGA,020031.00,3313.86096779,N,11838.02174992,W,2,10,1.0,5.423,M,-37.623,M,6.0,0135*69
$PYRTM,2024,122.083692073206,13.193339483345
$GNHDT,292.204,T*24
$PYRTM,2024,122.083697808368,13.193345218507
$GNGGA,020031.50,3313.86139364,N,11838.02295751,W,2,10,1.0,5.656,M,-37.623,M,6.4,0135*69
$PYRTM,2024,122.083697808368,13.193345218507
$GNHDT,292.163,T*26
$PYRTM,2024,122.083703650417,13.193351060556
$GNGGA,020032.00,3313.86182792,N,11838.02415490,W,2,10,1.0,5.918,M,-37.623,M,7.0,0135*62
$PYRTM,2024,122.083703650417,13.193351060556
$GNHDT,292.213,T*22
$PYRTM,2024,122.083709383183,13.193356793322
$GNGGA,020032.50,3313.86227551,N,11838.02537841,W,2,10,1.0,6.095,M,-37.623,M,7.4,0135*6C
$PYRTM,2024,122.083709383183,13.193356793322
$GNHDT,292.172,T*26
$PYRTM,2024,122.083715217025,13.193362627176
$GNGGA,020033.00,3313.86272895,N,11838.02663988,W,2,10,1.0,6.136,M,-37.623,M,7.0,0135*67
$PYRTM,2024,122.083715217025,13.193362627176
$GNHDT,292.269,T*2F
$PYRTM,2024,122.083720956632,13.193368366771
$GNGGA,020033.50,3313.86317688,N,11838.02793629,W,2,10,1.0,6.028,M,-37.623,M,7.4,0135*62
$PYRTM,2024,122.083720956632,13.193368366771
$GNHDT,292.271,T*26
$PYRTM,2024,122.083726795174,13.193374205312
$GNGGA,020034.00,3313.86360617,N,11838.02923405,W,2,10,1.0,5.855,M,-37.623,M,7.0,0135*6A
$PYRTM,2024,122.083726795174,13.193374205312
$GNHDT,292.064,T*20
$PYRTM,2024,122.083732527813,13.193379937951
$GNGGA,020034.50,3313.86400973,N,11838.03049530,W,2,10,1.0,5.728,M,-37.623,M,7.4,0135*61
$PYRTM,2024,122.083732527813,13.193379937951
$GNHDT,292.193,T*29
$PYRTM,2024,122.083738373090,13.193385783229
$GNGGA,020035.00,3313.86438552,N,11838.03170936,W,2,10,1.0,5.743,M,-37.623,M,4.0,0135*6A
$PYRTM,2024,122.083738373090,13.193385783229
$GNHDT,292.219,T*28
$PYRTM,2024,122.083744105301,13.193391515440
$GNGGA,020035.50,3313.86476635,N,11838.03290567,W,2,10,1.0,5.842,M,-37.623,M,4.4,0135*68
$PYRTM,2024,122.083744105301,13.193391515440
$GNHDT,292.115,T*27
$PYRTM,2024,122.083749940394,13.193397350532
$GNGGA,020036.00,3313.86517769,N,11838.03412805,W,2,10,1.0,5.893,M,-37.623,M,5.0,0135*6C
$PYRTM,2024,122.083749940394,13.193397350532
$GNHDT,292.223,T*21
$PYRTM,2024,122.083755683588,13.193403093727
$GNGGA,020036.50,3313.86563559,N,11838.03541337,W,2,10,1.0,5.781,M,-37.623,M,5.4,0135*6E
$PYRTM,2024,122.083755683588,13.193403093727
$GNHDT,292.283,T*2B
$PYRTM,2024,122.083761518819,13.193408928958
$GNGGA,020037.00,3313.86612783,N,11838.03674213,W,2,10,1.0,5.509,M,-37.623,M,6.0,0135*6D
$PYRTM,2024,122.083761518819,13.193408928958
$GNHDT,292.314,T*24
$PYRTM,2024,122.083767256933,13.193414667072
$GNGGA,020037.50,3313.86661590,N,11838.03807216,W,2,10,1.0,5.264,M,-37.623,M,6.4,0135*6B
$PYRTM,2024,122.083767256933,13.193414667072
$GNHDT,292.001,T*23
$PYRTM,2024,122.083773089259,13.193420499398
$GNGGA,020038.00,3313.86706670,N,11838.03935025,W,2,10,1.0,5.197,M,-37.623,M,7.0,0135*64
$PYRTM,2024,122.083773089259,13.193420499398
$GNHDT,292.008,T*2A
$PYRTM,2024,122.083778823264,13.193426233403
$GNGGA,020038.50,3313.86747105,N,11838.04054764,W,2,10,1.0,5.405,M,-37.623,M,7.4,0135*60
$PYRTM,2024,122.083778823264,13.193426233403
$GNHDT,292.292,T*2B
$PYRTM,2024,122.083784666690,13.193432076829
$GNGGA,020039.00,3313.86784498,N,11838.04168699,W,2,10,1.0,5.827,M,-37.623,M,7.0,0135*6F
$PYRTM,2024,122.083784666690,13.193432076829
$GNHDT,292.287,T*2F
$PYRTM,2024,122.083790396447,13.193437806586
$GNGGA,020039.50,3313.86821427,N,11838.04282835,W,2,10,1.0,6.334,M,-37.623,M,7.4,0135*6F
$PYRTM,2024,122.083790396447,13.193437806586
$GNHDT,292.394,T*2C
$PYRTM,2024,122.083796238102,13.193443648241
$GNGGA,020040.00,3313.86861031,N,11838.04404357,W,2,10,1.0,6.634,M,-37.623,M,7.0,0135*65
$PYRTM,2024,122.083796238102,13.193443648241
$GNHDT,292.134,T*24
$PYRTM,2024,122.083801977396,13.193449387535
$GNGGA,020040.50,3313.86905653,N,11838.04536291,W,2,10,1.0,6.539,M,-37.623,M,7.4,0135*60
$PYRTM,2024,122.083801977396,13.193449387535
$GNHDT,292.057,T*20
$PYRTM,2024,122.083807817905,13.193455228044
$GNGGA,020041.00,3313.86952047,N,11838.04672457,W,2,10,1.0,6.086,M,-37.623,M,4.0,0135*6C
$PYRTM,2024,122.083807817905,13.193455228044
$GNHDT,292.159,T*2F
$PYRTM,2024,122.083813551921,13.193460962060
$GNGGA,020041.50,3313.86997262,N,11838.04807900,W,2,10,1.0,5.503,M,-37.623,M,4.4,0135*69
$PYRTM,2024,122.083813551921,13.193460962060
$GNHDT,291.781,T*2F
$PYRTM,2024,122.083819386840,13.193466796979
$GNGGA,020042.00,3313.87039864,N,11838.04937301,W,2,10,1.0,5.088,M,-37.623,M,5.0,0135*65
$PYRTM,2024,122.083819386840,13.193466796979
$GNHDT,291.835,T*2F
$PYRTM,2024,122.083825120926,13.193472531065
$GNGGA,020042.50,3313.87080037,N,11838.05052273,W,2,10,1.0,5.125,M,-37.623,M,5.4,0135*61
$PYRTM,2024,122.083825120926,13.193472531065
$GNHDT,291.825,T*2E
$PYRTM,2024,122.083830964687,13.193478374826
$GNGGA,020043.00,3313.87118242,N,11838.05156586,W,2,10,1.0,5.548,M,-37.623,M,6.0,0135*65
$PYRTM,2024,122.083830964687,13.193478374826
$GNHDT,292.027,T*27
$PYRTM,2024,122.083836703264,13.193484113403
$GNGGA,020043.50,3313.87156728,N,11838.05258766,W,2,10,1.0,6.184,M,-37.623,M,6.4,0135*61
$PYRTM,2024,122.083836703264,13.193484113403
$GNHDT,292.158,T*2E
$PYRTM,2024,122.083842535995,13.193489946146
$GNGGA,020044.00,3313.87197489,N,11838.05366424,W,2,10,1.0,6.766,M,-37.623,M,7.0,0135*60
$PYRTM,2024,122.083842535995,13.193489946146
$GNHDT,292.137,T*27
$PYRTM,2024,122.083848275069,13.193495685208
$GNGGA,020044.50,3313.87243130,N,11838.05487678,W,2,10,1.0,6.924,M,-37.623,M,7.4,0135*67
$PYRTM,2024,122.083848275069,13.193495685208
$GNHDT,292.043,T*25
$PYRTM,2024,122.083854110509,13.193501520648
$GNGGA,020045.00,3313.87289717,N,11838.05619777,W,2,10,1.0,6.675,M,-37.623,M,7.0,0135*62
$PYRTM,2024,122.083854110509,13.193501520648
$GNHDT,291.826,T*2D
$PYRTM,2024,122.083859843947,13.193507254086
$GNGGA,020045.50,3313.87334395,N,11838.05751528,W,2,10,1.0,6.202,M,-37.623,M,7.4,0135*6B
$PYRTM,2024,122.083859843947,13.193507254086
$GNHDT,291.957,T*2A
$PYRTM,2024,122.083865681991,13.193513092130
$GNGGA,020046.00,3313.87376115,N,11838.05877253,W,2,10,1.0,5.697,M,-37.623,M,7.0,0135*6E
$PYRTM,2024,122.083865681991,13.193513092130
$GNHDT,292.186,T*2D
$PYRTM,2024,122.083871416806,13.193518826944
$GNGGA,020046.50,3313.87414862,N,11838.05996738,W,2,10,1.0,5.385,M,-37.623,M,7.4,0135*65
$PYRTM,2024,122.083871416806,13.193518826944
$GNHDT,292.257,T*22
$PYRTM,2024,122.083877258137,13.193524668275
$GNGGA,020047.00,3313.87451299,N,11838.06112034,W,2,10,1.0,5.309,M,-37.623,M,4.0,0135*61
$PYRTM,2024,122.083877258137,13.193524668275
$GNHDT,292.202,T*22
$PYRTM,2024,122.083882997419,13.193530407558
$GNGGA,020047.50,3313.87487741,N,11838.06229462,W,2,10,1.0,5.365,M,-37.623,M,4.4,0135*6D
$PYRTM,2024,122.083882997419,13.193530407558
$GNHDT,291.940,T*2C
$PYRTM,2024,122.083888828241,13.193536238380
$GNGGA,020048.00,3313.87525394,N,11838.06353116,W,2,10,1.0,5.470,M,-37.623,M,5.0,0135*6E
$PYRTM,2024,122.083888828241,13.193536238380
$GNHDT,291.777,T*26
$PYRTM,2024,122.083894564711,13.193541974850
$GNGGA,020048.50,3313.87565497,N,11838.06481133,W,2,10,1.0,5.540,M,-37.623,M,5.4,0135*62
$PYRTM,2024,122.083894564711,13.193541974850
$GNHDT,291.654,T*26
$PYRTM,2024,122.083900401933,13.193547812072
$GNGGA,020049.00,3313.87607117,N,11838.06608252,W,2,10,1.0,5.614,M,-37.623,M,6.0,0135*6E
$PYRTM,2024,122.083900401933,13.193547812072
$GNHDT,291.706,T*20
$PYRTM,2024,122.083906142211,13.193553552350
$GNGGA,020049.50,3313.87649353,N,11838.06730990,W,2,10,1.0,5.756,M,-37.623,M,6.4,0135*6F
$PYRTM,2024,122.083906142211,13.193553552350
$GNHDT,291.862,T*2D
$PYRTM,2024,122.083911979514,13.193559389653
$GNGGA,020050.00,3313.87691777,N,11838.06849199,W,2,10,1.0,5.968,M,-37.623,M,7.0,0135*63
$PYRTM,2024,122.083911979514,13.193559389653
$GNHDT,291.907,T*2F
$PYRTM,2024,122.083917721088,13.193565131227
$GNGGA,020050.50,3313.87734320,N,11838.06966763,W,2,10,1.0,6.134,M,-37.623,M,7.4,0135*67
$PYRTM,2024,122.083917721088,13.193565131227
$GNHDT,291.909,T*21
$PYRTM,2024,122.083923552095,13.193570962245
$GNGGA,020051.00,3313.87777372,N,11838.07086403,W,2,10,1.0,6.228,M,-37.623,M,7.0,0135*6A
$PYRTM,2024,122.083923552095,13.193570962245
$GNHDT,291.853,T*2F
$PYRTM,2024,122.083929292384,13.193576702523
$GNGGA,020051.50,3313.87821096,N,11838.07210636,W,2,10,1.0,6.197,M,-37.623,M,7.4,0135*60
$PYRTM,2024,122.083929292384,13.193576702523
$GNHDT,291.964,T*2A
$PYRTM,2024,122.083935130613,13.193582540752
$GNGGA,020052.00,3313.87863947,N,11838.07335392,W,2,10,1.0,6.044,M,-37.623,M,7.0,0135*63
$PYRTM,2024,122.083935130613,13.193582540752
$GNHDT,292.026,T*26
$PYRTM,2024,122.083940862905,13.193588273044
$GNGGA,020052.50,3313.87904830,N,11838.07457360,W,2,10,1.0,5.901,M,-37.623,M,7.4,0135*66
$PYRTM,2024,122.083940862905,13.193588273044
$GNHDT,292.179,T*2D
$PYRTM,2024,122.083946702639,13.193594112778
$GNGGA,020053.00,3313.87942886,N,11838.07575596,W,2,10,1.0,5.832,M,-37.623,M,4.0,0135*65
$PYRTM,2024,122.083946702639,13.193594112778
$GNHDT,292.267,T*21
$PYRTM,2024,122.083952437477,13.193599847616
$GNGGA,020053.50,3313.87978297,N,11838.07692946,W,2,10,1.0,5.848,M,-37.623,M,4.4,0135*61
$PYRTM,2024,122.083952437477,13.193599847616
$GNHDT,292.025,T*25
$PYRTM,2024,122.083958275694,13.193605685833
$GNGGA,020054.00,3313.88013225,N,11838.07810833,W,2,10,1.0,5.922,M,-37.623,M,5.0,0135*6E
$PYRTM,2024,122.083958275694,13.193605685833
$GNHDT,291.842,T*2F
$PYRTM,2024,122.083964009016,13.193611419155
$GNGGA,020054.50,3313.88050831,N,11838.07931060,W,2,10,1.0,5.978,M,-37.623,M,5.4,0135*64
$PYRTM,2024,122.083964009016,13.193611419155
$GNHDT,291.554,T*25
$PYRTM,2024,122.083969845961,13.193617256100
$GNGGA,020055.00,3313.88093407,N,11838.08053314,W,2,10,1.0,5.966,M,-37.623,M,6.0,0135*6C
$PYRTM,2024,122.083969845961,13.193617256100
$GNHDT,291.501,T*25
$PYRTM,2024,122.083975590984,13.193623001123
$GNGGA,020055.50,3313.88140823,N,11838.08176685,W,2,10,1.0,5.864,M,-37.623,M,6.4,0135*60
$PYRTM,2024,122.083975590984,13.193623001123
$GNHDT,291.502,T*26
$PYRTM,2024,122.083981425602,13.193628835741
$GNGGA,020056.00,3313.88191564,N,11838.08298016,W,2,10,1.0,5.732,M,-37.623,M,7.0,0135*62
$PYRTM,2024,122.083981425602,13.193628835741
$GNHDT,291.509,T*2D
$PYRTM,2024,122.083987164306,13.193634574444
$GNGGA,020056.50,3313.88241602,N,11838.08417804,W,2,10,1.0,5.659,M,-37.623,M,7.4,0135*68
$PYRTM,2024,122.083987164306,13.193634574444
$GNHDT,291.675,T*25
$PYRTM,2024,122.083992993194,13.193640403333
$GNGGA,020057.00,3313.88287220,N,11838.08537483,W,2,10,1.0,5.681,M,-37.624,M,7.0,0135*64
$PYRTM,2024,122.083992993194,13.193640403333
$GNHDT,291.658,T*2A
$PYRTM,2024,122.083998731111,13.193646141250
$GNGGA,020057.50,3313.88327460,N,11838.08657528,W,2,10,1.0,5.810,M,-37.624,M,7.4,0135*6F
$PYRTM,2024,122.083998731111,13.193646141250
$GNHDT,291.570,T*23
$PYRTM,2024,122.084004570938,13.193651981088
$GNGGA,020058.00,3313.88362402,N,11838.08778284,W,2,10,1.0,6.005,M,-37.624,M,7.0,0135*66
$PYRTM,2024,122.084004570938,13.193651981088
$GNHDT,291.559,T*28
$PYRTM,2024,122.084010306146,13.193657716285
$GNGGA,020058.50,3313.88394240,N,11838.08901120,W,2,10,1.0,6.194,M,-37.624,M,7.4,0135*6A
$PYRTM,2024,122.084010306146,13.193657716285
$GNHDT,291.523,T*25
$PYRTM,2024,122.084016145475,13.193663555613
$GNGGA,020059.00,3313.88425197,N,11838.09028013,W,2,10,1.0,6.275,M,-37.624,M,4.0,0135*63
$PYRTM,2024,122.084016145475,13.193663555613
$GNHDT,291.526,T*20
$PYRTM,2024,122.084021881250,13.193669291389
$GNGGA,020059.50,3313.88460052,N,11838.09158779,W,2,10,1.0,6.191,M,-37.624,M,4.4,0135*6F
$PYRTM,2024,122.084021881250,13.193669291389
$GNHDT,291.407,T*22
$PYRTM,2024,122.084027721227,13.193675131366
$GNGGA,020100.00,3313.88501281,N,11838.09290755,W,2,10,1.0,5.876,M,-37.624,M,5.0,0135*62
$PYRTM,2024,122.084027721227,13.193675131366
$GNHDT,291.362,T*26
$PYRTM,2024,122.084033461007,13.193680871146
$GNGGA,020100.50,3313.88548945,N,11838.09421627,W,2,10,1.0,5.482,M,-37.624,M,5.4,0135*62
$PYRTM,2024,122.084033461007,13.193680871146
$GNHDT,291.402,T*27
$PYRTM,2024,122.084039297222,13.193686707361
$GNGGA,020101.00,3313.88598353,N,11838.09547495,W,2,10,1.0,5.190,M,-37.624,M,6.0,0135*6D
$PYRTM,2024,122.084039297222,13.193686707361
$GNHDT,291.346,T*20
$PYRTM,2024,122.084045025949,13.193692436088
$GNGGA,020101.50,3313.88645076,N,11838.09666418,W,2,10,1.0,5.159,M,-37.624,M,6.4,0135*6B
$PYRTM,2024,122.084045025949,13.193692436088
$GNHDT,291.409,T*2C
$PYRTM,2024,122.084050865787,13.193698275926
$GNGGA,020102.00,3313.88688247,N,11838.09780457,W,2,10,1.0,5.395,M,-37.624,M,7.0,0135*69
$PYRTM,2024,122.084050865787,13.193698275926
$GNHDT,291.546,T*26
$PYRTM,2024,122.084056604352,13.193704014491
$GNGGA,020102.50,3313.88727138,N,11838.09894359,W,2,10,1.0,5.794,M,-37.624,M,7.4,0135*61
$PYRTM,2024,122.084056604352,13.193704014491
$GNHDT,291.661,T*20
$PYRTM,2024,122.084062444340,13.193709854479
$GNGGA,020103.00,3313.88762212,N,11838.10015487,W,2,10,1.0,6.145,M,-37.624,M,7.0,0135*6F
$PYRTM,2024,122.084062444340,13.193709854479
$GNHDT,291.593,T*2E
$PYRTM,2024,122.084068192060,13.193715602199
$GNGGA,020103.50,3313.88797395,N,11838.10145738,W,2,10,1.0,6.323,M,-37.624,M,7.4,0135*6B
$PYRTM,2024,122.084068192060,13.193715602199
$GNHDT,291.655,T*27
$PYRTM,2024,122.084074017963,13.193721428102
$GNGGA,020104.00,3313.88834427,N,11838.10283488,W,2,10,1.0,6.214,M,-37.624,M,7.0,0135*61
$PYRTM,2024,122.084074017963,13.193721428102
$GNHDT,291.774,T*25
$PYRTM,2024,122.084079752199,13.193727162350
$GNGGA,020104.50,3313.88873772,N,11838.10418640,W,2,10,1.0,5.962,M,-37.624,M,7.4,0135*6B
$PYRTM,2024,122.084079752199,13.193727162350
$GNHDT,291.460,T*23
$PYRTM,2024,122.084085590949,13.193733001100
$GNGGA,020105.00,3313.88915138,N,11838.10545561,W,2,10,1.0,5.723,M,-37.624,M,4.0,0135*63
$PYRTM,2024,122.084085590949,13.193733001100
$GNHDT,291.503,T*27
$PYRTM,2024,122.084091324317,13.193738734456
$GNGGA,020105.50,3313.88957353,N,11838.10662067,W,2,10,1.0,5.671,M,-37.624,M,4.4,0135*68
$PYRTM,2024,122.084091324317,13.193738734456
$GNHDT,291.609,T*2E
$PYRTM,2024,122.084097166644,13.193744576782
$GNGGA,020106.00,3313.89000128,N,11838.10772364,W,2,10,1.0,5.817,M,-37.624,M,5.0,0135*61
$PYRTM,2024,122.084097166644,13.193744576782
$GNHDT,291.631,T*25
$PYRTM,2024,122.084102897280,13.193750307419
$GNGGA,020106.50,3313.89043589,N,11838.10884055,W,2,10,1.0,6.037,M,-37.624,M,5.4,0135*66
$PYRTM,2024,122.084102897280,13.193750307419
$GNHDT,291.567,T*25
$PYRTM,2024,122.084108736690,13.193756146829
$GNGGA,020107.00,3313.89087123,N,11838.11001423,W,2,10,1.0,6.200,M,-37.624,M,6.0,0135*6E
$PYRTM,2024,122.084108736690,13.193756146829
$GNHDT,291.500,T*24
$PYRTM,2024,122.084114474850,13.193761884988
$GNGGA,020107.50,3313.89129996,N,11838.11126455,W,2,10,1.0,6.197,M,-37.624,M,6.4,0135*64
$PYRTM,2024,122.084114474850,13.193761884988
$GNHDT,291.539,T*2E
$PYRTM,2024,122.084120312326,13.193767722477
$GNGGA,020108.00,3313.89171763,N,11838.11255902,W,2,10,1.0,6.030,M,-37.624,M,7.0,0135*66
$PYRTM,2024,122.084120312326,13.193767722477
$GNHDT,291.548,T*28
$PYRTM,2024,122.084126048530,13.193773458669
$GNGGA,020108.50,3313.89210981,N,11838.11386902,W,2,10,1.0,5.767,M,-37.624,M,7.4,0135*68
$PYRTM,2024,122.084126048530,13.193773458669
$GNHDT,291.568,T*2A
$PYRTM,2024,122.084131885741,13.193779295880
$GNGGA,020109.00,3313.89248904,N,11838.11517358,W,2,10,1.0,5.524,M,-37.624,M,7.0,0135*66
$PYRTM,2024,122.084131885741,13.193779295880
$GNHDT,291.593,T*2E
$PYRTM,2024,122.084137625197,13.193785035324
$GNGGA,020109.50,3313.89286399,N,11838.11644751,W,2,10,1.0,5.413,M,-37.624,M,7.4,0135*66
$PYRTM,2024,122.084137625197,13.193785035324
$GNHDT,291.524,T*22
$PYRTM,2024,122.084143465324,13.193790875463
$GNGGA,020110.00,3313.89324078,N,11838.11766908,W,2,10,1.0,5.480,M,-37.624,M,7.0,0135*63
$PYRTM,2024,122.084143465324,13.193790875463
$GNHDT,291.531,T*26
$PYRTM,2024,122.084149193380,13.193796603519
$GNGGA,020110.50,3313.89362656,N,11838.11884037,W,2,10,1.0,5.725,M,-37.624,M,7.4,0135*60
$PYRTM,2024,122.084149193380,13.193796603519
$GNHDT,291.539,T*2E
$PYRTM,2024,122.084155034931,13.193802445069
$GNGGA,020111.00,3313.89401012,N,11838.11998576,W,2,10,1.0,6.040,M,-37.624,M,4.0,0135*6C
$PYRTM,2024,122.084155034931,13.193802445069
$GNHDT,291.540,T*20
$PYRTM,2024,122.084160771597,13.193808181736
$GNGGA,020111.50,3313.89442716,N,11838.12115183,W,2,10,1.0,6.279,M,-37.624,M,4.4,0135*61
$PYRTM,2024,122.084160771597,13.193808181736
$GNHDT,291.568,T*2A
$PYRTM,2024,122.084166609919,13.193814020058
$GNGGA,020112.00,3313.89488996,N,11838.12237662,W,2,10,1.0,6.289,M,-37.624,M,5.0,0135*66
$PYRTM,2024,122.084166609919,13.193814020058
$GNHDT,291.488,T*25
$PYRTM,2024,122.084172346169,13.193819756308
$GNGGA,020112.50,3313.89537047,N,11838.12367686,W,2,10,1.0,6.031,M,-37.624,M,5.4,0135*68
$PYRTM,2024,122.084172346169,13.193819756308
$GNHDT,291.720,T*24
$PYRTM,2024,122.084178191759,13.193825601898
$GNGGA,020113.00,3313.89583752,N,11838.12501632,W,2,10,1.0,5.586,M,-37.624,M,6.0,0135*64
$PYRTM,2024,122.084178191759,13.193825601898
$GNHDT,291.425,T*22
$PYRTM,2024,122.084183924491,13.193831334630
$GNGGA,020113.50,3313.89626968,N,11838.12634193,W,2,10,1.0,5.215,M,-37.624,M,6.4,0135*6A
$PYRTM,2024,122.084183924491,13.193831334630
$GNHDT,291.687,T*28
$PYRTM,2024,122.084189760822,13.193837170961
$GNGGA,020114.00,3313.89664417,N,11838.12760652,W,2,10,1.0,5.078,M,-37.624,M,7.0,0135*6D
$PYRTM,2024,122.084189760822,13.193837170961
$GNHDT,291.631,T*25
$PYRTM,2024,122.084195500822,13.193842910972
$GNGGA,020114.50,3313.89696534,N,11838.12879726,W,2,10,1.0,5.235,M,-37.624,M,7.4,0135*6F
$PYRTM,2024,122.084195500822,13.193842910972
$GNHDT,291.439,T*2F
$PYRTM,2024,122.084201333391,13.193848743530
$GNGGA,020115.00,3313.89727102,N,11838.12993665,W,2,10,1.0,5.665,M,-37.624,M,7.0,0135*67
$PYRTM,2024,122.084201333391,13.193848743530
$GNHDT,291.466,T*25
$PYRTM,2024,122.084207073356,13.193854483495
$GNGGA,020115.50,3313.89760158,N,11838.13107586,W,2,10,1.0,6.128,M,-37.624,M,7.4,0135*6D
$PYRTM,2024,122.084207073356,13.193854483495
$GNHDT,291.524,T*22
$PYRTM,2024,122.084212907002,13.193860317141
$GNGGA,020116.00,3313.89801268,N,11838.13227275,W,2,10,1.0,6.413,M,-37.624,M,7.0,0135*60
$PYRTM,2024,122.084212907002,13.193860317141
$GNHDT,291.579,T*2A
$PYRTM,2024,122.084218638356,13.193866048495
$GNGGA,020116.50,3313.89849785,N,11838.13355616,W,2,10,1.0,6.346,M,-37.624,M,7.4,0135*69
$PYRTM,2024,122.084218638356,13.193866048495
$GNHDT,291.430,T*26
$PYRTM,2024,122.084224485683,13.193871895822
$GNGGA,020117.00,3313.89900752,N,11838.13488743,W,2,10,1.0,6.015,M,-37.624,M,4.0,0135*6F
$PYRTM,2024,122.084224485683,13.193871895822
$GNHDT,291.328,T*28
$PYRTM,2024,122.084230216227,13.193877626366
$GNGGA,020117.50,3313.89948331,N,11838.13619696,W,2,10,1.0,5.598,M,-37.624,M,4.4,0135*63
$PYRTM,2024,122.084230216227,13.193877626366
$GNHDT,291.256,T*20
$PYRTM,2024,122.084236052280,13.193883462419
$GNGGA,020118.00,3313.89991429,N,11838.13744269,W,2,10,1.0,5.325,M,-37.624,M,5.0,0135*6B
$PYRTM,2024,122.084236052280,13.193883462419
$GNHDT,291.338,T*29
$PYRTM,2024,122.084241786782,13.193889196933
$GNGGA,020118.50,3313.90027471,N,11838.13861197,W,2,10,1.0,5.342,M,-37.624,M,5.4,0135*60
$PYRTM,2024,122.084241786782,13.193889196933
$GNHDT,291.334,T*25
$PYRTM,2024,122.084247630949,13.193895041088
$GNGGA,020119.00,3313.90060127,N,11838.13974293,W,2,10,1.0,5.596,M,-37.624,M,6.0,0135*6B
$PYRTM,2024,122.084247630949,13.193895041088
$GNHDT,291.488,T*25
$PYRTM,2024,122.084253360382,13.193900770521
$GNGGA,020119.50,3313.90092278,N,11838.14088334,W,2,10,1.0,5.939,M,-37.624,M,6.4,0135*66
$PYRTM,2024,122.084253360382,13.193900770521
$GNHDT,291.463,T*20
$PYRTM,2024,122.084259204259,13.193906614398
$GNGGA,020120.00,3313.90126074,N,11838.14209365,W,2,10,1.0,6.170,M,-37.624,M,7.0,0135*65
$PYRTM,2024,122.084259204259,13.193906614398
$GNHDT,291.364,T*20
$PYRTM,2024,122.084264938160,13.193912348299
$GNGGA,020120.50,3313.90164707,N,11838.14338406,W,2,10,1.0,6.137,M,-37.624,M,7.4,0135*63
$PYRTM,2024,122.084264938160,13.193912348299
$GNHDT,291.684,T*2B
$PYRTM,2024,122.084270778530,13.193918188669
$GNGGA,020121.00,3313.90206006,N,11838.14472745,W,2,10,1.0,5.846,M,-37.624,M,7.0,0135*63
$PYRTM,2024,122.084270778530,13.193918188669
$GNHDT,291.349,T*2F
$PYRTM,2024,122.084276513681,13.193923923819
$GNGGA,020121.50,3313.90249017,N,11838.14606039,W,2,10,1.0,5.470,M,-37.624,M,7.4,0135*6D
$PYRTM,2024,122.084276513681,13.193923923819
$GNHDT,291.119,T*28
$PYRTM,2024,122.084282347176,13.193929757326
$GNGGA,020122.00,3313.90291956,N,11838.14733704,W,2,10,1.0,5.184,M,-37.624,M,7.0,0135*66
$PYRTM,2024,122.084282347176,13.193929757326
$GNHDT,291.134,T*27
$PYRTM,2024,122.084288085046,13.193935495185
$GNGGA,020122.50,3313.90334270,N,11838.14853479,W,2,10,1.0,5.147,M,-37.624,M,7.4,0135*69
$PYRTM,2024,122.084288085046,13.193935495185
$GNHDT,291.427,T*20
$PYRTM,2024,122.084293924734,13.193941334873
$GNGGA,020123.00,3313.90376045,N,11838.14967047,W,2,10,1.0,5.362,M,-37.624,M,4.0,0135*62
$PYRTM,2024,122.084293924734,13.193941334873
$GNHDT,291.562,T*20
$PYRTM,2024,122.084299661181,13.193947071319
$GNGGA,020123.50,3313.90417590,N,11838.15080320,W,2,10,1.0,5.694,M,-37.624,M,4.4,0135*61
$PYRTM,2024,122.084299661181,13.193947071319
$GNHDT,291.647,T*24
$PYRTM,2024,122.084305500440,13.193952910579
$GNGGA,020124.00,3313.90459182,N,11838.15198677,W,2,10,1.0,6.014,M,-37.624,M,5.0,0135*69
$PYRTM,2024,122.084305500440,13.193952910579
$GNHDT,291.644,T*27
$PYRTM,2024,122.084311235023,13.193958645162
$GNGGA,020124.50,3313.90500885,N,11838.15322576,W,2,10,1.0,6.220,M,-37.624,M,5.4,0135*6F
$PYRTM,2024,122.084311235023,13.193958645162
$GNHDT,291.639,T*2D
$PYRTM,2024,122.084317072917,13.193964483056
$GNGGA,020125.00,3313.90540375,N,11838.15450418,W,2,10,1.0,6.277,M,-37.624,M,6.0,0135*65
$PYRTM,2024,122.084317072917,13.193964483056
$GNHDT,291.284,T*2F
$PYRTM,2024,122.084322807361,13.193970217500
$GNGGA,020125.50,3313.90576964,N,11838.15577352,W,2,10,1.0,6.262,M,-37.624,M,6.4,0135*62
$PYRTM,2024,122.084322807361,13.193970217500
$GNHDT,291.685,T*2A
$PYRTM,2024,122.084328647766,13.193976057905
$GNGGA,020126.00,3313.90612515,N,11838.15700214,W,2,10,1.0,6.190,M,-37.624,M,7.0,0135*65
$PYRTM,2024,122.084328647766,13.193976057905
$GNHDT,291.849,T*24
$PYRTM,2024,122.084334387199,13.193981797338
$GNGGA,020126.50,3313.90651557,N,11838.15820379,W,2,10,1.0,6.076,M,-37.624,M,7.4,0135*6B
$PYRTM,2024,122.084334387199,13.193981797338
$GNHDT,291.676,T*26
$PYRTM,2024,122.084340217940,13.193987628079
$GNGGA,020127.00,3313.90695766,N,11838.15941744,W,2,10,1.0,5.876,M,-37.624,M,7.0,0135*64
$PYRTM,2024,122.084340217940,13.193987628079
$GNHDT,291.651,T*23
$PYRTM,2024,122.084345955093,13.193993365231
$GNGGA,020127.50,3313.90743548,N,11838.16066330,W,2,10,1.0,5.619,M,-37.624,M,7.4,0135*6E
$PYRTM,2024,122.084345955093,13.193993365231
$GNHDT,291.839,T*23
$PYRTM,2024,122.084351795891,13.193999206042
$GNGGA,020128.00,3313.90790577,N,11838.16193309,W,2,10,1.0,5.315,M,-37.624,M,7.0,0135*6A
$PYRTM,2024,122.084351795891,13.193999206042
$GNHDT,291.974,T*2B
$PYRTM,2024,122.084357531227,13.194004941366
$GNGGA,020128.50,3313.90834230,N,11838.16320807,W,2,10,1.0,5.094,M,-37.624,M,7.4,0135*6B
$PYRTM,2024,122.084357531227,13.194004941366
$GNHDT,291.780,T*2E
$PYRTM,2024,122.084363367917,13.194010778056
$GNGGA,020129.00,3313.90872590,N,11838.16447912,W,2,10,1.0,5.004,M,-37.624,M,4.0,0135*6D
$PYRTM,2024,122.084363367917,13.194010778056
$GNHDT,291.827,T*2C
$PYRTM,2024,122.084369102292,13.194016512431
$GNGGA,020129.50,3313.90908282,N,11838.16575398,W,2,10,1.0,5.097,M,-37.624,M,4.4,0135*66
$PYRTM,2024,122.084369102292,13.194016512431
$GNHDT,291.663,T*22
$PYRTM,2024,122.084374939444,13.194022349583
$GNGGA,020130.00,3313.90943851,N,11838.16702502,W,2,10,1.0,5.282,M,-37.624,M,5.0,0135*64
$PYRTM,2024,122.084374939444,13.194022349583
$GNHDT,291.556,T*27
$PYRTM,2024,122.084380676273,13.194028086412
$GNGGA,020130.50,3313.90981968,N,11838.16828211,W,2,10,1.0,5.568,M,-37.624,M,5.4,0135*61
$PYRTM,2024,122.084380676273,13.194028086412
$GNHDT,291.452,T*22
$PYRTM,2024,122.084386516759,13.194033926898
$GNGGA,020131.00,3313.91022841,N,11838.16950581,W,2,10,1.0,5.881,M,-37.624,M,6.0,0135*63
$PYRTM,2024,122.084386516759,13.194033926898
$GNHDT,291.669,T*28
$PYRTM,2024,122.084392249769,13.194039659919
$GNGGA,020131.50,3313.91066073,N,11838.17068738,W,2,10,1.0,6.184,M,-37.624,M,6.4,0135*67
$PYRTM,2024,122.084392249769,13.194039659919
$GNHDT,291.471,T*23
$PYRTM,2024,122.084398087384,13.194045497535
$GNGGA,020132.00,3313.91110780,N,11838.17185658,W,2,10,1.0,6.371,M,-37.624,M,7.0,0135*62
$PYRTM,2024,122.084398087384,13.194045497535
$GNHDT,291.615,T*23
$PYRTM,2024,122.084403826725,13.194051236863
$GNGGA,020132.50,3313.91156074,N,11838.17307176,W,2,10,1.0,6.353,M,-37.624,M,7.4,0135*6E
$PYRTM,2024,122.084403826725,13.194051236863
$GNHDT,291.679,T*29
$PYRTM,2024,122.084409670197,13.194057080347
$GNGGA,020133.00,3313.91200374,N,11838.17435623,W,2,10,1.0,6.077,M,-37.624,M,7.0,0135*69
$PYRTM,2024,122.084409670197,13.194057080347
$GNHDT,291.799,T*26
$PYRTM,2024,122.084415401956,13.194062812095
$GNGGA,020133.50,3313.91242629,N,11838.17568189,W,2,10,1.0,5.686,M,-37.624,M,7.4,0135*66
$PYRTM,2024,122.084415401956,13.194062812095
$GNHDT,291.751,T*22
$PYRTM,2024,122.084421238345,13.194068648484
$GNGGA,020134.00,3313.91281099,N,11838.17699433,W,2,10,1.0,5.341,M,-37.624,M,7.0,0135*65
$PYRTM,2024,122.084421238345,13.194068648484
$GNHDT,291.943,T*2F
$PYRTM,2024,122.084426980625,13.194074390764
$GNGGA,020134.50,3313.91317150,N,11838.17824017,W,2,10,1.0,5.218,M,-37.624,M,7.4,0135*69
$PYRTM,2024,122.084426980625,13.194074390764
$GNHDT,291.764,T*24
$PYRTM,2024,122.084432817326,13.194080227465
$GNGGA,020135.00,3313.91352319,N,11838.17940427,W,2,10,1.0,5.336,M,-37.624,M,4.0,0135*6D
$PYRTM,2024,122.084432817326,13.194080227465
$GNHDT,291.961,T*2F
$PYRTM,2024,122.084438561597,13.194085971736
$GNGGA,020135.50,3313.91390915,N,11838.18054481,W,2,10,1.0,5.623,M,-37.624,M,4.4,0135*6A
$PYRTM,2024,122.084438561597,13.194085971736
$GNHDT,292.098,T*23
$PYRTM,2024,122.084444387627,13.194091797766
$GNGGA,020136.00,3313.91434675,N,11838.18171572,W,2,10,1.0,5.885,M,-37.624,M,5.0,0135*60
$PYRTM,2024,122.084444387627,13.194091797766
$GNHDT,292.087,T*2D
$PYRTM,2024,122.084450124086,13.194097534225
$GNGGA,020136.50,3313.91482050,N,11838.18294281,W,2,10,1.0,5.970,M,-37.624,M,5.4,0135*65
$PYRTM,2024,122.084450124086,13.194097534225
$GNHDT,292.085,T*2F
$PYRTM,2024,122.084455966991,13.194103377130
$GNGGA,020137.00,3313.91531099,N,11838.18424552,W,2,10,1.0,5.849,M,-37.624,M,6.0,0135*65
$PYRTM,2024,122.084455966991,13.194103377130
$GNHDT,291.974,T*2B
$PYRTM,2024,122.084461699884,13.194109110023
$GNGGA,020137.50,3313.91576361,N,11838.18558437,W,2,10,1.0,5.610,M,-37.624,M,6.4,0135*69
$PYRTM,2024,122.084461699884,13.194109110023
$GNHDT,291.759,T*2A
$PYRTM,2024,122.084467534144,13.194114944294
$GNGGA,020138.00,3313.91616311,N,11838.18691610,W,2,10,1.0,5.357,M,-37.624,M,7.0,0135*63
$PYRTM,2024,122.084467534144,13.194114944294
$GNHDT,291.643,T*20
$PYRTM,2024,122.084473271400,13.194120681539
$GNGGA,020138.50,3313.91652772,N,11838.18819830,W,2,10,1.0,5.232,M,-37.624,M,7.4,0135*63
$PYRTM,2024,122.084473271400,13.194120681539
$GNHDT,291.763,T*23
$PYRTM,2024,122.084479110313,13.194126520451
$GNGGA,020139.00,3313.91688713,N,11838.18942847,W,2,10,1.0,5.284,M,-37.624,M,7.0,0135*61
$PYRTM,2024,122.084479110313,13.194126520451
$GNHDT,292.015,T*26
$PYRTM,2024,122.084484844618,13.194132254757
$GNGGA,020139.50,3313.91727011,N,11838.19063505,W,2,10,1.0,5.432,M,-37.624,M,7.4,0135*6A
$PYRTM,2024,122.084484844618,13.194132254757
$GNHDT,291.983,T*23
$PYRTM,2024,122.084490685023,13.194138095162
$GNGGA,020140.00,3313.91768886,N,11838.19183863,W,2,10,1.0,5.587,M,-37.624,M,7.0,0135*65
$PYRTM,2024,122.084490685023,13.194138095162
$GNHDT,291.913,T*2A
$PYRTM,2024,122.084496421354,13.194143831493
$GNGGA,020140.50,3313.91814615,N,11838.19305119,W,2,10,1.0,5.704,M,-37.624,M,7.4,0135*65
$PYRTM,2024,122.084496421354,13.194143831493
$GNHDT,291.968,T*26
$PYRTM,2024,122.084502255509,13.194149665648
$GNGGA,020141.00,3313.91861786,N,11838.19427442,W,2,10,1.0,5.734,M,-37.624,M,4.0,0135*60
$PYRTM,2024,122.084502255509,13.194149665648
$GNHDT,292.068,T*2C
$PYRTM,2024,122.084507991875,13.194155402014
$GNGGA,020141.50,3313.91907892,N,11838.19552392,W,2,10,1.0,5.686,M,-37.624,M,4.4,0135*6B
$PYRTM,2024,122.084507991875,13.194155402014
$GNHDT,292.565,T*24
$PYRTM,2024,122.084513830324,13.194161240463
$GNGGA,020142.00,3313.91951869,N,11838.19679874,W,2,10,1.0,5.574,M,-37.624,M,5.0,0135*68
$PYRTM,2024,122.084513830324,13.194161240463
$GNHDT,292.606,T*22
$PYRTM,2024,122.084519564433,13.194166974572
$GNGGA,020142.50,3313.91992739,N,11838.19809441,W,2,10,1.0,5.442,M,-37.624,M,5.4,0135*6B
$PYRTM,2024,122.084519564433,13.194166974572
$GNHDT,292.317,T*27
$PYRTM,2024,122.084525406736,13.194172816875
$GNGGA,020143.00,3313.92031823,N,11838.19939271,W,2,10,1.0,5.366,M,-37.624,M,6.0,0135*69
$PYRTM,2024,122.084525406736,13.194172816875
$GNHDT,292.048,T*2E
$PYRTM,2024,122.084531139028,13.194178549167
$GNGGA,020143.50,3313.92071739,N,11838.20068175,W,2,10,1.0,5.354,M,-37.624,M,6.4,0135*69
$PYRTM,2024,122.084531139028,13.194178549167
$GNHDT,292.208,T*28
$PYRTM,2024,122.084536978750,13.194184388889
$GNGGA,020144.00,3313.92113494,N,11838.20194505,W,2,10,1.0,5.440,M,-37.624,M,7.0,0135*6C
$PYRTM,2024,122.084536978750,13.194184388889
$GNHDT,292.106,T*25
$PYRTM,2024,122.084542715961,13.194190126100
$GNGGA,020144.50,3313.92156777,N,11838.20315281,W,2,10,1.0,5.676,M,-37.624,M,7.4,0135*65
$PYRTM,2024,122.084542715961,13.194190126100
$GNHDT,292.229,T*2B
$PYRTM,2024,122.084548553970,13.194195964109
$GNGGA,020145.00,3313.92200655,N,11838.20428194,W,2,10,1.0,6.057,M,-37.624,M,7.0,0135*6C
$PYRTM,2024,122.084548553970,13.194195964109
$GNHDT,292.206,T*26
$PYRTM,2024,122.084554290938,13.194201701088
$GNGGA,020145.50,3313.92244281,N,11838.20537839,W,2,10,1.0,6.465,M,-37.624,M,7.4,0135*64
$PYRTM,2024,122.084554290938,13.194201701088
$GNHDT,292.172,T*26
$PYRTM,2024,122.084560125394,13.194207535532
$GNGGA,020146.00,3313.92287832,N,11838.20650038,W,2,10,1.0,6.726,M,-37.624,M,7.0,0135*64
$PYRTM,2024,122.084560125394,13.194207535532
$GNHDT,292.179,T*2D
$PYRTM,2024,122.084565873032,13.194213283171
$GNGGA,020146.50,3313.92331417,N,11838.20774687,W,2,10,1.0,6.601,M,-37.624,M,7.4,0135*63
$PYRTM,2024,122.084565873032,13.194213283171
$GNHDT,292.248,T*2C
$PYRTM,2024,122.084571706273,13.194219116412
$GNGGA,020147.00,3313.92374442,N,11838.20910967,W,2,10,1.0,6.078,M,-37.624,M,4.0,0135*64
$PYRTM,2024,122.084571706273,13.194219116412
$GNHDT,292.365,T*22
$PYRTM,2024,122.084577449896,13.194224860035
$GNGGA,020147.50,3313.92415851,N,11838.21051183,W,2,10,1.0,5.361,M,-37.624,M,4.4,0135*6C
$PYRTM,2024,122.084577449896,13.194224860035
$GNHDT,292.219,T*28
$PYRTM,2024,122.084583275694,13.194230685833
$GNGGA,020148.00,3313.92455296,N,11838.21184686,W,2,10,1.0,4.785,M,-37.624,M,5.0,0135*62
$PYRTM,2024,122.084583275694,13.194230685833
$GNHDT,292.346,T*23
$PYRTM,2024,122.084589009491,13.194236419630
$GNGGA,020148.50,3313.92492935,N,11838.21303216,W,2,10,1.0,4.619,M,-37.624,M,5.4,0135*6E
$PYRTM,2024,122.084589009491,13.194236419630
$GNHDT,292.458,T*2B
$PYRTM,2024,122.084594852118,13.194242262257
$GNGGA,020149.00,3313.92531307,N,11838.21407468,W,2,10,1.0,4.857,M,-37.624,M,6.0,0135*66
$PYRTM,2024,122.084594852118,13.194242262257
$GNHDT,292.848,T*26
$PYRTM,2024,122.084600587153,13.194247997292
$GNGGA,020149.50,3313.92572079,N,11838.21510777,W,2,10,1.0,5.293,M,-37.624,M,6.4,0135*63
$PYRTM,2024,122.084600587153,13.194247997292
$GNHDT,293.152,T*25
$PYRTM,2024,122.084606426586,13.194253836725
$GNGGA,020150.00,3313.92617410,N,11838.21622639,W,2,10,1.0,5.705,M,-37.624,M,7.0,0135*63
$PYRTM,2024,122.084606426586,13.194253836725
$GNHDT,293.033,T*23
$PYRTM,2024,122.084612160521,13.194259570660
$GNGGA,020150.50,3313.92665569,N,11838.21750009,W,2,10,1.0,5.767,M,-37.624,M,7.4,0135*6D
$PYRTM,2024,122.084612160521,13.194259570660
$GNHDT,292.023,T*23
$PYRTM,2024,122.084617996146,13.194265406285
$GNGGA,020151.00,3313.92714010,N,11838.21888510,W,2,10,1.0,5.464,M,-37.624,M,7.0,0135*66
$PYRTM,2024,122.084617996146,13.194265406285
$GNHDT,291.995,T*24
$PYRTM,2024,122.084623737083,13.194271147222
$GNGGA,020151.50,3313.92758216,N,11838.22028575,W,2,10,1.0,5.044,M,-37.624,M,7.4,0135*6F
$PYRTM,2024,122.084623737083,13.194271147222
$GNHDT,291.986,T*26
$PYRTM,2024,122.084629573565,13.194276983715
$GNGGA,020152.00,3313.92799355,N,11838.22156853,W,2,10,1.0,4.699,M,-37.624,M,7.0,0135*60
$PYRTM,2024,122.084629573565,13.194276983715
$GNHDT,292.070,T*25
$PYRTM,2024,122.084635304410,13.194282714549
$GNGGA,020152.50,3313.92836256,N,11838.22271924,W,2,10,1.0,4.845,M,-37.624,M,7.4,0135*61
$PYRTM,2024,122.084635304410,13.194282714549
$GNHDT,292.223,T*21
$PYRTM,2024,122.084641152477,13.194288562616
$GNGGA,020153.00,3313.92871920,N,11838.22373081,W,2,10,1.0,5.337,M,-37.624,M,4.0,0135*61
$PYRTM,2024,122.084641152477,13.194288562616
$GNHDT,292.566,T*27
$PYRTM,2024,122.084646885428,13.194294295567
$GNGGA,020153.50,3313.92908912,N,11838.22468596,W,2,10,1.0,6.027,M,-37.624,M,4.4,0135*61
$PYRTM,2024,122.084646885428,13.194294295567
$GNHDT,292.660,T*22
$PYRTM,2024,122.084652721563,13.194300131701
$GNGGA,020154.00,3313.92949791,N,11838.22569209,W,2,10,1.0,6.591,M,-37.625,M,5.0,0135*6E
$PYRTM,2024,122.084652721563,13.194300131701
$GNHDT,292.487,T*29
$PYRTM,2024,122.084658459109,13.194305869248
$GNGGA,020154.50,3313.92994201,N,11838.22681760,W,2,10,1.0,6.798,M,-37.625,M,5.4,0135*67
$PYRTM,2024,122.084658459109,13.194305869248
$GNHDT,292.349,T*2C
$PYRTM,2024,122.084664299745,13.194311709884
$GNGGA,020155.00,3313.93040194,N,11838.22805400,W,2,10,1.0,6.522,M,-37.625,M,6.0,0135*6E
$PYRTM,2024,122.084664299745,13.194311709884
$GNHDT,292.211,T*20
$PYRTM,2024,122.084670031262,13.194317441400
$GNGGA,020155.50,3313.93084812,N,11838.22933605,W,2,10,1.0,5.963,M,-37.625,M,6.4,0135*69
$PYRTM,2024,122.084670031262,13.194317441400
$GNHDT,292.473,T*22
$PYRTM,2024,122.084675871806,13.194323281944
$GNGGA,020156.00,3313.93126537,N,11838.23061145,W,2,10,1.0,5.259,M,-37.625,M,7.0,0135*67
$PYRTM,2024,122.084675871806,13.194323281944
$GNHDT,292.470,T*21
$PYRTM,2024,122.084681607662,13.194329017801
$GNGGA,020156.50,3313.93164661,N,11838.23184025,W,2,10,1.0,4.788,M,-37.625,M,7.4,0135*65
$PYRTM,2024,122.084681607662,13.194329017801
$GNHDT,292.105,T*26
$PYRTM,2024,122.084687443009,13.194334853148
$GNGGA,020157.00,3313.93199920,N,11838.23300152,W,2,10,1.0,4.658,M,-37.625,M,7.0,0135*6E
$PYRTM,2024,122.084687443009,13.194334853148
$GNHDT,291.911,T*28
$PYRTM,2024,122.084693184861,13.194340595000
$GNGGA,020157.50,3313.93235350,N,11838.23407874,W,2,10,1.0,4.853,M,-37.625,M,7.4,0135*6F
$PYRTM,2024,122.084693184861,13.194340595000
$GNHDT,291.733,T*26
$PYRTM,2024,122.084699021771,13.194346431910
$GNGGA,020158.00,3313.93274277,N,11838.23513640,W,2,10,1.0,5.227,M,-37.625,M,7.0,0135*65
$PYRTM,2024,122.084699021771,13.194346431910
$GNHDT,291.772,T*23
$PYRTM,2024,122.084704759560,13.194352169699
$GNGGA,020158.50,3313.93316892,N,11838.23619297,W,2,10,1.0,5.651,M,-37.625,M,7.4,0135*62
$PYRTM,2024,122.084704759560,13.194352169699
$GNHDT,291.871,T*2F
$PYRTM,2024,122.084710594687,13.194358004838
$GNGGA,020159.00,3313.93362798,N,11838.23731067,W,2,10,1.0,5.919,M,-37.625,M,4.0,0135*62
$PYRTM,2024,122.084710594687,13.194358004838
$GNHDT,292.025,T*25
$PYRTM,2024,122.084716330012,13.194363740150
$GNGGA,020159.50,3313.93410852,N,11838.23850700,W,2,10,1.0,5.888,M,-37.625,M,4.4,0135*6F
$PYRTM,2024,122.084716330012,13.194363740150
$GNHDT,292.040,T*26
$PYRTM,2024,122.084722174109,13.194369584248
$GNGGA,020200.00,3313.93459382,N,11838.23977368,W,2,10,1.0,5.542,M,-37.625,M,5.0,0135*6E
$PYRTM,2024,122.084722174109,13.194369584248
$GNHDT,292.015,T*26
$PYRTM,2024,122.084727904722,13.194375314861
$GNGGA,020200.50,3313.93505035,N,11838.24106904,W,2,10,1.0,5.084,M,-37.625,M,5.4,0135*6E
$PYRTM,2024,122.084727904722,13.194375314861
$GNHDT,292.028,T*28
$PYRTM,2024,122.084733743542,13.194381153681
$GNGGA,020201.00,3313.93545662,N,11838.24235524,W,2,10,1.0,4.677,M,-37.625,M,6.0,0135*6B
$PYRTM,2024,122.084733743542,13.194381153681
$GNHDT,292.001,T*23
$PYRTM,2024,122.084739476435,13.194386886574
$GNGGA,020201.50,3313.93580437,N,11838.24358228,W,2,10,1.0,4.563,M,-37.625,M,6.4,0135*66
$PYRTM,2024,122.084739476435,13.194386886574
$GNHDT,291.781,T*2F
$PYRTM,2024,122.084745318102,13.194392728241
$GNGGA,020202.00,3313.93611768,N,11838.24473720,W,2,10,1.0,4.746,M,-37.625,M,7.0,0135*61
$PYRTM,2024,122.084745318102,13.194392728241
$GNHDT,291.666,T*27
$PYRTM,2024,122.084751052245,13.194398462384
$GNGGA,020202.50,3313.93642653,N,11838.24582543,W,2,10,1.0,5.159,M,-37.625,M,7.4,0135*6E
$PYRTM,2024,122.084751052245,13.194398462384
$GNHDT,291.630,T*24
$PYRTM,2024,122.084756893866,13.194404304005
$GNGGA,020203.00,3313.93674634,N,11838.24690228,W,2,10,1.0,5.634,M,-37.625,M,7.0,0135*6C
$PYRTM,2024,122.084756893866,13.194404304005
$GNHDT,291.268,T*2D
$PYRTM,2024,122.084762621748,13.194410031887
$GNGGA,020203.50,3313.93711698,N,11838.24800990,W,2,10,1.0,5.990,M,-37.625,M,7.4,0135*67
$PYRTM,2024,122.084762621748,13.194410031887
$GNHDT,291.325,T*25
$PYRTM,2024,122.084768461123,13.194415871273
$GNGGA,020204.00,3313.93755106,N,11838.24918427,W,2,10,1.0,6.069,M,-37.625,M,7.0,0135*64
$PYRTM,2024,122.084768461123,13.194415871273
$GNHDT,291.199,T*20
$PYRTM,2024,122.084774197454,13.194421607593
$GNGGA,020204.50,3313.93802057,N,11838.25040944,W,2,10,1.0,5.869,M,-37.625,M,7.4,0135*6B
$PYRTM,2024,122.084774197454,13.194421607593
$GNHDT,291.181,T*29
$PYRTM,2024,122.084780035613,13.194427445764
$GNGGA,020205.00,3313.93847181,N,11838.25163345,W,2,10,1.0,5.516,M,-37.625,M,4.0,0135*6D
$PYRTM,2024,122.084780035613,13.194427445764
$GNHDT,291.032,T*20
$PYRTM,2024,122.084785775046,13.194433185185
$GNGGA,020205.50,3313.93888895,N,11838.25282725,W,2,10,1.0,5.187,M,-37.625,M,4.4,0135*61
$PYRTM,2024,122.084785775046,13.194433185185
$GNHDT,290.869,T*27
$PYRTM,2024,122.084791613044,13.194439023183
$GNGGA,020206.00,3313.93924263,N,11838.25398923,W,2,10,1.0,5.018,M,-37.625,M,5.0,0135*63
$PYRTM,2024,122.084791613044,13.194439023183
$GNHDT,290.854,T*29
$PYRTM,2024,122.084797344664,13.194444754815
$GNGGA,020206.50,3313.93954949,N,11838.25514902,W,2,10,1.0,5.021,M,-37.625,M,5.4,0135*6D
$PYRTM,2024,122.084797344664,13.194444754815
$GNHDT,290.880,T*20
$PYRTM,2024,122.084803186215,13.194450596354
$GNGGA,020207.00,3313.93983871,N,11838.25633113,W,2,10,1.0,5.114,M,-37.625,M,6.0,0135*67
$PYRTM,2024,122.084803186215,13.194450596354
$GNHDT,290.763,T*22
$PYRTM,2024,122.084808916655,13.194456326794
$GNGGA,020207.50,3313.94014074,N,11838.25754615,W,2,10,1.0,5.197,M,-37.625,M,6.4,0135*61
$PYRTM,2024,122.084808916655,13.194456326794
$GNHDT,290.617,T*20
$PYRTM,2024,122.084814756400,13.194462166539
$GNGGA,020208.00,3313.94047494,N,11838.25878201,W,2,10,1.0,5.250,M,-37.625,M,7.0,0135*6A
$PYRTM,2024,122.084814756400,13.194462166539
$GNHDT,290.939,T*23
$PYRTM,2024,122.084820493299,13.194467903438
$GNGGA,020208.50,3313.94085381,N,11838.26003224,W,2,10,1.0,5.248,M,-37.625,M,7.4,0135*6F
$PYRTM,2024,122.084820493299,13.194467903438
$GNHDT,290.744,T*27
$PYRTM,2024,122.084826329954,13.194473740104
$GNGGA,020209.00,3313.94128950,N,11838.26126210,W,2,10,1.0,5.193,M,-37.625,M,7.0,0135*6B
$PYRTM,2024,122.084826329954,13.194473740104
$GNHDT,290.721,T*24
$PYRTM,2024,122.084832070255,13.194479480394
$GNGGA,020209.50,3313.94176428,N,11838.26246187,W,2,10,1.0,5.151,M,-37.625,M,7.4,0135*65
$PYRTM,2024,122.084832070255,13.194479480394
$GNHDT,290.558,T*28
$PYRTM,2024,122.084837910937,13.194485321076
$GNGGA,020210.00,3313.94225389,N,11838.26363912,W,2,10,1.0,5.162,M,-37.625,M,7.0,0135*67
$PYRTM,2024,122.084837910937,13.194485321076
$GNHDT,290.719,T*2F
$PYRTM,2024,122.084843647998,13.194491058137
$GNGGA,020210.50,3313.94272412,N,11838.26481742,W,2,10,1.0,5.225,M,-37.625,M,7.4,0135*61
$PYRTM,2024,122.084843647998,13.194491058137
$GNHDT,290.835,T*2E
$PYRTM,2024,122.084849481412,13.194496891551
$GNGGA,020211.00,3313.94315823,N,11838.26599449,W,2,10,1.0,5.348,M,-37.625,M,4.0,0135*66
$PYRTM,2024,122.084849481412,13.194496891551
$GNHDT,291.049,T*2C
$PYRTM,2024,122.084855219086,13.194502629225
$GNGGA,020211.50,3313.94354270,N,11838.26717517,W,2,10,1.0,5.509,M,-37.625,M,4.4,0135*63
$PYRTM,2024,122.084855219086,13.194502629225
$GNHDT,291.128,T*2A
$PYRTM,2024,122.084861052315,13.194508462454
$GNGGA,020212.00,3313.94388443,N,11838.26836886,W,2,10,1.0,5.653,M,-37.625,M,5.0,0135*62
$PYRTM,2024,122.084861052315,13.194508462454
$GNHDT,291.298,T*22
$PYRTM,2024,122.084866791065,13.194514201204
$GNGGA,020212.50,3313.94420775,N,11838.26958438,W,2,10,1.0,5.705,M,-37.625,M,5.4,0135*62
$PYRTM,2024,122.084866791065,13.194514201204
$GNHDT,291.138,T*2B
$PYRTM,2024,122.084872630694,13.194520040833
$GNGGA,020213.00,3313.94453900,N,11838.27083386,W,2,10,1.0,5.585,M,-37.625,M,6.0,0135*6F
$PYRTM,2024,122.084872630694,13.194520040833
$GNHDT,291.105,T*25
$PYRTM,2024,122.084878367650,13.194525777789
$GNGGA,020213.50,3313.94490887,N,11838.27210091,W,2,10,1.0,5.372,M,-37.625,M,6.4,0135*6C
$PYRTM,2024,122.084878367650,13.194525777789
$GNHDT,291.490,T*2C
$PYRTM,2024,122.084884200602,13.194531610741
$GNGGA,020214.00,3313.94532672,N,11838.27334316,W,2,10,1.0,5.103,M,-37.625,M,7.0,0135*69
$PYRTM,2024,122.084884200602,13.194531610741
$GNHDT,291.448,T*29
$PYRTM,2024,122.084889941042,13.194537351181
$GNGGA,020214.50,3313.94576835,N,11838.27453877,W,2,10,1.0,4.913,M,-37.625,M,7.4,0135*67
$PYRTM,2024,122.084889941042,13.194537351181
$GNHDT,291.156,T*23
$PYRTM,2024,122.084895778218,13.194543188356
$GNGGA,020215.00,3313.94620503,N,11838.27568767,W,2,10,1.0,4.885,M,-37.625,M,7.0,0135*66
$PYRTM,2024,122.084895778218,13.194543188356
$GNHDT,291.065,T*22
$PYRTM,2024,122.084901515208,13.194548925347
$GNGGA,020215.50,3313.94662993,N,11838.27682314,W,2,10,1.0,5.032,M,-37.625,M,7.4,0135*66
$PYRTM,2024,122.084901515208,13.194548925347
$GNHDT,291.078,T*2E
$PYRTM,2024,122.084907357396,13.194554767535
$GNGGA,020216.00,3313.94703257,N,11838.27796688,W,2,10,1.0,5.241,M,-37.625,M,7.0,0135*63
$PYRTM,2024,122.084907357396,13.194554767535
$GNHDT,291.031,T*23
$PYRTM,2024,122.084913085000,13.194560495139
$GNGGA,020216.50,3313.94741482,N,11838.27914428,W,2,10,1.0,5.434,M,-37.625,M,7.4,0135*62
$PYRTM,2024,122.084913085000,13.194560495139
$GNHDT,291.177,T*20
$PYRTM,2024,122.084918928206,13.194566338345
$GNGGA,020217.00,3313.94778122,N,11838.28036228,W,2,10,1.0,5.536,M,-37.625,M,4.0,0135*67
$PYRTM,2024,122.084918928206,13.194566338345
$GNHDT,291.271,T*25
$PYRTM,2024,122.084924665440,13.194572075579
$GNGGA,020217.50,3313.94813637,N,11838.28162001,W,2,10,1.0,5.513,M,-37.625,M,4.4,0135*69
$PYRTM,2024,122.084924665440,13.194572075579
$GNHDT,291.395,T*2E
$PYRTM,2024,122.084930502083,13.194577912222
$GNGGA,020218.00,3313.94848166,N,11838.28289772,W,2,10,1.0,5.355,M,-37.625,M,5.0,0135*6A
$PYRTM,2024,122.084930502083,13.194577912222
$GNHDT,291.295,T*2F
$PYRTM,2024,122.084936235266,13.194583645405
$GNGGA,020218.50,3313.94884091,N,11838.28416826,W,2,10,1.0,5.135,M,-37.625,M,5.4,0135*68
$PYRTM,2024,122.084936235266,13.194583645405
$GNHDT,291.482,T*2F
$PYRTM,2024,122.084942081343,13.194589491481
$GNGGA,020219.00,3313.94921821,N,11838.28540658,W,2,10,1.0,4.934,M,-37.625,M,6.0,0135*6B
$PYRTM,2024,122.084942081343,13.194589491481
$GNHDT,291.419,T*2D
$PYRTM,2024,122.084947812153,13.194595222303
$GNGGA,020219.50,3313.94961985,N,11838.28661220,W,2,10,1.0,4.826,M,-37.625,M,6.4,0135*68
$PYRTM,2024,122.084947812153,13.194595222303
$GNHDT,291.362,T*26
$PYRTM,2024,122.084953649167,13.194601059306
$GNGGA,020220.00,3313.95004859,N,11838.28779440,W,2,10,1.0,4.797,M,-37.625,M,7.0,0135*64
$PYRTM,2024,122.084953649167,13.194601059306
$GNHDT,291.505,T*21
$PYRTM,2024,122.084959381852,13.194606791991
$GNGGA,020220.50,3313.95049812,N,11838.28898421,W,2,10,1.0,4.845,M,-37.625,M,7.4,0135*64
$PYRTM,2024,122.084959381852,13.194606791991
$GNHDT,291.541,T*21
$PYRTM,2024,122.084965226921,13.194612637060
$GNGGA,020221.00,3313.95094859,N,11838.29021383,W,2,10,1.0,4.886,M,-37.625,M,7.0,0135*60
$PYRTM,2024,122.084965226921,13.194612637060
$GNHDT,291.494,T*28
$PYRTM,2024,122.084970954144,13.194618364282
$GNGGA,020221.50,3313.95138240,N,11838.29149406,W,2,10,1.0,4.887,M,-37.625,M,7.4,0135*60
$PYRTM,2024,122.084970954144,13.194618364282
$GNHDT,291.377,T*22
$PYRTM,2024,122.084976794282,13.194624204421
$GNGGA,020222.00,3313.95179317,N,11838.29279925,W,2,10,1.0,4.848,M,-37.625,M,7.0,0135*6B
$PYRTM,2024,122.084976794282,13.194624204421
$GNHDT,291.292,T*28
$PYRTM,2024,122.084982533449,13.194629943588
$GNGGA,020222.50,3313.95217382,N,11838.29411303,W,2,10,1.0,4.845,M,-37.625,M,7.4,0135*66
$PYRTM,2024,122.084982533449,13.194629943588
$GNHDT,291.397,T*2C
$PYRTM,2024,122.084988371053,13.194635781192
$GNGGA,020223.00,3313.95253401,N,11838.29540286,W,2,10,1.0,4.926,M,-37.625,M,4.0,0135*64
$PYRTM,2024,122.084988371053,13.194635781192
$GNHDT,291.250,T*26
$PYRTM,2024,122.084994103414,13.194641513553
$GNGGA,020223.50,3313.95289698,N,11838.29664965,W,2,10,1.0,5.095,M,-37.625,M,4.4,0135*63
$PYRTM,2024,122.084994103414,13.194641513553
$GNHDT,291.337,T*26
$PYRTM,2024,122.084999944144,13.194647354282
$GNGGA,020224.00,3313.95328752,N,11838.29786029,W,2,10,1.0,5.279,M,-37.625,M,5.0,0135*65
$PYRTM,2024,122.084999944144,13.194647354282
$GNHDT,291.333,T*22
$PYRTM,2024,122.085005679537,13.194653089676
$GNGGA,020224.50,3313.95371521,N,11838.29906387,W,2,10,1.0,5.420,M,-37.625,M,5.4,0135*65
$PYRTM,2024,122.085005679537,13.194653089676
$GNHDT,291.433,T*25
$PYRTM,2024,122.085011520938,13.194658931076
$GNGGA,020225.00,3313.95416944,N,11838.30027596,W,2,10,1.0,5.493,M,-37.625,M,6.0,0135*63
$PYRTM,2024,122.085011520938,13.194658931076
$GNHDT,291.547,T*27
$PYRTM,2024,122.085017253414,13.194664663553
$GNGGA,020225.50,3313.95462974,N,11838.30149230,W,2,10,1.0,5.462,M,-37.625,M,6.4,0135*6E
$PYRTM,2024,122.085017253414,13.194664663553
$GNHDT,291.500,T*24
$PYRTM,2024,122.085023092014,13.194670502153
$GNGGA,020226.00,3313.95507645,N,11838.30271225,W,2,10,1.0,5.360,M,-37.625,M,7.0,0135*6B
$PYRTM,2024,122.085023092014,13.194670502153
$GNHDT,291.383,T*29
$PYRTM,2024,122.085028831887,13.194676242025
$GNGGA,020226.50,3313.95548985,N,11838.30393294,W,2,10,1.0,5.291,M,-37.625,M,7.4,0135*6A
$PYRTM,2024,122.085028831887,13.194676242025
$GNHDT,291.599,T*24
$PYRTM,2024,122.085034669294,13.194682079433
$GNGGA,020227.00,3313.95585790,N,11838.30515836,W,2,10,1.0,5.272,M,-37.625,M,7.0,0135*66
$PYRTM,2024,122.085034669294,13.194682079433
$GNHDT,291.612,T*24
$PYRTM,2024,122.085040402037,13.194687812176
$GNGGA,020227.50,3313.95619725,N,11838.30639247,W,2,10,1.0,5.289,M,-37.625,M,7.4,0135*6A
$PYRTM,2024,122.085040402037,13.194687812176
$GNHDT,291.544,T*24
$PYRTM,2024,122.085046243993,13.194693654132
$GNGGA,020228.00,3313.95653650,N,11838.30765098,W,2,10,1.0,5.256,M,-37.625,M,7.0,0135*63
$PYRTM,2024,122.085046243993,13.194693654132
$GNHDT,291.366,T*22
$PYRTM,2024,122.085051980810,13.194699390949
$GNGGA,020228.50,3313.95691113,N,11838.30893658,W,2,10,1.0,5.139,M,-37.625,M,7.4,0135*6A
$PYRTM,2024,122.085051980810,13.194699390949
$GNHDT,291.464,T*27
$PYRTM,2024,122.085057815579,13.194705225718
$GNGGA,020229.00,3313.95733079,N,11838.31022619,W,2,10,1.0,4.926,M,-37.625,M,4.0,0135*6C
$PYRTM,2024,122.085057815579,13.194705225718
$GNHDT,291.709,T*2F
$PYRTM,2024,122.085063551042,13.194710961181
