$PYRTM,2024,125.666666834942,16.776314245093
$GNGGA,160000.00,3510.66447861,N,12207.84082063,W,2,14,0.8,7.521,M,-39.260,M,5.0,0131*69
$PYRTM,2024,125.666666834942,16.776314245093
$GNHDT,299.189,T*29
$PYRTM,2024,125.666672564097,16.776319974236
$GNGGA,160000.50,3510.66450484,N,12207.84107351,W,2,14,0.8,7.736,M,-39.260,M,5.4,0131*63
$PYRTM,2024,125.666672564097,16.776319974236
$GNHDT,299.287,T*24
$PYRTM,2024,125.666678401053,16.776325811192
$GNGGA,160001.00,3510.66452168,N,12207.84137297,W,2,14,0.8,7.883,M,-39.260,M,6.0,0131*6C
$PYRTM,2024,125.666678401053,16.776325811192
$GNHDT,299.168,T*26
$PYRTM,2024,125.666684134340,16.776331544468
$GNGGA,160001.50,3510.66452082,N,12207.84174062,W,2,14,0.8,7.919,M,-39.260,M,6.4,0131*65
$PYRTM,2024,125.666684134340,16.776331544468
$GNHDT,298.843,T*27
$PYRTM,2024,125.666689979965,16.776337390104
$GNGGA,160002.00,3510.66450126,N,12207.84215395,W,2,14,0.8,7.868,M,-39.260,M,7.0,0131*63
$PYRTM,2024,125.666689979965,16.776337390104
$GNHDT,298.136,T*2C
$PYRTM,2024,125.666695710498,16.776343120648
$GNGGA,160002.50,3510.66447598,N,12207.84257289,W,2,14,0.8,7.772,M,-39.260,M,7.4,0131*6B
$PYRTM,2024,125.666695710498,16.776343120648
$GNHDT,298.171,T*2F
$PYRTM,2024,125.666701551933,16.776348962072
$GNGGA,160003.00,3510.66445589,N,12207.84295507,W,2,14,0.8,7.632,M,-39.260,M,7.0,0131*63
$PYRTM,2024,125.666701551933,16.776348962072
$GNHDT,298.342,T*2D
$PYRTM,2024,125.666707284965,16.776354695116
$GNGGA,160003.50,3510.66447397,N,12207.84329334,W,2,14,0.8,7.496,M,-39.260,M,7.4,0131*65
$PYRTM,2024,125.666707284965,16.776354695116
$GNHDT,298.781,T*26
$PYRTM,2024,125.666713124780,16.776360534919
$GNGGA,160004.00,3510.66454778,N,12207.84358024,W,2,14,0.8,7.338,M,-39.260,M,7.0,0131*63
$PYRTM,2024,125.666713124780,16.776360534919
$GNHDT,299.237,T*2F
$PYRTM,2024,125.666718856377,16.776366266516
$GNGGA,160004.50,3510.66467246,N,12207.84383425,W,2,14,0.8,7.198,M,-39.260,M,7.4,0131*61
$PYRTM,2024,125.666718856377,16.776366266516
$GNHDT,299.477,T*2D
$PYRTM,2024,125.666724698137,16.776372108275
$GNGGA,160005.00,3510.66480897,N,12207.84408926,W,2,14,0.8,7.131,M,-39.260,M,4.0,0131*64
$PYRTM,2024,125.666724698137,16.776372108275
$GNHDT,299.577,T*2C
$PYRTM,2024,125.666730433565,16.776377843704
$GNGGA,160005.50,3510.66491711,N,12207.84438188,W,2,14,0.8,7.138,M,-39.260,M,4.4,0131*62
$PYRTM,2024,125.666730433565,16.776377843704
$GNHDT,299.717,T*28
$PYRTM,2024,125.666736275058,16.776383685197
$GNGGA,160006.00,3510.66496861,N,12207.84472609,W,2,14,0.8,7.218,M,-39.260,M,5.0,0131*6F
$PYRTM,2024,125.666736275058,16.776383685197
$GNHDT,299.479,T*23
$PYRTM,2024,125.666742003981,16.776389414120
$GNGGA,160006.50,3510.66497044,N,12207.84512706,W,2,14,0.8,7.314,M,-39.260,M,5.4,0131*64
$PYRTM,2024,125.666742003981,16.776389414120
$GNHDT,299.135,T*2E
$PYRTM,2024,125.666747852454,16.776395262593
$GNGGA,160007.00,3510.66494136,N,12207.84557623,W,2,14,0.8,7.348,M,-39.260,M,6.0,0131*6E
$PYRTM,2024,125.666747852454,16.776395262593
$GNHDT,299.080,T*21
$PYRTM,2024,125.666753584606,16.776400994745
$GNGGA,160007.50,3510.66491375,N,12207.84604014,W,2,14,0.8,7.304,M,-39.260,M,6.4,0131*60
$PYRTM,2024,125.666753584606,16.776400994745
$GNHDT,298.954,T*20
$PYRTM,2024,125.666759425174,16.776406835324
$GNGGA,160008.00,3510.66490775,N,12207.84649237,W,2,14,0.8,7.204,M,-39.260,M,7.0,0131*61
$PYRTM,2024,125.666759425174,16.776406835324
$GNHDT,298.852,T*27
$PYRTM,2024,125.666765155243,16.776412565382
$GNGGA,160008.50,3510.66493570,N,12207.84687715,W,2,14,0.8,7.100,M,-39.260,M,7.4,0131*64
$PYRTM,2024,125.666765155243,16.776412565382
$GNHDT,298.973,T*25
$PYRTM,2024,125.666770994988,16.776418405127
$GNGGA,160009.00,3510.66501190,N,12207.84717424,W,2,14,0.8,7.034,M,-39.260,M,7.0,0131*6B
$PYRTM,2024,125.666770994988,16.776418405127
$GNHDT,299.008,T*21
$PYRTM,2024,125.666776734595,16.776424144734
$GNGGA,160009.50,3510.66512873,N,12207.84741265,W,2,14,0.8,6.998,M,-39.260,M,7.4,0131*62
$PYRTM,2024,125.666776734595,16.776424144734
$GNHDT,299.545,T*2D
$PYRTM,2024,125.666782571817,16.776429981956
$GNGGA,160010.00,3510.66526117,N,12207.84763791,W,2,14,0.8,6.972,M,-39.260,M,7.0,0131*6D
$PYRTM,2024,125.666782571817,16.776429981956
$GNHDT,300.215,T*2E
$PYRTM,2024,125.666788302975,16.776435713113
$GNGGA,160010.50,3510.66535961,N,12207.84790780,W,2,14,0.8,6.959,M,-39.261,M,7.4,0131*63
$PYRTM,2024,125.666788302975,16.776435713113
$GNHDT,300.022,T*28
$PYRTM,2024,125.666794144387,16.776441554525
$GNGGA,160011.00,3510.66540166,N,12207.84824631,W,2,14,0.8,6.945,M,-39.261,M,4.0,0131*6B
$PYRTM,2024,125.666794144387,16.776441554525
$GNHDT,300.109,T*20
$PYRTM,2024,125.666799880637,16.776447290775
$GNGGA,160011.50,3510.66539427,N,12207.84864741,W,2,14,0.8,6.970,M,-39.261,M,4.4,0131*60
$PYRTM,2024,125.666799880637,16.776447290775
$GNHDT,300.202,T*28
$PYRTM,2024,125.666805723819,16.776453133958
$GNGGA,160012.00,3510.66536478,N,12207.84904682,W,2,14,0.8,7.051,M,-39.261,M,5.0,0131*64
$PYRTM,2024,125.666805723819,16.776453133958
$GNHDT,299.937,T*24
$PYRTM,2024,125.666811452060,16.776458862199
$GNGGA,160012.50,3510.66535000,N,12207.84939475,W,2,14,0.8,7.184,M,-39.261,M,5.4,0131*60
$PYRTM,2024,125.666811452060,16.776458862199
$GNHDT,300.279,T*24
$PYRTM,2024,125.666817297685,16.776464707824
$GNGGA,160013.00,3510.66534943,N,12207.84967859,W,2,14,0.8,7.375,M,-39.261,M,6.0,0131*69
$PYRTM,2024,125.666817297685,16.776464707824
$GNHDT,300.533,T*2D
$PYRTM,2024,125.666823028183,16.776470438322
$GNGGA,160013.50,3510.66535524,N,12207.84992407,W,2,14,0.8,7.583,M,-39.261,M,6.4,0131*66
$PYRTM,2024,125.666823028183,16.776470438322
$GNHDT,300.438,T*27
$PYRTM,2024,125.666828868750,16.776476278889
$GNGGA,160014.00,3510.66535861,N,12207.85016002,W,2,14,0.8,7.750,M,-39.261,M,7.0,0131*64
$PYRTM,2024,125.666828868750,16.776476278889
$GNHDT,300.618,T*27
$PYRTM,2024,125.666834599560,16.776482009699
$GNGGA,160014.50,3510.66537735,N,12207.85042456,W,2,14,0.8,7.785,M,-39.261,M,7.4,0131*65
$PYRTM,2024,125.666834599560,16.776482009699
$GNHDT,300.625,T*29
$PYRTM,2024,125.666840438958,16.776487849097
$GNGGA,160015.00,3510.66542156,N,12207.85073257,W,2,14,0.8,7.610,M,-39.261,M,7.0,0131*6C
$PYRTM,2024,125.666840438958,16.776487849097
$GNHDT,300.523,T*2C
$PYRTM,2024,125.666846176528,16.776493586667
$GNGGA,160015.50,3510.66548090,N,12207.85109917,W,2,14,0.8,7.267,M,-39.261,M,7.4,0131*6B
$PYRTM,2024,125.666846176528,16.776493586667
$GNHDT,300.208,T*22
$PYRTM,2024,125.666852018171,16.776499428310
$GNGGA,160016.00,3510.66552947,N,12207.85151937,W,2,14,0.8,6.867,M,-39.261,M,7.0,0131*65
$PYRTM,2024,125.666852018171,16.776499428310
$GNHDT,300.025,T*2F
$PYRTM,2024,125.666857745648,16.776505155787
$GNGGA,160016.50,3510.66555159,N,12207.85195739,W,2,14,0.8,6.551,M,-39.261,M,7.4,0131*64
$PYRTM,2024,125.666857745648,16.776505155787
$GNHDT,300.243,T*2D
$PYRTM,2024,125.666863592789,16.776511002928
$GNGGA,160017.00,3510.66554859,N,12207.85237954,W,2,14,0.8,6.452,M,-39.261,M,4.0,0131*63
$PYRTM,2024,125.666863592789,16.776511002928
$GNHDT,300.360,T*2D
$PYRTM,2024,125.666869331493,16.776516741632
$GNGGA,160017.50,3510.66555070,N,12207.85274644,W,2,14,0.8,6.582,M,-39.261,M,4.4,0131*65
$PYRTM,2024,125.666869331493,16.776516741632
$GNHDT,300.945,T*20
$PYRTM,2024,125.666875167442,16.776522577581
$GNGGA,160018.00,3510.66559471,N,12207.85304497,W,2,14,0.8,6.880,M,-39.261,M,5.0,0131*66
$PYRTM,2024,125.666875167442,16.776522577581
$GNHDT,301.377,T*2A
$PYRTM,2024,125.666880900787,16.776528310926
$GNGGA,160018.50,3510.66570965,N,12207.85329175,W,2,14,0.8,7.195,M,-39.261,M,5.4,0131*6E
$PYRTM,2024,125.666880900787,16.776528310926
$GNHDT,301.839,T*2B
$PYRTM,2024,125.666886738241,16.776534148380
$GNGGA,160019.00,3510.66589307,N,12207.85351999,W,2,14,0.8,7.446,M,-39.261,M,6.0,0131*6B
$PYRTM,2024,125.666886738241,16.776534148380
$GNHDT,301.956,T*23
$PYRTM,2024,125.666892467778,16.776539877917
$GNGGA,160019.50,3510.66608807,N,12207.85376432,W,2,14,0.8,7.626,M,-39.261,M,6.4,0131*66
$PYRTM,2024,125.666892467778,16.776539877917
$GNHDT,301.979,T*2E
$PYRTM,2024,125.666898310324,16.776545720463
$GNGGA,160020.00,3510.66622836,N,12207.85403167,W,2,14,0.8,7.788,M,-39.261,M,7.0,0131*63
$PYRTM,2024,125.666898310324,16.776545720463
$GNHDT,301.674,T*2C
$PYRTM,2024,125.666904040718,16.776551450856
$GNGGA,160020.50,3510.66626684,N,12207.85433026,W,2,14,0.8,7.978,M,-39.261,M,7.4,0131*67
$PYRTM,2024,125.666904040718,16.776551450856
$GNHDT,301.271,T*2D
$PYRTM,2024,125.666909883322,16.776557293461
$GNGGA,160021.00,3510.66621267,N,12207.85467583,W,2,14,0.8,8.140,M,-39.261,M,7.0,0131*6E
$PYRTM,2024,125.666909883322,16.776557293461
$GNHDT,300.883,T*2B
$PYRTM,2024,125.666915617431,16.776563027569
$GNGGA,160021.50,3510.66610248,N,12207.85504565,W,2,14,0.8,8.198,M,-39.261,M,7.4,0131*69
$PYRTM,2024,125.666915617431,16.776563027569
$GNHDT,300.686,T*20
$PYRTM,2024,125.666921463414,16.776568873553
$GNGGA,160022.00,3510.66599681,N,12207.85543978,W,2,14,0.8,8.060,M,-39.261,M,7.0,0131*6D
$PYRTM,2024,125.666921463414,16.776568873553
$GNHDT,300.849,T*2D
$PYRTM,2024,125.666927192755,16.776574602894
$GNGGA,160022.50,3510.66596307,N,12207.85585449,W,2,14,0.8,7.690,M,-39.261,M,7.4,0131*6B
$PYRTM,2024,125.666927192755,16.776574602894
$GNHDT,301.169,T*27
$PYRTM,2024,125.666933039398,16.776580449537
$GNGGA,160023.00,3510.66600518,N,12207.85625539,W,2,14,0.8,7.167,M,-39.261,M,4.0,0131*6C
$PYRTM,2024,125.666933039398,16.776580449537
$GNHDT,301.533,T*2C
$PYRTM,2024,125.666938769225,16.776586179363
$GNGGA,160023.50,3510.66612800,N,12207.85659038,W,2,14,0.8,6.657,M,-39.261,M,4.4,0131*60
$PYRTM,2024,125.666938769225,16.776586179363
$GNHDT,301.420,T*2F
$PYRTM,2024,125.666944610035,16.776592020174
$GNGGA,160024.00,3510.66631178,N,12207.85685091,W,2,14,0.8,6.283,M,-39.261,M,5.0,0131*6F
$PYRTM,2024,125.666944610035,16.776592020174
$GNHDT,301.418,T*24
$PYRTM,2024,125.666950340810,16.776597750961
$GNGGA,160024.50,3510.66650288,N,12207.85704193,W,2,14,0.8,6.149,M,-39.261,M,5.4,0131*6B
$PYRTM,2024,125.666950340810,16.776597750961
$GNHDT,301.784,T*22
$PYRTM,2024,125.666956187326,16.776603597465
$GNGGA,160025.00,3510.66667644,N,12207.85723539,W,2,14,0.8,6.234,M,-39.261,M,6.0,0131*60
$PYRTM,2024,125.666956187326,16.776603597465
$GNHDT,302.192,T*20
$PYRTM,2024,125.666961918171,16.776609328310
$GNGGA,160025.50,3510.66682460,N,12207.85749323,W,2,14,0.8,6.453,M,-39.261,M,6.4,0131*68
$PYRTM,2024,125.666961918171,16.776609328310
$GNHDT,302.649,T*21
$PYRTM,2024,125.666967761910,16.776615172049
$GNGGA,160026.00,3510.66693605,N,12207.85785380,W,2,14,0.8,6.687,M,-39.261,M,7.0,0131*68
$PYRTM,2024,125.666967761910,16.776615172049
$GNHDT,302.509,T*26
$PYRTM,2024,125.666973494688,16.776620904838
$GNGGA,160026.50,3510.66698304,N,12207.85832057,W,2,14,0.8,6.905,M,-39.261,M,7.4,0131*69
$PYRTM,2024,125.666973494688,16.776620904838
$GNHDT,302.623,T*2D
$PYRTM,2024,125.666979335498,16.776626745648
$GNGGA,160027.00,3510.66692791,N,12207.85883931,W,2,14,0.8,7.163,M,-39.261,M,7.0,0131*61
$PYRTM,2024,125.666979335498,16.776626745648
$GNHDT,302.449,T*23
$PYRTM,2024,125.666985062593,16.776632472731
$GNGGA,160027.50,3510.66680337,N,12207.85931749,W,2,14,0.8,7.486,M,-39.261,M,7.4,0131*6C
$PYRTM,2024,125.666985062593,16.776632472731
$GNHDT,302.007,T*2D
$PYRTM,2024,125.666990904873,16.776638315012
$GNGGA,160028.00,3510.66668244,N,12207.85968515,W,2,14,0.8,7.824,M,-39.261,M,7.0,0131*62
$PYRTM,2024,125.666990904873,16.776638315012
$GNHDT,302.124,T*2D
$PYRTM,2024,125.666996639769,16.776644049907
$GNGGA,160028.50,3510.66668768,N,12207.85992001,W,2,14,0.8,8.036,M,-39.261,M,7.4,0131*69
$PYRTM,2024,125.666996639769,16.776644049907
$GNHDT,302.649,T*21
$PYRTM,2024,125.667002478356,16.776649888495
$GNGGA,160029.00,3510.66682761,N,12207.86004497,W,2,14,0.8,8.056,M,-39.261,M,4.0,0131*6F
$PYRTM,2024,125.667002478356,16.776649888495
$GNHDT,302.985,T*2E
$PYRTM,2024,125.667008212951,16.776655623090
$GNGGA,160029.50,3510.66703063,N,12207.86013549,W,2,14,0.8,7.950,M,-39.261,M,4.4,0131*67
$PYRTM,2024,125.667008212951,16.776655623090
$GNHDT,302.915,T*27
$PYRTM,2024,125.667014053808,16.776661463947
$GNGGA,160030.00,3510.66721757,N,12207.86025164,W,2,14,0.8,7.718,M,-39.261,M,5.0,0131*63
$PYRTM,2024,125.667014053808,16.776661463947
$GNHDT,302.741,T*28
$PYRTM,2024,125.667019785046,16.776667195185
$GNGGA,160030.50,3510.66731683,N,12207.86045512,W,2,14,0.8,7.460,M,-39.261,M,5.4,0131*64
$PYRTM,2024,125.667019785046,16.776667195185
$GNHDT,302.570,T*28
$PYRTM,2024,125.667025625509,16.776673035648
$GNGGA,160031.00,3510.66731296,N,12207.86076901,W,2,14,0.8,7.216,M,-39.261,M,6.0,0131*6E
$PYRTM,2024,125.667025625509,16.776673035648
$GNHDT,302.352,T*2E
$PYRTM,2024,125.667031360162,16.776678770301
$GNGGA,160031.50,3510.66725166,N,12207.86116822,W,2,14,0.8,6.995,M,-39.261,M,6.4,0131*60
$PYRTM,2024,125.667031360162,16.776678770301
$GNHDT,302.392,T*22
$PYRTM,2024,125.667037201609,16.776684611748
$GNGGA,160032.00,3510.66717999,N,12207.86161400,W,2,14,0.8,6.785,M,-39.261,M,7.0,0131*69
$PYRTM,2024,125.667037201609,16.776684611748
$GNHDT,302.635,T*2A
$PYRTM,2024,125.667042933495,16.776690343646
$GNGGA,160032.50,3510.66714925,N,12207.86205958,W,2,14,0.8,6.613,M,-39.261,M,7.4,0131*63
$PYRTM,2024,125.667042933495,16.776690343646
$GNHDT,302.382,T*23
$PYRTM,2024,125.667048773079,16.776696183218
$GNGGA,160033.00,3510.66718599,N,12207.86246359,W,2,14,0.8,6.530,M,-39.261,M,7.0,0131*6A
$PYRTM,2024,125.667048773079,16.776696183218
$GNHDT,302.501,T*2E
$PYRTM,2024,125.667054506944,16.776701917083
$GNGGA,160033.50,3510.66726967,N,12207.86281468,W,2,14,0.8,6.597,M,-39.261,M,7.4,0131*68
$PYRTM,2024,125.667054506944,16.776701917083
$GNHDT,302.731,T*2F
$PYRTM,2024,125.667060352639,16.776707762778
$GNGGA,160034.00,3510.66738080,N,12207.86312303,W,2,14,0.8,6.835,M,-39.261,M,7.0,0131*65
$PYRTM,2024,125.667060352639,16.776707762778
$GNHDT,302.400,T*2E
$PYRTM,2024,125.667066092211,16.776713502350
$GNGGA,160034.50,3510.66750147,N,12207.86339228,W,2,14,0.8,7.166,M,-39.261,M,7.4,0131*6F
$PYRTM,2024,125.667066092211,16.776713502350
$GNHDT,302.057,T*28
$PYRTM,2024,125.667071927546,16.776719337685
$GNGGA,160035.00,3510.66761592,N,12207.86362965,W,2,14,0.8,7.503,M,-39.261,M,4.0,0131*69
$PYRTM,2024,125.667071927546,16.776719337685
$GNHDT,302.108,T*23
$PYRTM,2024,125.667077655081,16.776725065231
$GNGGA,160035.50,3510.66771406,N,12207.86387567,W,2,14,0.8,7.760,M,-39.261,M,4.4,0131*67
$PYRTM,2024,125.667077655081,16.776725065231
$GNHDT,302.128,T*21
$PYRTM,2024,125.667083497847,16.776730907986
$GNGGA,160036.00,3510.66779334,N,12207.86415142,W,2,14,0.8,7.810,M,-39.261,M,5.0,0131*6D
$PYRTM,2024,125.667083497847,16.776730907986
$GNHDT,302.535,T*29
$PYRTM,2024,125.667089233565,16.776736643704
$GNGGA,160036.50,3510.66786722,N,12207.86449106,W,2,14,0.8,7.599,M,-39.261,M,5.4,0131*6A
$PYRTM,2024,125.667089233565,16.776736643704
$GNHDT,302.554,T*2E
$PYRTM,2024,125.667095074502,16.776742484641
$GNGGA,160037.00,3510.66792737,N,12207.86488178,W,2,14,0.8,7.219,M,-39.261,M,6.0,0131*63
$PYRTM,2024,125.667095074502,16.776742484641
$GNHDT,302.281,T*21
$PYRTM,2024,125.667100801111,16.776748211250
$GNGGA,160037.50,3510.66796857,N,12207.86529543,W,2,14,0.8,6.783,M,-39.261,M,6.4,0131*6E
$PYRTM,2024,125.667100801111,16.776748211250
$GNHDT,301.899,T*21
$PYRTM,2024,125.667106645822,16.776754055961
$GNGGA,160038.00,3510.66798507,N,12207.86568987,W,2,14,0.8,6.459,M,-39.261,M,7.0,0131*62
$PYRTM,2024,125.667106645822,16.776754055961
$GNHDT,301.779,T*20
$PYRTM,2024,125.667112377396,16.776759787535
$GNGGA,160038.50,3510.66798944,N,12207.86602805,W,2,14,0.8,6.348,M,-39.261,M,7.4,0131*6B
$PYRTM,2024,125.667112377396,16.776759787535
$GNHDT,301.789,T*2F
$PYRTM,2024,125.667118222674,16.776765632813
$GNGGA,160039.00,3510.66801245,N,12207.86631128,W,2,14,0.8,6.453,M,-39.261,M,7.0,0131*65
$PYRTM,2024,125.667118222674,16.776765632813
$GNHDT,302.021,T*29
$PYRTM,2024,125.667123952789,16.776771362940
$GNGGA,160039.50,3510.66808280,N,12207.86655925,W,2,14,0.8,6.681,M,-39.261,M,7.4,0131*6E
$PYRTM,2024,125.667123952789,16.776771362940
$GNHDT,302.078,T*25
$PYRTM,2024,125.667129799826,16.776777209965
$GNGGA,160040.00,3510.66821896,N,12207.86680619,W,2,14,0.8,6.908,M,-39.261,M,7.0,0131*61
$PYRTM,2024,125.667129799826,16.776777209965
$GNHDT,302.109,T*22
$PYRTM,2024,125.667135526667,16.776782936806
$GNGGA,160040.50,3510.66839660,N,12207.86709679,W,2,14,0.8,7.055,M,-39.261,M,7.4,0131*68
$PYRTM,2024,125.667135526667,16.776782936806
$GNHDT,301.911,T*20
$PYRTM,2024,125.667141372072,16.776788782211
$GNGGA,160041.00,3510.66856511,N,12207.86746289,W,2,14,0.8,7.150,M,-39.261,M,4.0,0131*63
$PYRTM,2024,125.667141372072,16.776788782211
$GNHDT,301.750,T*2B
$PYRTM,2024,125.667147102072,16.776794512211
$GNGGA,160041.50,3510.66867169,N,12207.86789068,W,2,14,0.8,7.251,M,-39.261,M,4.4,0131*67
$PYRTM,2024,125.667147102072,16.776794512211
$GNHDT,301.476,T*2C
$PYRTM,2024,125.667152944213,16.776800354352
$GNGGA,160042.00,3510.66870076,N,12207.86832707,W,2,14,0.8,7.399,M,-39.261,M,5.0,0131*69
$PYRTM,2024,125.667152944213,16.776800354352
$GNHDT,301.580,T*24
$PYRTM,2024,125.667158673414,16.776806083565
$GNGGA,160042.50,3510.66867195,N,12207.86872611,W,2,14,0.8,7.610,M,-39.261,M,5.4,0131*64
$PYRTM,2024,125.667158673414,16.776806083565
$GNHDT,301.364,T*28
$PYRTM,2024,125.667164516238,16.776811926377
$GNGGA,160043.00,3510.66861184,N,12207.86907860,W,2,14,0.8,7.817,M,-39.261,M,6.0,0131*63
$PYRTM,2024,125.667164516238,16.776811926377
$GNHDT,301.091,T*21
$PYRTM,2024,125.667170249907,16.776817660046
$GNGGA,160043.50,3510.66854979,N,12207.86937628,W,2,14,0.8,7.954,M,-39.261,M,6.4,0131*69
$PYRTM,2024,125.667170249907,16.776817660046
$GNHDT,301.394,T*27
$PYRTM,2024,125.667176086968,16.776823497106
$GNGGA,160044.00,3510.66853979,N,12207.86962148,W,2,14,0.8,7.944,M,-39.261,M,7.0,0131*69
$PYRTM,2024,125.667176086968,16.776823497106
$GNHDT,301.563,T*29
$PYRTM,2024,125.667181827176,16.776829237315
$GNGGA,160044.50,3510.66862451,N,12207.86983965,W,2,14,0.8,7.746,M,-39.261,M,7.4,0131*69
$PYRTM,2024,125.667181827176,16.776829237315
$GNHDT,301.926,T*24
$PYRTM,2024,125.667187666250,16.776835076389
$GNGGA,160045.00,3510.66880026,N,12207.87006828,W,2,14,0.8,7.321,M,-39.261,M,7.0,0131*69
$PYRTM,2024,125.667187666250,16.776835076389
$GNHDT,302.123,T*2A
$PYRTM,2024,125.667193397234,16.776840807373
$GNGGA,160045.50,3510.66901400,N,12207.87033662,W,2,14,0.8,6.782,M,-39.261,M,7.4,0131*6A
$PYRTM,2024,125.667193397234,16.776840807373
$GNHDT,302.039,T*20
$PYRTM,2024,125.667199235775,16.776846645914
$GNGGA,160046.00,3510.66921667,N,12207.87066491,W,2,14,0.8,6.254,M,-39.261,M,7.0,0131*69
$PYRTM,2024,125.667199235775,16.776846645914
$GNHDT,301.865,T*22
$PYRTM,2024,125.667204970729,16.776852380868
$GNGGA,160046.50,3510.66932214,N,12207.87102866,W,2,14,0.8,6.006,M,-39.261,M,7.4,0131*68
$PYRTM,2024,125.667204970729,16.776852380868
$GNHDT,301.191,T*20
$PYRTM,2024,125.667210814225,16.776858224363
$GNGGA,160047.00,3510.66929060,N,12207.87140280,W,2,14,0.8,6.127,M,-39.261,M,4.0,0131*66
$PYRTM,2024,125.667210814225,16.776858224363
$GNHDT,300.694,T*23
$PYRTM,2024,125.667216550174,16.776863960313
$GNGGA,160047.50,3510.66916811,N,12207.87177364,W,2,14,0.8,6.531,M,-39.261,M,4.4,0131*69
$PYRTM,2024,125.667216550174,16.776863960313
$GNHDT,300.382,T*21
$PYRTM,2024,125.667222390741,16.776869800880
$GNGGA,160048.00,3510.66903404,N,12207.87213993,W,2,14,0.8,7.016,M,-39.261,M,5.0,0131*68
$PYRTM,2024,125.667222390741,16.776869800880
$GNHDT,300.048,T*24
$PYRTM,2024,125.667228118877,16.776875529016
$GNGGA,160048.50,3510.66894771,N,12207.87251742,W,2,14,0.8,7.455,M,-39.261,M,5.4,0131*60
$PYRTM,2024,125.667228118877,16.776875529016
$GNHDT,300.342,T*2D
$PYRTM,2024,125.667233962292,16.776881372431
$GNGGA,160049.00,3510.66898189,N,12207.87289137,W,2,14,0.8,7.665,M,-39.261,M,6.0,0131*6E
$PYRTM,2024,125.667233962292,16.776881372431
$GNHDT,300.336,T*2E
$PYRTM,2024,125.667239689745,16.776887099884
$GNGGA,160049.50,3510.66911318,N,12207.87324294,W,2,14,0.8,7.660,M,-39.261,M,6.4,0131*6C
$PYRTM,2024,125.667239689745,16.776887099884
$GNHDT,300.087,T*27
$PYRTM,2024,125.667245535208,16.776892945347
$GNGGA,160050.00,3510.66929118,N,12207.87355611,W,2,14,0.8,7.519,M,-39.261,M,7.0,0131*6F
$PYRTM,2024,125.667245535208,16.776892945347
$GNHDT,299.878,T*2E
$PYRTM,2024,125.667251268669,16.776898678808
$GNGGA,160050.50,3510.66945098,N,12207.87382632,W,2,14,0.8,7.291,M,-39.261,M,7.4,0131*61
$PYRTM,2024,125.667251268669,16.776898678808
$GNHDT,299.802,T*23
$PYRTM,2024,125.667257106505,16.776904516655
$GNGGA,160051.00,3510.66953994,N,12207.87408441,W,2,14,0.8,7.116,M,-39.261,M,7.0,0131*6C
$PYRTM,2024,125.667257106505,16.776904516655
$GNHDT,299.513,T*2E
$PYRTM,2024,125.667262843079,16.776910253218
$GNGGA,160051.50,3510.66956356,N,12207.87435199,W,2,14,0.8,7.028,M,-39.261,M,7.4,0131*6E
$PYRTM,2024,125.667262843079,16.776910253218
$GNHDT,299.318,T*23
$PYRTM,2024,125.667268680440,16.776916090579
$GNGGA,160052.00,3510.66953974,N,12207.87464801,W,2,14,0.8,7.051,M,-39.261,M,7.0,0131*61
$PYRTM,2024,125.667268680440,16.776916090579
$GNHDT,299.090,T*20
$PYRTM,2024,125.667274415162,16.776921825301
$GNGGA,160052.50,3510.66949691,N,12207.87497738,W,2,14,0.8,7.111,M,-39.261,M,7.4,0131*63
$PYRTM,2024,125.667274415162,16.776921825301
$GNHDT,299.006,T*2F
$PYRTM,2024,125.667280256632,16.776927666771
$GNGGA,160053.00,3510.66945346,N,12207.87532993,W,2,14,0.8,7.234,M,-39.261,M,4.0,0131*66
$PYRTM,2024,125.667280256632,16.776927666771
$GNHDT,298.872,T*25
$PYRTM,2024,125.667285989792,16.776933399931
$GNGGA,160053.50,3510.66945118,N,12207.87568969,W,2,14,0.8,7.298,M,-39.261,M,4.4,0131*62
$PYRTM,2024,125.667285989792,16.776933399931
$GNHDT,298.876,T*21
$PYRTM,2024,125.667291829028,16.776939239167
$GNGGA,160054.00,3510.66950340,N,12207.87607086,W,2,14,0.8,7.285,M,-39.261,M,5.0,0131*60
$PYRTM,2024,125.667291829028,16.776939239167
$GNHDT,298.719,T*27
$PYRTM,2024,125.667297564062,16.776944974201
$GNGGA,160054.50,3510.66961343,N,12207.87647086,W,2,14,0.8,7.136,M,-39.261,M,5.4,0131*6F
$PYRTM,2024,125.667297564062,16.776944974201
$GNHDT,298.523,T*2C
$PYRTM,2024,125.667303408553,16.776950818704
$GNGGA,160055.00,3510.66978119,N,12207.87687853,W,2,14,0.8,6.863,M,-39.261,M,6.0,0131*6D
$PYRTM,2024,125.667303408553,16.776950818704
$GNHDT,298.913,T*23
$PYRTM,2024,125.667309135336,16.776956545475
$GNGGA,160055.50,3510.66998908,N,12207.87726766,W,2,14,0.8,6.542,M,-39.261,M,6.4,0131*67
$PYRTM,2024,125.667309135336,16.776956545475
$GNHDT,298.587,T*22
$PYRTM,2024,125.667314979618,16.776962389757
$GNGGA,160056.00,3510.67020337,N,12207.87760685,W,2,14,0.8,6.351,M,-39.261,M,7.0,0131*63
$PYRTM,2024,125.667314979618,16.776962389757
$GNHDT,298.517,T*2B
$PYRTM,2024,125.667320719456,16.776968129595
$GNGGA,160056.50,3510.67036838,N,12207.87788126,W,2,14,0.8,6.456,M,-39.261,M,7.4,0131*69
$PYRTM,2024,125.667320719456,16.776968129595
$GNHDT,298.186,T*27
$PYRTM,2024,125.667326549444,16.776973959583
$GNGGA,160057.00,3510.67045816,N,12207.87811870,W,2,14,0.8,6.852,M,-39.261,M,7.0,0131*6C
$PYRTM,2024,125.667326549444,16.776973959583
$GNHDT,298.485,T*21
$PYRTM,2024,125.667332287222,16.776979697361
$GNGGA,160057.50,3510.67045242,N,12207.87837787,W,2,14,0.8,7.419,M,-39.261,M,7.4,0131*67
$PYRTM,2024,125.667332287222,16.776979697361
$GNHDT,298.216,T*2D
$PYRTM,2024,125.667338123576,16.776985533704
$GNGGA,160058.00,3510.67036886,N,12207.87868160,W,2,14,0.8,8.027,M,-39.261,M,7.0,0131*6C
$PYRTM,2024,125.667338123576,16.776985533704
$GNHDT,297.933,T*2E
$PYRTM,2024,125.667343861146,16.776991271285
$GNGGA,160058.50,3510.67024905,N,12207.87904018,W,2,14,0.8,8.492,M,-39.261,M,7.4,0131*6B
$PYRTM,2024,125.667343861146,16.776991271285
$GNHDT,297.722,T*20
$PYRTM,2024,125.667349702037,16.776997112176
$GNGGA,160059.00,3510.67014439,N,12207.87942511,W,2,14,0.8,8.651,M,-39.261,M,4.0,0131*6A
$PYRTM,2024,125.667349702037,16.776997112176
$GNHDT,297.527,T*27
$PYRTM,2024,125.667355434387,16.777002844525
$GNGGA,160059.50,3510.67012323,N,12207.87978646,W,2,14,0.8,8.401,M,-39.261,M,4.4,0131*6E
$PYRTM,2024,125.667355434387,16.777002844525
$GNHDT,297.605,T*24
$PYRTM,2024,125.667361278611,16.777008688750
$GNGGA,160100.00,3510.67018807,N,12207.88008929,W,2,14,0.8,7.825,M,-39.261,M,5.0,0131*66
$PYRTM,2024,125.667361278611,16.777008688750
$GNHDT,297.382,T*2E
$PYRTM,2024,125.667367010694,16.777014420833
$GNGGA,160100.50,3510.67030642,N,12207.88033913,W,2,14,0.8,7.102,M,-39.261,M,5.4,0131*6F
$PYRTM,2024,125.667367010694,16.777014420833
$GNHDT,297.661,T*26
$PYRTM,2024,125.667372850544,16.777020260683
$GNGGA,160101.00,3510.67042661,N,12207.88054397,W,2,14,0.8,6.438,M,-39.261,M,6.0,0131*62
$PYRTM,2024,125.667372850544,16.777020260683
$GNHDT,297.885,T*22
$PYRTM,2024,125.667378579259,16.777025989398
$GNGGA,160101.50,3510.67050899,N,12207.88074676,W,2,14,0.8,6.008,M,-39.261,M,6.4,0131*66
$PYRTM,2024,125.667378579259,16.777025989398
$GNHDT,298.191,T*21
$PYRTM,2024,125.667384421725,16.777031831863
$GNGGA,160102.00,3510.67052496,N,12207.88100218,W,2,14,0.8,5.895,M,-39.261,M,7.0,0131*65
$PYRTM,2024,125.667384421725,16.777031831863
$GNHDT,298.072,T*2D
$PYRTM,2024,125.667390164583,16.777037574722
$GNGGA,160102.50,3510.67049218,N,12207.88133744,W,2,14,0.8,6.003,M,-39.261,M,7.4,0131*66
$PYRTM,2024,125.667390164583,16.777037574722
$GNHDT,297.481,T*2A
$PYRTM,2024,125.667395997905,16.777043408056
$GNGGA,160103.00,3510.67044595,N,12207.88173486,W,2,14,0.8,6.212,M,-39.261,M,7.0,0131*62
$PYRTM,2024,125.667395997905,16.777043408056
$GNHDT,297.065,T*24
$PYRTM,2024,125.667401734456,16.777049144595
$GNGGA,160103.50,3510.67042237,N,12207.88218774,W,2,14,0.8,6.433,M,-39.261,M,7.4,0131*6F
$PYRTM,2024,125.667401734456,16.777049144595
$GNHDT,297.499,T*23
$PYRTM,2024,125.667407575741,16.777054985880
$GNGGA,160104.00,3510.67043005,N,12207.88264809,W,2,14,0.8,6.640,M,-39.261,M,7.0,0131*63
$PYRTM,2024,125.667407575741,16.777054985880
$GNHDT,297.353,T*22
$PYRTM,2024,125.667413302384,16.777060712523
$GNGGA,160104.50,3510.67045985,N,12207.88307253,W,2,14,0.8,6.851,M,-39.261,M,7.4,0131*6A
$PYRTM,2024,125.667413302384,16.777060712523
$GNHDT,297.350,T*21
$PYRTM,2024,125.667419143102,16.777066553241
$GNGGA,160105.00,3510.67050308,N,12207.88344062,W,2,14,0.8,7.090,M,-39.261,M,4.0,0131*61
$PYRTM,2024,125.667419143102,16.777066553241
$GNHDT,297.201,T*24
$PYRTM,2024,125.667424876852,16.777072286991
$GNGGA,160105.50,3510.67056009,N,12207.88376292,W,2,14,0.8,7.325,M,-39.261,M,4.4,0131*65
$PYRTM,2024,125.667424876852,16.777072286991
$GNHDT,297.316,T*23
$PYRTM,2024,125.667430719618,16.777078129757
$GNGGA,160106.00,3510.67062646,N,12207.88405848,W,2,14,0.8,7.508,M,-39.261,M,5.0,0131*6B
$PYRTM,2024,125.667430719618,16.777078129757
$GNHDT,297.358,T*29
$PYRTM,2024,125.667436449456,16.777083859606
$GNGGA,160106.50,3510.67070134,N,12207.88434914,W,2,14,0.8,7.578,M,-39.261,M,5.4,0131*66
$PYRTM,2024,125.667436449456,16.777083859606
$GNHDT,297.170,T*21
$PYRTM,2024,125.667442293218,16.777089703356
$GNGGA,160107.00,3510.67077028,N,12207.88465180,W,2,14,0.8,7.531,M,-39.261,M,6.0,0131*62
$PYRTM,2024,125.667442293218,16.777089703356
$GNHDT,297.202,T*27
$PYRTM,2024,125.667448030417,16.777095440556
$GNGGA,160107.50,3510.67081795,N,12207.88497402,W,2,14,0.8,7.406,M,-39.261,M,6.4,0131*6C
$PYRTM,2024,125.667448030417,16.777095440556
$GNHDT,296.798,T*20
$PYRTM,2024,125.667453866563,16.777101276701
$GNGGA,160108.00,3510.67080772,N,12207.88533186,W,2,14,0.8,7.279,M,-39.261,M,7.0,0131*63
$PYRTM,2024,125.667453866563,16.777101276701
$GNHDT,296.395,T*29
$PYRTM,2024,125.667459600486,16.777107010637
$GNGGA,160108.50,3510.67074287,N,12207.88571201,W,2,14,0.8,7.185,M,-39.261,M,7.4,0131*6C
$PYRTM,2024,125.667459600486,16.777107010637
$GNHDT,296.291,T*2C
$PYRTM,2024,125.667465440081,16.777112850220
$GNGGA,160109.00,3510.67065837,N,12207.88610303,W,2,14,0.8,7.128,M,-39.261,M,7.0,0131*6D
$PYRTM,2024,125.667465440081,16.777112850220
$GNHDT,296.048,T*2A
$PYRTM,2024,125.667471176343,16.777118586481
$GNGGA,160109.50,3510.67062619,N,12207.88648282,W,2,14,0.8,7.034,M,-39.261,M,7.4,0131*60
$PYRTM,2024,125.667471176343,16.777118586481
$GNHDT,296.246,T*26
$PYRTM,2024,125.667477018634,16.777124428773
$GNGGA,160110.00,3510.67069845,N,12207.88685524,W,2,14,0.8,6.857,M,-39.261,M,7.0,0131*63
$PYRTM,2024,125.667477018634,16.777124428773
$GNHDT,296.381,T*2C
$PYRTM,2024,125.667482753449,16.777130163588
$GNGGA,160110.50,3510.67087010,N,12207.88721850,W,2,14,0.8,6.602,M,-39.261,M,7.4,0131*65
$PYRTM,2024,125.667482753449,16.777130163588
$GNHDT,296.351,T*21
$PYRTM,2024,125.667488592280,16.777136002419
$GNGGA,160111.00,3510.67109894,N,12207.88757771,W,2,14,0.8,6.379,M,-39.261,M,4.0,0131*61
$PYRTM,2024,125.667488592280,16.777136002419
$GNHDT,296.798,T*20
$PYRTM,2024,125.667494324086,16.777141734225
$GNGGA,160111.50,3510.67128992,N,12207.88793814,W,2,14,0.8,6.329,M,-39.261,M,4.4,0131*65
$PYRTM,2024,125.667494324086,16.777141734225
$GNHDT,296.578,T*2C
$PYRTM,2024,125.667500162627,16.777147572778
$GNGGA,160112.00,3510.67137772,N,12207.88829912,W,2,14,0.8,6.550,M,-39.261,M,5.0,0131*69
$PYRTM,2024,125.667500162627,16.777147572778
$GNHDT,296.262,T*20
$PYRTM,2024,125.667505900938,16.777153311076
$GNGGA,160112.50,3510.67135942,N,12207.88865360,W,2,14,0.8,7.001,M,-39.261,M,5.4,0131*60
$PYRTM,2024,125.667505900938,16.777153311076
$GNHDT,296.132,T*26
$PYRTM,2024,125.667511741713,16.777159151852
$GNGGA,160113.00,3510.67126321,N,12207.88901296,W,2,14,0.8,7.549,M,-39.261,M,6.0,0131*6C
$PYRTM,2024,125.667511741713,16.777159151852
$GNHDT,295.810,T*2C
$PYRTM,2024,125.667517467998,16.777164878137
$GNGGA,160113.50,3510.67116060,N,12207.88940418,W,2,14,0.8,7.978,M,-39.261,M,6.4,0131*63
$PYRTM,2024,125.667517467998,16.777164878137
$GNHDT,295.796,T*2D
$PYRTM,2024,125.667523312245,16.777170722384
$GNGGA,160114.00,3510.67110304,N,12207.88983718,W,2,14,0.8,8.096,M,-39.261,M,7.0,0131*69
$PYRTM,2024,125.667523312245,16.777170722384
$GNHDT,295.450,T*24
$PYRTM,2024,125.667529044595,16.777176454734
$GNGGA,160114.50,3510.67111255,N,12207.89026994,W,2,14,0.8,7.922,M,-39.261,M,7.4,0131*68
$PYRTM,2024,125.667529044595,16.777176454734
$GNHDT,295.902,T*2E
$PYRTM,2024,125.667534890301,16.777182300440
$GNGGA,160115.00,3510.67117642,N,12207.89065044,W,2,14,0.8,7.556,M,-39.261,M,7.0,0131*60
$PYRTM,2024,125.667534890301,16.777182300440
$GNHDT,295.780,T*2A
$PYRTM,2024,125.667540616586,16.777188026736
$GNGGA,160115.50,3510.67126644,N,12207.89094608,W,2,14,0.8,7.148,M,-39.261,M,7.4,0131*6E
$PYRTM,2024,125.667540616586,16.777188026736
$GNHDT,295.742,T*24
$PYRTM,2024,125.667546458750,16.777193868889
$GNGGA,160116.00,3510.67136051,N,12207.89114861,W,2,14,0.8,6.778,M,-39.261,M,7.0,0131*63
$PYRTM,2024,125.667546458750,16.777193868889
$GNHDT,295.845,T*2C
$PYRTM,2024,125.667552190162,16.777199600301
$GNGGA,160116.50,3510.67143994,N,12207.89132282,W,2,14,0.8,6.515,M,-39.261,M,7.4,0131*6A
$PYRTM,2024,125.667552190162,16.777199600301
$GNHDT,295.439,T*2B
$PYRTM,2024,125.667558040231,16.777205450370
$GNGGA,160117.00,3510.67149006,N,12207.89153806,W,2,14,0.8,6.347,M,-39.261,M,4.0,0131*61
$PYRTM,2024,125.667558040231,16.777205450370
$GNHDT,295.698,T*22
$PYRTM,2024,125.667563762975,16.777211173113
$GNGGA,160117.50,3510.67150156,N,12207.89185907,W,2,14,0.8,6.223,M,-39.261,M,4.4,0131*64
$PYRTM,2024,125.667563762975,16.777211173113
$GNHDT,295.896,T*22
$PYRTM,2024,125.667569610116,16.777217020255
$GNGGA,160118.00,3510.67145394,N,12207.89227876,W,2,14,0.8,6.184,M,-39.261,M,5.0,0131*61
$PYRTM,2024,125.667569610116,16.777217020255
$GNHDT,295.961,T*2B
$PYRTM,2024,125.667575338125,16.777222748275
$GNGGA,160118.50,3510.67134042,N,12207.89275804,W,2,14,0.8,6.274,M,-39.261,M,5.4,0131*60
$PYRTM,2024,125.667575338125,16.777222748275
$GNHDT,295.674,T*20
$PYRTM,2024,125.667581185498,16.777228595637
$GNGGA,160119.00,3510.67120143,N,12207.89323597,W,2,14,0.8,6.492,M,-39.261,M,6.0,0131*6D
$PYRTM,2024,125.667581185498,16.777228595637
$GNHDT,295.550,T*25
$PYRTM,2024,125.667586922072,16.777234332211
$GNGGA,160119.50,3510.67109634,N,12207.89366226,W,2,14,0.8,6.774,M,-39.261,M,6.4,0131*67
$PYRTM,2024,125.667586922072,16.777234332211
$GNHDT,295.727,T*27
$PYRTM,2024,125.667592754502,16.777240164641
$GNGGA,160120.00,3510.67107864,N,12207.89401838,W,2,14,0.8,6.993,M,-39.262,M,7.0,0131*6F
$PYRTM,2024,125.667592754502,16.777240164641
$GNHDT,296.024,T*20
$PYRTM,2024,125.667598494664,16.777245904803
$GNGGA,160120.50,3510.67117253,N,12207.89430259,W,2,14,0.8,7.093,M,-39.262,M,7.4,0131*66
$PYRTM,2024,125.667598494664,16.777245904803
$GNHDT,296.318,T*2C
$PYRTM,2024,125.667604330972,16.777251741111
$GNGGA,160121.00,3510.67134712,N,12207.89454283,W,2,14,0.8,7.055,M,-39.262,M,7.0,0131*68
$PYRTM,2024,125.667604330972,16.777251741111
$GNHDT,296.577,T*23
$PYRTM,2024,125.667610063854,16.777257473993
$GNGGA,160121.50,3510.67153881,N,12207.89478210,W,2,14,0.8,6.919,M,-39.262,M,7.4,0131*69
$PYRTM,2024,125.667610063854,16.777257473993
$GNHDT,297.260,T*23
$PYRTM,2024,125.667615903495,16.777263313634
$GNGGA,160122.00,3510.67170607,N,12207.89507013,W,2,14,0.8,6.736,M,-39.262,M,7.0,0131*61
$PYRTM,2024,125.667615903495,16.777263313634
$GNHDT,297.464,T*21
$PYRTM,2024,125.667621642049,16.777269052199
$GNGGA,160122.50,3510.67179506,N,12207.89543140,W,2,14,0.8,6.629,M,-39.262,M,7.4,0131*63
$PYRTM,2024,125.667621642049,16.777269052199
$GNHDT,296.605,T*25
$PYRTM,2024,125.667627482662,16.777274892812
$GNGGA,160123.00,3510.67178829,N,12207.89584799,W,2,14,0.8,6.635,M,-39.262,M,4.0,0131*65
$PYRTM,2024,125.667627482662,16.777274892812
$GNHDT,296.286,T*2A
$PYRTM,2024,125.667633219039,16.777280629178
$GNGGA,160123.50,3510.67170044,N,12207.89628231,W,2,14,0.8,6.792,M,-39.262,M,4.4,0131*61
$PYRTM,2024,125.667633219039,16.777280629178
$GNHDT,296.088,T*26
$PYRTM,2024,125.667639061100,16.777286471238
$GNGGA,160124.00,3510.67154861,N,12207.89671465,W,2,14,0.8,7.080,M,-39.262,M,5.0,0131*61
$PYRTM,2024,125.667639061100,16.777286471238
$GNHDT,296.241,T*21
$PYRTM,2024,125.667644788877,16.777292199016
$GNGGA,160124.50,3510.67139654,N,12207.89711419,W,2,14,0.8,7.397,M,-39.262,M,5.4,0131*6A
$PYRTM,2024,125.667644788877,16.777292199016
$GNHDT,296.973,T*2B
$PYRTM,2024,125.667650625231,16.777298035370
$GNGGA,160125.00,3510.67130654,N,12207.89747818,W,2,14,0.8,7.639,M,-39.262,M,6.0,0131*6F
$PYRTM,2024,125.667650625231,16.777298035370
$GNHDT,297.030,T*24
$PYRTM,2024,125.667656361632,16.777303771771
$GNGGA,160125.50,3510.67136734,N,12207.89779650,W,2,14,0.8,7.636,M,-39.262,M,6.4,0131*6F
$PYRTM,2024,125.667656361632,16.777303771771
$GNHDT,297.327,T*21
$PYRTM,2024,125.667662205625,16.777309615764
$GNGGA,160126.00,3510.67156737,N,12207.89807355,W,2,14,0.8,7.380,M,-39.262,M,7.0,0131*67
$PYRTM,2024,125.667662205625,16.777309615764
$GNHDT,297.470,T*24
$PYRTM,2024,125.667667931435,16.777315341574
$GNGGA,160126.50,3510.67184907,N,12207.89834196,W,2,14,0.8,6.989,M,-39.262,M,7.4,0131*6B
$PYRTM,2024,125.667667931435,16.777315341574
$GNHDT,297.418,T*2A
$PYRTM,2024,125.667673777535,16.777321187674
$GNGGA,160127.00,3510.67213924,N,12207.89860203,W,2,14,0.8,6.571,M,-39.262,M,7.0,0131*62
$PYRTM,2024,125.667673777535,16.777321187674
$GNHDT,297.822,T*2F
$PYRTM,2024,125.667679508484,16.777326918623
$GNGGA,160127.50,3510.67232648,N,12207.89887997,W,2,14,0.8,6.347,M,-39.262,M,7.4,0131*69
$PYRTM,2024,125.667679508484,16.777326918623
$GNHDT,298.195,T*25
$PYRTM,2024,125.667685349236,16.777332759375
$GNGGA,160128.00,3510.67237271,N,12207.89919229,W,2,14,0.8,6.436,M,-39.262,M,7.0,0131*65
$PYRTM,2024,125.667685349236,16.777332759375
$GNHDT,298.336,T*2E
$PYRTM,2024,125.667691088287,16.777338498426
$GNGGA,160128.50,3510.67230808,N,12207.89953577,W,2,14,0.8,6.744,M,-39.262,M,7.4,0131*63
$PYRTM,2024,125.667691088287,16.777338498426
$GNHDT,298.695,T*22
$PYRTM,2024,125.667696931782,16.777344341921
$GNGGA,160129.00,3510.67220363,N,12207.89990457,W,2,14,0.8,7.099,M,-39.262,M,4.0,0131*6D
$PYRTM,2024,125.667696931782,16.777344341921
$GNHDT,298.651,T*2A
$PYRTM,2024,125.667702653021,16.777350063160
$GNGGA,160129.50,3510.67210175,N,12207.90031066,W,2,14,0.8,7.361,M,-39.262,M,4.4,0131*62
$PYRTM,2024,125.667702653021,16.777350063160
$GNHDT,298.466,T*2C
$PYRTM,2024,125.667708498981,16.777355909120
$GNGGA,160130.00,3510.67201459,N,12207.90076684,W,2,14,0.8,7.459,M,-39.262,M,5.0,0131*64
$PYRTM,2024,125.667708498981,16.777355909120
$GNHDT,298.116,T*2E
$PYRTM,2024,125.667714230278,16.777361640417
$GNGGA,160130.50,3510.67194666,N,12207.90122422,W,2,14,0.8,7.411,M,-39.262,M,5.4,0131*66
$PYRTM,2024,125.667714230278,16.777361640417
$GNHDT,297.581,T*2B
$PYRTM,2024,125.667720074838,16.777367484988
$GNGGA,160131.00,3510.67190214,N,12207.90161400,W,2,14,0.8,7.297,M,-39.262,M,6.0,0131*6F
$PYRTM,2024,125.667720074838,16.777367484988
$GNHDT,297.679,T*2F
$PYRTM,2024,125.667725805532,16.777373215671
$GNGGA,160131.50,3510.67189219,N,12207.90189195,W,2,14,0.8,7.172,M,-39.262,M,6.4,0131*6C
$PYRTM,2024,125.667725805532,16.777373215671
$GNHDT,297.779,T*2E
$PYRTM,2024,125.667731648437,16.777379058576
$GNGGA,160132.00,3510.67193093,N,12207.90205250,W,2,14,0.8,7.054,M,-39.262,M,7.0,0131*6C
$PYRTM,2024,125.667731648437,16.777379058576
$GNHDT,298.522,T*2D
$PYRTM,2024,125.667737375868,16.777384786007
$GNGGA,160132.50,3510.67201522,N,12207.90217829,W,2,14,0.8,6.891,M,-39.262,M,7.4,0131*6D
$PYRTM,2024,125.667737375868,16.777384786007
$GNHDT,299.315,T*2E
$PYRTM,2024,125.667743220440,16.777390630579
$GNGGA,160133.00,3510.67211993,N,12207.90233536,W,2,14,0.8,6.645,M,-39.262,M,7.0,0131*68
$PYRTM,2024,125.667743220440,16.777390630579
$GNHDT,299.608,T*27
$PYRTM,2024,125.667748953669,16.777396363819
$GNGGA,160133.50,3510.67221361,N,12207.90260155,W,2,14,0.8,6.329,M,-39.262,M,7.4,0131*65
$PYRTM,2024,125.667748953669,16.777396363819
$GNHDT,299.466,T*2D
$PYRTM,2024,125.667754792269,16.777402202407
$GNGGA,160134.00,3510.67228590,N,12207.90298959,W,2,14,0.8,5.962,M,-39.262,M,7.0,0131*67
$PYRTM,2024,125.667754792269,16.777402202407
$GNHDT,299.624,T*29
$PYRTM,2024,125.667760530451,16.777407940590
$GNGGA,160134.50,3510.67231161,N,12207.90347218,W,2,14,0.8,5.681,M,-39.262,M,7.4,0131*6B
$PYRTM,2024,125.667760530451,16.777407940590
$GNHDT,299.523,T*2D
$PYRTM,2024,125.667766375428,16.777413785567
$GNGGA,160135.00,3510.67227505,N,12207.90397948,W,2,14,0.8,5.675,M,-39.262,M,4.0,0131*61
$PYRTM,2024,125.667766375428,16.777413785567
$GNHDT,299.230,T*28
$PYRTM,2024,125.667772103426,16.777419513565
$GNGGA,160135.50,3510.67218084,N,12207.90439630,W,2,14,0.8,6.044,M,-39.262,M,4.4,0131*64
$PYRTM,2024,125.667772103426,16.777419513565
$GNHDT,299.826,T*25
$PYRTM,2024,125.667777944803,16.777425354954
$GNGGA,160136.00,3510.67206187,N,12207.90470033,W,2,14,0.8,6.723,M,-39.262,M,5.0,0131*64
$PYRTM,2024,125.667777944803,16.777425354954
$GNHDT,299.955,T*20
$PYRTM,2024,125.667783678449,16.777431088588
$GNGGA,160136.50,3510.67197076,N,12207.90492558,W,2,14,0.8,7.501,M,-39.262,M,5.4,0131*66
$PYRTM,2024,125.667783678449,16.777431088588
$GNHDT,300.057,T*2A
$PYRTM,2024,125.667789513715,16.777436923854
$GNGGA,160137.00,3510.67195008,N,12207.90512618,W,2,14,0.8,8.171,M,-39.262,M,6.0,0131*6C
$PYRTM,2024,125.667789513715,16.777436923854
$GNHDT,300.091,T*20
$PYRTM,2024,125.667795247627,16.777442657766
$GNGGA,160137.50,3510.67205105,N,12207.90537262,W,2,14,0.8,8.448,M,-39.262,M,6.4,0131*6A
$PYRTM,2024,125.667795247627,16.777442657766
$GNHDT,299.907,T*27
$PYRTM,2024,125.667801099005,16.777448509144
$GNGGA,160138.00,3510.67222757,N,12207.90568857,W,2,14,0.8,8.282,M,-39.262,M,7.0,0131*67
$PYRTM,2024,125.667801099005,16.777448509144
$GNHDT,299.974,T*23
$PYRTM,2024,125.667806827558,16.777454237697
$GNGGA,160138.50,3510.67241199,N,12207.90602198,W,2,14,0.8,7.811,M,-39.262,M,7.4,0131*6D
$PYRTM,2024,125.667806827558,16.777454237697
$GNHDT,300.113,T*2B
$PYRTM,2024,125.667812663414,16.777460073553
$GNGGA,160139.00,3510.67252270,N,12207.90633232,W,2,14,0.8,7.243,M,-39.262,M,7.0,0131*67
$PYRTM,2024,125.667812663414,16.777460073553
$GNHDT,300.300,T*2B
$PYRTM,2024,125.667818397222,16.777465807361
$GNGGA,160139.50,3510.67253841,N,12207.90662219,W,2,14,0.8,6.861,M,-39.262,M,7.4,0131*69
$PYRTM,2024,125.667818397222,16.777465807361
$GNHDT,300.114,T*2C
$PYRTM,2024,125.667824235729,16.777471645868
$GNGGA,160140.00,3510.67246742,N,12207.90688226,W,2,14,0.8,6.754,M,-39.262,M,7.0,0131*6F
$PYRTM,2024,125.667824235729,16.777471645868
$GNHDT,299.970,T*27
$PYRTM,2024,125.667829969664,16.777477379803
$GNGGA,160140.50,3510.67236796,N,12207.90713678,W,2,14,0.8,6.850,M,-39.262,M,7.4,0131*67
$PYRTM,2024,125.667829969664,16.777477379803
$GNHDT,300.139,T*23
$PYRTM,2024,125.667835811632,16.777483221771
$GNGGA,160141.00,3510.67228080,N,12207.90741075,W,2,14,0.8,7.047,M,-39.262,M,4.0,0131*68
$PYRTM,2024,125.667835811632,16.777483221771
$GNHDT,300.132,T*28
$PYRTM,2024,125.667841544618,16.777488954769
$GNGGA,160141.50,3510.67225809,N,12207.90772307,W,2,14,0.8,7.178,M,-39.262,M,4.4,0131*66
$PYRTM,2024,125.667841544618,16.777488954769
$GNHDT,300.085,T*25
$PYRTM,2024,125.667847384201,16.777494794340
$GNGGA,160142.00,3510.67230755,N,12207.90810409,W,2,14,0.8,7.159,M,-39.262,M,5.0,0131*66
$PYRTM,2024,125.667847384201,16.777494794340
$GNHDT,300.337,T*2F
$PYRTM,2024,125.667853121667,16.777500531806
$GNGGA,160142.50,3510.67241559,N,12207.90851788,W,2,14,0.8,6.994,M,-39.262,M,5.4,0131*68
$PYRTM,2024,125.667853121667,16.777500531806
$GNHDT,300.765,T*2C
$PYRTM,2024,125.667858964120,16.777506374259
$GNGGA,160143.00,3510.67254873,N,12207.90891278,W,2,14,0.8,6.781,M,-39.262,M,6.0,0131*66
$PYRTM,2024,125.667858964120,16.777506374259
$GNHDT,300.818,T*29
$PYRTM,2024,125.667864696609,16.777512106759
$GNGGA,160143.50,3510.67267695,N,12207.90922202,W,2,14,0.8,6.647,M,-39.262,M,6.4,0131*6E
$PYRTM,2024,125.667864696609,16.777512106759
$GNHDT,301.143,T*2F
$PYRTM,2024,125.667870539306,16.777517949444
$GNGGA,160144.00,3510.67276273,N,12207.90943046,W,2,14,0.8,6.673,M,-39.262,M,7.0,0131*67
$PYRTM,2024,125.667870539306,16.777517949444
$GNHDT,300.867,T*21
$PYRTM,2024,125.667876275208,16.777523685347
$GNGGA,160144.50,3510.67279546,N,12207.90958691,W,2,14,0.8,6.862,M,-39.262,M,7.4,0131*60
$PYRTM,2024,125.667876275208,16.777523685347
$GNHDT,300.705,T*2A
$PYRTM,2024,125.667882111597,16.777529521736
$GNGGA,160145.00,3510.67277024,N,12207.90976482,W,2,14,0.8,7.130,M,-39.262,M,7.0,0131*6C
$PYRTM,2024,125.667882111597,16.777529521736
$GNHDT,300.476,T*2D
$PYRTM,2024,125.667887839120,16.777535249259
$GNGGA,160145.50,3510.67269667,N,12207.91002258,W,2,14,0.8,7.368,M,-39.262,M,7.4,0131*66
$PYRTM,2024,125.667887839120,16.777535249259
$GNHDT,300.339,T*21
$PYRTM,2024,125.667893691366,16.777541101505
$GNGGA,160146.00,3510.67257293,N,12207.91039122,W,2,14,0.8,7.473,M,-39.262,M,7.0,0131*6D
$PYRTM,2024,125.667893691366,16.777541101505
$GNHDT,300.170,T*2E
$PYRTM,2024,125.667899421100,16.777546831238
$GNGGA,160146.50,3510.67241572,N,12207.91083462,W,2,14,0.8,7.416,M,-39.262,M,7.4,0131*60
$PYRTM,2024,125.667899421100,16.777546831238
$GNHDT,300.320,T*29
$PYRTM,2024,125.667905254583,16.777552664722
$GNGGA,160147.00,3510.67225417,N,12207.91128769,W,2,14,0.8,7.194,M,-39.262,M,4.0,0131*64
$PYRTM,2024,125.667905254583,16.777552664722
$GNHDT,300.195,T*25
$PYRTM,2024,125.667910989919,16.777558400058
$GNGGA,160147.50,3510.67214657,N,12207.91167210,W,2,14,0.8,6.901,M,-39.262,M,4.4,0131*64
$PYRTM,2024,125.667910989919,16.777558400058
$GNHDT,300.442,T*2A
$PYRTM,2024,125.667916834560,16.777564244699
$GNGGA,160148.00,3510.67213410,N,12207.91194357,W,2,14,0.8,6.567,M,-39.262,M,5.0,0131*6F
$PYRTM,2024,125.667916834560,16.777564244699
$GNHDT,301.368,T*24
$PYRTM,2024,125.667922568275,16.777569978414
$GNGGA,160148.50,3510.67221915,N,12207.91210370,W,2,14,0.8,6.271,M,-39.262,M,5.4,0131*6D
$PYRTM,2024,125.667922568275,16.777569978414
$GNHDT,301.696,T*20
$PYRTM,2024,125.667928413056,16.777575823194
$GNGGA,160149.00,3510.67237328,N,12207.91220225,W,2,14,0.8,6.061,M,-39.262,M,6.0,0131*6C
$PYRTM,2024,125.667928413056,16.777575823194
$GNHDT,301.871,T*27
$PYRTM,2024,125.667934138900,16.777581549039
$GNGGA,160149.50,3510.67254654,N,12207.91231617,W,2,14,0.8,5.998,M,-39.262,M,6.4,0131*6F
$PYRTM,2024,125.667934138900,16.777581549039
$GNHDT,301.867,T*20
$PYRTM,2024,125.667939982998,16.777587393137
$GNGGA,160150.00,3510.67266200,N,12207.91250463,W,2,14,0.8,6.184,M,-39.262,M,7.0,0131*63
$PYRTM,2024,125.667939982998,16.777587393137
$GNHDT,301.278,T*24
$PYRTM,2024,125.667945715822,16.777593125961
$GNGGA,160150.50,3510.67267992,N,12207.91278426,W,2,14,0.8,6.604,M,-39.262,M,7.4,0131*67
$PYRTM,2024,125.667945715822,16.777593125961
$GNHDT,301.446,T*2F
$PYRTM,2024,125.667951553924,16.777598964074
$GNGGA,160151.00,3510.67259393,N,12207.91313761,W,2,14,0.8,7.152,M,-39.262,M,7.0,0131*68
$PYRTM,2024,125.667951553924,16.777598964074
$GNHDT,301.433,T*2D
$PYRTM,2024,125.667957290648,16.777604700787
$GNGGA,160151.50,3510.67246231,N,12207.91356806,W,2,14,0.8,7.611,M,-39.262,M,7.4,0131*61
$PYRTM,2024,125.667957290648,16.777604700787
$GNHDT,301.108,T*20
$PYRTM,2024,125.667963128090,16.777610538229
$GNGGA,160152.00,3510.67235635,N,12207.91403224,W,2,14,0.8,7.847,M,-39.262,M,7.0,0131*67
$PYRTM,2024,125.667963128090,16.777610538229
$GNHDT,301.204,T*2F
$PYRTM,2024,125.667968856725,16.777616266875
$GNGGA,160152.50,3510.67234442,N,12207.91444317,W,2,14,0.8,7.773,M,-39.262,M,7.4,0131*6F
$PYRTM,2024,125.667968856725,16.777616266875
$GNHDT,301.490,T*24
$PYRTM,2024,125.667974702928,16.777622113067
$GNGGA,160153.00,3510.67242935,N,12207.91477455,W,2,14,0.8,7.461,M,-39.262,M,4.0,0131*61
$PYRTM,2024,125.667974702928,16.777622113067
$GNHDT,301.862,T*25
$PYRTM,2024,125.667980433634,16.777627843773
$GNGGA,160153.50,3510.67257677,N,12207.91502907,W,2,14,0.8,7.034,M,-39.262,M,4.4,0131*60
$PYRTM,2024,125.667980433634,16.777627843773
$GNHDT,301.787,T*21
$PYRTM,2024,125.667986277824,16.777633687963
$GNGGA,160154.00,3510.67274198,N,12207.91521920,W,2,14,0.8,6.657,M,-39.262,M,5.0,0131*66
$PYRTM,2024,125.667986277824,16.777633687963
$GNHDT,302.118,T*22
$PYRTM,2024,125.667992009178,16.777639419317
$GNGGA,160154.50,3510.67285784,N,12207.91536979,W,2,14,0.8,6.482,M,-39.262,M,5.4,0131*62
$PYRTM,2024,125.667992009178,16.777639419317
$GNHDT,301.252,T*2C
$PYRTM,2024,125.667997852465,16.777645262604
$GNGGA,160155.00,3510.67289358,N,12207.91549935,W,2,14,0.8,6.599,M,-39.262,M,6.0,0131*63
$PYRTM,2024,125.667997852465,16.777645262604
$GNHDT,301.114,T*2D
$PYRTM,2024,125.668003585532,16.777650995683
$GNGGA,160155.50,3510.67285763,N,12207.91565426,W,2,14,0.8,6.898,M,-39.262,M,6.4,0131*6F
$PYRTM,2024,125.668003585532,16.777650995683
$GNHDT,301.501,T*2D
$PYRTM,2024,125.668009429051,16.777656839190
$GNGGA,160156.00,3510.67277021,N,12207.91586476,W,2,14,0.8,7.233,M,-39.262,M,7.0,0131*62
$PYRTM,2024,125.668009429051,16.777656839190
$GNHDT,301.643,T*28
$PYRTM,2024,125.668015153831,16.777662563970
$GNGGA,160156.50,3510.67268087,N,12207.91616458,W,2,14,0.8,7.415,M,-39.262,M,7.4,0131*65
$PYRTM,2024,125.668015153831,16.777662563970
$GNHDT,301.828,T*2B
$PYRTM,2024,125.668021002766,16.777668412905
$GNGGA,160157.00,3510.67264397,N,12207.91654492,W,2,14,0.8,7.273,M,-39.262,M,7.0,0131*6D
$PYRTM,2024,125.668021002766,16.777668412905
$GNHDT,302.294,T*25
$PYRTM,2024,125.668026733368,16.777674143507
$GNGGA,160157.50,3510.67267501,N,12207.91694569,W,2,14,0.8,6.880,M,-39.262,M,7.4,0131*68
$PYRTM,2024,125.668026733368,16.777674143507
$GNHDT,302.601,T*2D
$PYRTM,2024,125.668032570613,16.777679980764
$GNGGA,160158.00,3510.67274333,N,12207.91730549,W,2,14,0.8,6.437,M,-39.262,M,7.0,0131*6E
$PYRTM,2024,125.668032570613,16.777679980764
$GNHDT,302.514,T*2A
$PYRTM,2024,125.668038302558,16.777685712697
$GNGGA,160158.50,3510.67280972,N,12207.91757092,W,2,14,0.8,6.101,M,-39.262,M,7.4,0131*69
$PYRTM,2024,125.668038302558,16.777685712697
$GNHDT,302.470,T*29
$PYRTM,2024,125.668044150347,16.777691560486
$GNGGA,160159.00,3510.67283071,N,12207.91773897,W,2,14,0.8,6.061,M,-39.262,M,4.0,0131*6F
$PYRTM,2024,125.668044150347,16.777691560486
$GNHDT,302.422,T*2E
$PYRTM,2024,125.668049886725,16.777697296863
$GNGGA,160159.50,3510.67279845,N,12207.91787290,W,2,14,0.8,6.270,M,-39.262,M,4.4,0131*60
$PYRTM,2024,125.668049886725,16.777697296863
$GNHDT,302.124,T*2D
$PYRTM,2024,125.668055720637,16.777703130775
$GNGGA,160200.00,3510.67273010,N,12207.91803425,W,2,14,0.8,6.591,M,-39.262,M,5.0,0131*6E
$PYRTM,2024,125.668055720637,16.777703130775
$GNHDT,302.082,T*20
$PYRTM,2024,125.668061455706,16.777708865845
$GNGGA,160200.50,3510.67265649,N,12207.91827610,W,2,14,0.8,6.874,M,-39.262,M,5.4,0131*66
$PYRTM,2024,125.668061455706,16.777708865845
$GNHDT,302.079,T*24
$PYRTM,2024,125.668067293484,16.777714703623
$GNGGA,160201.00,3510.67261839,N,12207.91861109,W,2,14,0.8,6.978,M,-39.262,M,6.0,0131*68
$PYRTM,2024,125.668067293484,16.777714703623
$GNHDT,302.227,T*2D
$PYRTM,2024,125.668073025000,16.777720435139
$GNGGA,160201.50,3510.67262905,N,12207.91897467,W,2,14,0.8,6.954,M,-39.262,M,6.4,0131*6E
$PYRTM,2024,125.668073025000,16.777720435139
$GNHDT,302.552,T*28
$PYRTM,2024,125.668078868993,16.777726279144
$GNGGA,160202.00,3510.67267504,N,12207.91932123,W,2,14,0.8,6.853,M,-39.262,M,7.0,0131*68
$PYRTM,2024,125.668078868993,16.777726279144
$GNHDT,302.439,T*24
$PYRTM,2024,125.668084603021,16.777732013171
$GNGGA,160202.50,3510.67271879,N,12207.91960937,W,2,14,0.8,6.801,M,-39.262,M,7.4,0131*64
$PYRTM,2024,125.668084603021,16.777732013171
$GNHDT,302.280,T*20
$PYRTM,2024,125.668090441030,16.777737851181
$GNGGA,160203.00,3510.67272872,N,12207.91983403,W,2,14,0.8,6.876,M,-39.262,M,7.0,0131*6B
$PYRTM,2024,125.668090441030,16.777737851181
$GNHDT,302.089,T*2B
$PYRTM,2024,125.668096178148,16.777743588299
$GNGGA,160203.50,3510.67269708,N,12207.92002470,W,2,14,0.8,7.093,M,-39.262,M,7.4,0131*67
$PYRTM,2024,125.668096178148,16.777743588299
$GNHDT,301.709,T*27
$PYRTM,2024,125.668102018553,16.777749428704
$GNGGA,160204.00,3510.67263465,N,12207.92021466,W,2,14,0.8,7.413,M,-39.262,M,7.0,0131*69
$PYRTM,2024,125.668102018553,16.777749428704
$GNHDT,301.664,T*2D
$PYRTM,2024,125.668107751632,16.777755161771
$GNGGA,160204.50,3510.67257698,N,12207.92042612,W,2,14,0.8,7.669,M,-39.262,M,7.4,0131*64
$PYRTM,2024,125.668107751632,16.777755161771
$GNHDT,301.468,T*23
$PYRTM,2024,125.668113590880,16.777761001019
$GNGGA,160205.00,3510.67255204,N,12207.92067857,W,2,14,0.8,7.763,M,-39.262,M,4.0,0131*67
$PYRTM,2024,125.668113590880,16.777761001019
$GNHDT,301.289,T*2A
$PYRTM,2024,125.668119324213,16.777766734352
$GNGGA,160205.50,3510.67257526,N,12207.92097544,W,2,14,0.8,7.637,M,-39.262,M,4.4,0131*63
$PYRTM,2024,125.668119324213,16.777766734352
$GNHDT,301.701,T*2F
$PYRTM,2024,125.668125164630,16.777772574769
$GNGGA,160206.00,3510.67264564,N,12207.92129974,W,2,14,0.8,7.313,M,-39.262,M,5.0,0131*6E
$PYRTM,2024,125.668125164630,16.777772574769
$GNHDT,301.756,T*2D
$PYRTM,2024,125.668130901852,16.777778311991
$GNGGA,160206.50,3510.67274829,N,12207.92162004,W,2,14,0.8,6.916,M,-39.262,M,5.4,0131*65
$PYRTM,2024,125.668130901852,16.777778311991
$GNHDT,301.787,T*21
$PYRTM,2024,125.668136739155,16.777784149294
$GNGGA,160207.00,3510.67287615,N,12207.92191739,W,2,14,0.8,6.548,M,-39.262,M,6.0,0131*69
$PYRTM,2024,125.668136739155,16.777784149294
$GNHDT,301.759,T*22
$PYRTM,2024,125.668142469525,16.777789879664
$GNGGA,160207.50,3510.67300126,N,12207.92219778,W,2,14,0.8,6.339,M,-39.262,M,6.4,0131*67
$PYRTM,2024,125.668142469525,16.777789879664
$GNHDT,301.851,T*25
$PYRTM,2024,125.668148312650,16.777795722789
$GNGGA,160208.00,3510.67310539,N,12207.92247865,W,2,14,0.8,6.350,M,-39.262,M,7.0,0131*64
$PYRTM,2024,125.668148312650,16.777795722789
$GNHDT,301.892,T*2A
$PYRTM,2024,125.668154046748,16.777801456887
$GNGGA,160208.50,3510.67315045,N,12207.92277206,W,2,14,0.8,6.600,M,-39.262,M,7.4,0131*62
$PYRTM,2024,125.668154046748,16.777801456887
$GNHDT,301.391,T*22
$PYRTM,2024,125.668159897581,16.777807307720
$GNGGA,160209.00,3510.67312345,N,12207.92308360,W,2,14,0.8,7.027,M,-39.262,M,7.0,0131*6C
$PYRTM,2024,125.668159897581,16.777807307720
$GNHDT,300.964,T*23
$PYRTM,2024,125.668165619537,16.777813029676
$GNGGA,160209.50,3510.67303861,N,12207.92340344,W,2,14,0.8,7.481,M,-39.262,M,7.4,0131*62
$PYRTM,2024,125.668165619537,16.777813029676
$GNHDT,300.878,T*2F
$PYRTM,2024,125.668171464363,16.777818874502
$GNGGA,160210.00,3510.67292855,N,12207.92371653,W,2,14,0.8,7.867,M,-39.262,M,7.0,0131*60
$PYRTM,2024,125.668171464363,16.777818874502
$GNHDT,300.485,T*21
$PYRTM,2024,125.668177197488,16.777824607639
$GNGGA,160210.50,3510.67284167,N,12207.92400796,W,2,14,0.8,8.046,M,-39.262,M,7.4,0131*63
$PYRTM,2024,125.668177197488,16.777824607639
$GNHDT,300.083,T*23
$PYRTM,2024,125.668183038877,16.777830449016
$GNGGA,160211.00,3510.67279415,N,12207.92426253,W,2,14,0.8,7.980,M,-39.262,M,4.0,0131*66
$PYRTM,2024,125.668183038877,16.777830449016
$GNHDT,300.180,T*21
$PYRTM,2024,125.668188768727,16.777836178866
$GNGGA,160211.50,3510.67278502,N,12207.92447689,W,2,14,0.8,7.733,M,-39.262,M,4.4,0131*63
$PYRTM,2024,125.668188768727,16.777836178866
$GNHDT,300.447,T*2F
$PYRTM,2024,125.668194609861,16.777842020012
$GNGGA,160212.00,3510.67279852,N,12207.92466529,W,2,14,0.8,7.336,M,-39.262,M,5.0,0131*62
$PYRTM,2024,125.668194609861,16.777842020012
$GNHDT,300.591,T*25
$PYRTM,2024,125.668200342963,16.777847753102
$GNGGA,160212.50,3510.67281672,N,12207.92485059,W,2,14,0.8,6.890,M,-39.262,M,5.4,0131*61
$PYRTM,2024,125.668200342963,16.777847753102
$GNHDT,300.886,T*2E
$PYRTM,2024,125.668206189456,16.777853599595
$GNGGA,160213.00,3510.67283032,N,12207.92506227,W,2,14,0.8,6.408,M,-39.262,M,6.0,0131*6E
$PYRTM,2024,125.668206189456,16.777853599595
$GNHDT,300.920,T*23
$PYRTM,2024,125.668211919444,16.777859329583
$GNGGA,160213.50,3510.67283976,N,12207.92531825,W,2,14,0.8,5.997,M,-39.262,M,6.4,0131*62
$PYRTM,2024,125.668211919444,16.777859329583
$GNHDT,300.557,T*2F
$PYRTM,2024,125.668217756968,16.777865167106
$GNGGA,160214.00,3510.67283030,N,12207.92561413,W,2,14,0.8,5.735,M,-39.262,M,7.0,0131*64
$PYRTM,2024,125.668217756968,16.777865167106
$GNHDT,300.620,T*2C
$PYRTM,2024,125.668223494537,16.777870904676
$GNGGA,160214.50,3510.67279131,N,12207.92592933,W,2,14,0.8,5.709,M,-39.262,M,7.4,0131*6C
$PYRTM,2024,125.668223494537,16.777870904676
$GNHDT,300.591,T*25
$PYRTM,2024,125.668229335093,16.777876745231
$GNGGA,160215.00,3510.67272216,N,12207.92625227,W,2,14,0.8,5.926,M,-39.262,M,7.0,0131*63
$PYRTM,2024,125.668229335093,16.777876745231
$GNHDT,300.293,T*20
$PYRTM,2024,125.668235071412,16.777882481551
$GNGGA,160215.50,3510.67265291,N,12207.92657776,W,2,14,0.8,6.306,M,-39.262,M,7.4,0131*64
$PYRTM,2024,125.668235071412,16.777882481551
$GNHDT,300.189,T*28
$PYRTM,2024,125.668240905880,16.777888316019
$GNGGA,160216.00,3510.67261915,N,12207.92689915,W,2,14,0.8,6.718,M,-39.262,M,7.0,0131*66
$PYRTM,2024,125.668240905880,16.777888316019
$GNHDT,299.701,T*2F
$PYRTM,2024,125.668246635984,16.777894046123
$GNGGA,160216.50,3510.67263170,N,12207.92721222,W,2,14,0.8,7.097,M,-39.262,M,7.4,0131*63
$PYRTM,2024,125.668246635984,16.777894046123
$GNHDT,299.478,T*22
$PYRTM,2024,125.668252482025,16.777899892164
$GNGGA,160217.00,3510.67266791,N,12207.92755215,W,2,14,0.8,7.372,M,-39.262,M,4.0,0131*63
$PYRTM,2024,125.668252482025,16.777899892164
$GNHDT,298.843,T*27
$PYRTM,2024,125.668258214468,16.777905624606
$GNGGA,160217.50,3510.67268766,N,12207.92792342,W,2,14,0.8,7.531,M,-39.262,M,4.4,0131*6D
$PYRTM,2024,125.668258214468,16.777905624606
$GNHDT,298.293,T*20
$PYRTM,2024,125.668264055741,16.777911465880
$GNGGA,160218.00,3510.67268922,N,12207.92831611,W,2,14,0.8,7.575,M,-39.262,M,5.0,0131*69
$PYRTM,2024,125.668264055741,16.777911465880
$GNHDT,298.202,T*28
$PYRTM,2024,125.668269787118,16.777917197257
$GNGGA,160218.50,3510.67268760,N,12207.92867516,W,2,14,0.8,7.531,M,-39.262,M,5.4,0131*67
$PYRTM,2024,125.668269787118,16.777917197257
$GNHDT,298.900,T*21
$PYRTM,2024,125.668275634167,16.777923044317
$GNGGA,160219.00,3510.67271029,N,12207.92897055,W,2,14,0.8,7.406,M,-39.262,M,6.0,0131*6E
$PYRTM,2024,125.668275634167,16.777923044317
$GNHDT,298.614,T*2B
$PYRTM,2024,125.668281364514,16.777928774653
$GNGGA,160219.50,3510.67276868,N,12207.92916801,W,2,14,0.8,7.282,M,-39.262,M,6.4,0131*6E
$PYRTM,2024,125.668281364514,16.777928774653
$GNHDT,299.559,T*20
$PYRTM,2024,125.668287205278,16.777934615417
$GNGGA,160220.00,3510.67285010,N,12207.92927469,W,2,14,0.8,7.224,M,-39.262,M,7.0,0131*63
$PYRTM,2024,125.668287205278,16.777934615417
$GNHDT,300.043,T*2F
$PYRTM,2024,125.668292938542,16.777940348681
$GNGGA,160220.50,3510.67291816,N,12207.92935530,W,2,14,0.8,7.261,M,-39.262,M,7.4,0131*66
$PYRTM,2024,125.668292938542,16.777940348681
$GNHDT,300.515,T*29
$PYRTM,2024,125.668298774132,16.777946184271
$GNGGA,160221.00,3510.67296040,N,12207.92947784,W,2,14,0.8,7.357,M,-39.262,M,7.0,0131*66
$PYRTM,2024,125.668298774132,16.777946184271
$GNHDT,300.487,T*23
$PYRTM,2024,125.668304510521,16.777951920660
$GNGGA,160221.50,3510.67296982,N,12207.92970386,W,2,14,0.8,7.420,M,-39.262,M,7.4,0131*65
$PYRTM,2024,125.668304510521,16.777951920660
$GNHDT,300.174,T*2A
$PYRTM,2024,125.668310348021,16.777957758160
$GNGGA,160222.00,3510.67295382,N,12207.93002921,W,2,14,0.8,7.391,M,-39.262,M,7.0,0131*69
$PYRTM,2024,125.668310348021,16.777957758160
$GNHDT,299.961,T*27
$PYRTM,2024,125.668316080671,16.777963490810
$GNGGA,160222.50,3510.67292092,N,12207.93044989,W,2,14,0.8,7.241,M,-39.262,M,7.4,0131*61
$PYRTM,2024,125.668316080671,16.777963490810
$GNHDT,299.522,T*2C
$PYRTM,2024,125.668321931574,16.777969341725
$GNGGA,160223.00,3510.67287551,N,12207.93091611,W,2,14,0.8,6.962,M,-39.262,M,4.0,0131*61
$PYRTM,2024,125.668321931574,16.777969341725
$GNHDT,299.082,T*23
$PYRTM,2024,125.668327660799,16.777975070937
$GNGGA,160223.50,3510.67281495,N,12207.93137974,W,2,14,0.8,6.673,M,-39.262,M,4.4,0131*61
$PYRTM,2024,125.668327660799,16.777975070937
$GNHDT,299.113,T*2A
$PYRTM,2024,125.668333503067,16.777980913206
$GNGGA,160224.00,3510.67275593,N,12207.93178355,W,2,14,0.8,6.420,M,-39.262,M,5.0,0131*6C
$PYRTM,2024,125.668333503067,16.777980913206
$GNHDT,299.082,T*23
$PYRTM,2024,125.668339235926,16.777986646065
$GNGGA,160224.50,3510.67274148,N,12207.93209515,W,2,14,0.8,6.247,M,-39.262,M,5.4,0131*6E
$PYRTM,2024,125.668339235926,16.777986646065
$GNHDT,299.105,T*2D
$PYRTM,2024,125.668345077812,16.777992487951
$GNGGA,160225.00,3510.67280030,N,12207.93231405,W,2,14,0.8,6.154,M,-39.262,M,6.0,0131*62
$PYRTM,2024,125.668345077812,16.777992487951
$GNHDT,299.690,T*26
$PYRTM,2024,125.668350808264,16.777998218403
$GNGGA,160225.50,3510.67293169,N,12207.93248242,W,2,14,0.8,6.111,M,-39.262,M,6.4,0131*66
$PYRTM,2024,125.668350808264,16.777998218403
$GNHDT,300.496,T*23
$PYRTM,2024,125.668356648866,16.778004059005
$GNGGA,160226.00,3510.67309716,N,12207.93267453,W,2,14,0.8,6.100,M,-39.262,M,7.0,0131*62
$PYRTM,2024,125.668356648866,16.778004059005
$GNHDT,300.752,T*28
$PYRTM,2024,125.668362381296,16.778009791435
$GNGGA,160226.50,3510.67320257,N,12207.93290678,W,2,14,0.8,6.258,M,-39.262,M,7.4,0131*65
$PYRTM,2024,125.668362381296,16.778009791435
$GNHDT,300.293,T*20
$PYRTM,2024,125.668368218808,16.778015628947
$GNGGA,160227.00,3510.67317894,N,12207.93320088,W,2,14,0.8,6.649,M,-39.262,M,7.0,0131*63
$PYRTM,2024,125.668368218808,16.778015628947
$GNHDT,299.784,T*22
$PYRTM,2024,125.668373956215,16.778021366354
$GNGGA,160227.50,3510.67304106,N,12207.93352439,W,2,14,0.8,7.186,M,-39.262,M,7.4,0131*6C
$PYRTM,2024,125.668373956215,16.778021366354
$GNHDT,299.742,T*28
$PYRTM,2024,125.668379795509,16.778027205660
$GNGGA,160228.00,3510.67280401,N,12207.93387554,W,2,14,0.8,7.757,M,-39.262,M,7.0,0131*65
$PYRTM,2024,125.668379795509,16.778027205660
$GNHDT,299.459,T*21
$PYRTM,2024,125.668385524687,16.778032934838
$GNGGA,160228.50,3510.67255909,N,12207.93423665,W,2,14,0.8,8.117,M,-39.263,M,7.4,0131*6D
$PYRTM,2024,125.668385524687,16.778032934838
$GNHDT,299.319,T*22
$PYRTM,2024,125.668391367523,16.778038777662
