$PYRTM,2024,127.083339018414,18.192986428553
$GNGGA,020000.50,3359.90966399,N,11921.47557007,W,2,10,1.0,8.245,M,-37.400,M,4.4,0131*69
$PYRTM,2024,127.083339018414,18.192986428553
$GNHDT,68.236,T*12
$PYRTM,2024,127.083344855498,18.192992265637
$GNGGA,020001.00,3359.90974174,N,11921.47540185,W,2,10,1.0,8.294,M,-37.400,M,5.0,0131*6B
$PYRTM,2024,127.083344855498,18.192992265637
$GNHDT,68.494,T*1C
$PYRTM,2024,127.083350592176,18.192998002315
$GNGGA,020001.50,3359.90981402,N,11921.47521396,W,2,10,1.0,8.307,M,-37.400,M,5.4,0131*68
$PYRTM,2024,127.083350592176,18.192998002315
$GNHDT,68.952,T*1B
$PYRTM,2024,127.083356428981,18.193003839120
$GNGGA,020002.00,3359.90990754,N,11921.47501116,W,2,10,1.0,8.270,M,-37.400,M,6.0,0131*60
$PYRTM,2024,127.083356428981,18.193003839120
$GNHDT,69.354,T*16
$PYRTM,2024,127.083362171123,18.193009581262
$GNGGA,020002.50,3359.90999536,N,11921.47479059,W,2,10,1.0,8.222,M,-37.400,M,6.4,0131*6D
$PYRTM,2024,127.083362171123,18.193009581262
$GNHDT,69.216,T*11
$PYRTM,2024,127.083368006493,18.193015416632
$GNGGA,020003.00,3359.91007863,N,11921.47455940,W,2,10,1.0,8.169,M,-37.400,M,7.0,0131*6D
$PYRTM,2024,127.083368006493,18.193015416632
$GNHDT,69.540,T*15
$PYRTM,2024,127.083373743912,18.193021154051
$GNGGA,020003.50,3359.91015794,N,11921.47433261,W,2,10,1.0,8.154,M,-37.400,M,7.4,0131*6E
$PYRTM,2024,127.083373743912,18.193021154051
$GNHDT,69.975,T*1F
$PYRTM,2024,127.083379581794,18.193026991933
$GNGGA,020004.00,3359.91024253,N,11921.47412684,W,2,10,1.0,8.198,M,-37.400,M,7.0,0131*68
$PYRTM,2024,127.083379581794,18.193026991933
$GNHDT,70.084,T*10
$PYRTM,2024,127.083385319560,18.193032729699
$GNGGA,020004.50,3359.91033107,N,11921.47393182,W,2,10,1.0,8.297,M,-37.400,M,7.4,0131*6E
$PYRTM,2024,127.083385319560,18.193032729699
$GNHDT,70.526,T*1D
$PYRTM,2024,127.083391150914,18.193038561053
$GNGGA,020005.00,3359.91042887,N,11921.47373829,W,2,10,1.0,8.419,M,-37.400,M,7.0,0131*6F
$PYRTM,2024,127.083391150914,18.193038561053
$GNHDT,70.719,T*13
$PYRTM,2024,127.083396899028,18.193044309167
$GNGGA,020005.50,3359.91053969,N,11921.47353979,W,2,10,1.0,8.525,M,-37.400,M,7.4,0131*67
$PYRTM,2024,127.083396899028,18.193044309167
$GNHDT,71.096,T*12
$PYRTM,2024,127.083402724282,18.193050134421
$GNGGA,020006.00,3359.91065838,N,11921.47332967,W,2,10,1.0,8.563,M,-37.400,M,4.0,0131*6C
$PYRTM,2024,127.083402724282,18.193050134421
$GNHDT,71.366,T*1E
$PYRTM,2024,127.083408463264,18.193055873403
$GNGGA,020006.50,3359.91077400,N,11921.47311458,W,2,10,1.0,8.540,M,-37.400,M,4.4,0131*68
$PYRTM,2024,127.083408463264,18.193055873403
$GNHDT,71.489,T*18
$PYRTM,2024,127.083414301343,18.193061711481
$GNGGA,020007.00,3359.91087792,N,11921.47289689,W,2,10,1.0,8.444,M,-37.400,M,5.0,0131*65
$PYRTM,2024,127.083414301343,18.193061711481
$GNHDT,71.941,T*11
$PYRTM,2024,127.083420041620,18.193067451759
$GNGGA,020007.50,3359.91096565,N,11921.47267571,W,2,10,1.0,8.318,M,-37.400,M,5.4,0131*64
$PYRTM,2024,127.083420041620,18.193067451759
$GNHDT,72.274,T*1F
$PYRTM,2024,127.083425873588,18.193073283727
$GNGGA,020008.00,3359.91102910,N,11921.47245704,W,2,10,1.0,8.163,M,-37.400,M,6.0,0131*65
$PYRTM,2024,127.083425873588,18.193073283727
$GNHDT,72.746,T*1B
$PYRTM,2024,127.083431613681,18.193079023819
$GNGGA,020008.50,3359.91107796,N,11921.47224207,W,2,10,1.0,8.030,M,-37.400,M,6.4,0131*67
$PYRTM,2024,127.083431613681,18.193079023819
$GNHDT,73.057,T*1D
$PYRTM,2024,127.083437448484,18.193084858623
$GNGGA,020009.00,3359.91112662,N,11921.47203646,W,2,10,1.0,7.928,M,-37.400,M,7.0,0131*63
$PYRTM,2024,127.083437448484,18.193084858623
$GNHDT,73.353,T*1A
$PYRTM,2024,127.083443184664,18.193090594815
$GNGGA,020009.50,3359.91118127,N,11921.47184395,W,2,10,1.0,7.865,M,-37.400,M,7.4,0131*61
$PYRTM,2024,127.083443184664,18.193090594815
$GNHDT,73.729,T*13
$PYRTM,2024,127.083449026319,18.193096436458
$GNGGA,020010.00,3359.91124673,N,11921.47166518,W,2,10,1.0,7.851,M,-37.400,M,7.0,0131*69
$PYRTM,2024,127.083449026319,18.193096436458
$GNHDT,74.179,T*17
$PYRTM,2024,127.083454762859,18.193102172998
$GNGGA,020010.50,3359.91132508,N,11921.47149544,W,2,10,1.0,7.864,M,-37.400,M,7.4,0131*62
$PYRTM,2024,127.083454762859,18.193102172998
$GNHDT,74.411,T*1C
$PYRTM,2024,127.083460595648,18.193108005787
$GNGGA,020011.00,3359.91140912,N,11921.47133610,W,2,10,1.0,7.887,M,-37.400,M,7.0,0131*62
$PYRTM,2024,127.083460595648,18.193108005787
$GNHDT,74.776,T*1E
$PYRTM,2024,127.083466333935,18.193113744074
$GNGGA,020011.50,3359.91149115,N,11921.47117411,W,2,10,1.0,7.898,M,-37.400,M,7.4,0131*6E
$PYRTM,2024,127.083466333935,18.193113744074
$GNHDT,75.024,T*1F
$PYRTM,2024,127.083472171019,18.193119581157
$GNGGA,020012.00,3359.91156413,N,11921.47099995,W,2,10,1.0,7.893,M,-37.400,M,4.0,0131*6F
$PYRTM,2024,127.083472171019,18.193119581157
$GNHDT,75.183,T*13
$PYRTM,2024,127.083477909387,18.193125319525
$GNGGA,020012.50,3359.91162735,N,11921.47080840,W,2,10,1.0,7.880,M,-37.400,M,4.4,0131*6D
$PYRTM,2024,127.083477909387,18.193125319525
$GNHDT,75.694,T*12
$PYRTM,2024,127.083483744919,18.193131155058
$GNGGA,020013.00,3359.91168916,N,11921.47061311,W,2,10,1.0,7.854,M,-37.400,M,5.0,0131*60
$PYRTM,2024,127.083483744919,18.193131155058
$GNHDT,75.929,T*1B
$PYRTM,2024,127.083489481065,18.193136891204
$GNGGA,020013.50,3359.91174512,N,11921.47041596,W,2,10,1.0,7.832,M,-37.400,M,5.4,0131*6F
$PYRTM,2024,127.083489481065,18.193136891204
$GNHDT,76.322,T*19
$PYRTM,2024,127.083495318079,18.193142728218
$GNGGA,020014.00,3359.91179282,N,11921.47021774,W,2,10,1.0,7.833,M,-37.400,M,6.0,0131*60
$PYRTM,2024,127.083495318079,18.193142728218
$GNHDT,76.773,T*19
$PYRTM,2024,127.083501056898,18.193148467037
$GNGGA,020014.50,3359.91183490,N,11921.47002267,W,2,10,1.0,7.880,M,-37.400,M,6.4,0131*6F
$PYRTM,2024,127.083501056898,18.193148467037
$GNHDT,76.995,T*1F
$PYRTM,2024,127.083506899144,18.193154309282
$GNGGA,020015.00,3359.91187240,N,11921.46983126,W,2,10,1.0,7.948,M,-37.400,M,7.0,0131*63
$PYRTM,2024,127.083506899144,18.193154309282
$GNHDT,77.406,T*19
$PYRTM,2024,127.083512629919,18.193160040058
$GNGGA,020015.50,3359.91191809,N,11921.46963901,W,2,10,1.0,8.020,M,-37.400,M,7.4,0131*69
$PYRTM,2024,127.083512629919,18.193160040058
$GNHDT,77.691,T*15
$PYRTM,2024,127.083518470278,18.193165880417
$GNGGA,020016.00,3359.91196974,N,11921.46944337,W,2,10,1.0,8.102,M,-37.400,M,7.0,0131*6C
$PYRTM,2024,127.083518470278,18.193165880417
$GNHDT,78.106,T*13
$PYRTM,2024,127.083524205567,18.193171615718
$GNGGA,020016.50,3359.91203359,N,11921.46924485,W,2,10,1.0,8.155,M,-37.400,M,7.4,0131*6D
$PYRTM,2024,127.083524205567,18.193171615718
$GNHDT,78.397,T*19
$PYRTM,2024,127.083530043565,18.193177453704
$GNGGA,020017.00,3359.91210852,N,11921.46903971,W,2,10,1.0,8.212,M,-37.400,M,7.0,0131*6C
$PYRTM,2024,127.083530043565,18.193177453704
$GNHDT,78.641,T*17
$PYRTM,2024,127.083535785833,18.193183195984
$GNGGA,020017.50,3359.91219429,N,11921.46883575,W,2,10,1.0,8.227,M,-37.400,M,7.4,0131*63
$PYRTM,2024,127.083535785833,18.193183195984
$GNHDT,79.149,T*19
$PYRTM,2024,127.083541617859,18.193189027998
$GNGGA,020018.00,3359.91228445,N,11921.46863635,W,2,10,1.0,8.184,M,-37.400,M,4.0,0131*65
$PYRTM,2024,127.083541617859,18.193189027998
$GNHDT,79.498,T*10
$PYRTM,2024,127.083547352315,18.193194762454
$GNGGA,020018.50,3359.91236965,N,11921.46844418,W,2,10,1.0,8.114,M,-37.400,M,4.4,0131*65
$PYRTM,2024,127.083547352315,18.193194762454
$GNHDT,79.814,T*18
$PYRTM,2024,127.083553189514,18.193200599653
$GNGGA,020019.00,3359.91244127,N,11921.46825189,W,2,10,1.0,8.025,M,-37.400,M,5.0,0131*66
$PYRTM,2024,127.083553189514,18.193200599653
$GNHDT,80.123,T*13
$PYRTM,2024,127.083558932002,18.193206342153
$GNGGA,020019.50,3359.91250297,N,11921.46806102,W,2,10,1.0,7.919,M,-37.400,M,5.4,0131*61
$PYRTM,2024,127.083558932002,18.193206342153
$GNHDT,80.384,T*1C
$PYRTM,2024,127.083564765069,18.193212175208
$GNGGA,020020.00,3359.91255923,N,11921.46786737,W,2,10,1.0,7.837,M,-37.400,M,6.0,0131*62
$PYRTM,2024,127.083564765069,18.193212175208
$GNHDT,80.639,T*1F
$PYRTM,2024,127.083570499016,18.193217909155
$GNGGA,020020.50,3359.91262025,N,11921.46767478,W,2,10,1.0,7.802,M,-37.400,M,6.4,0131*69
$PYRTM,2024,127.083570499016,18.193217909155
$GNHDT,81.139,T*19
$PYRTM,2024,127.083576337234,18.193223747373
$GNGGA,020021.00,3359.91269474,N,11921.46747414,W,2,10,1.0,7.836,M,-37.400,M,7.0,0131*6C
$PYRTM,2024,127.083576337234,18.193223747373
$GNHDT,81.651,T*10
$PYRTM,2024,127.083582075486,18.193229485625
$GNGGA,020021.50,3359.91278821,N,11921.46727418,W,2,10,1.0,7.946,M,-37.400,M,7.4,0131*6D
$PYRTM,2024,127.083582075486,18.193229485625
$GNHDT,82.056,T*12
$PYRTM,2024,127.083587914317,18.193235324468
$GNGGA,020022.00,3359.91288929,N,11921.46706551,W,2,10,1.0,8.135,M,-37.400,M,7.0,0131*65
$PYRTM,2024,127.083587914317,18.193235324468
$GNHDT,82.463,T*10
$PYRTM,2024,127.083593659086,18.193241069225
$GNGGA,020022.50,3359.91299250,N,11921.46685743,W,2,10,1.0,8.357,M,-37.400,M,7.4,0131*6C
$PYRTM,2024,127.083593659086,18.193241069225
$GNHDT,82.893,T*13
$PYRTM,2024,127.083599485613,18.193246895752
$GNGGA,020023.00,3359.91308351,N,11921.46663945,W,2,10,1.0,8.570,M,-37.400,M,7.0,0131*66
$PYRTM,2024,127.083599485613,18.193246895752
$GNHDT,83.365,T*10
$PYRTM,2024,127.083605226528,18.193252636667
$GNGGA,020023.50,3359.91315908,N,11921.46641721,W,2,10,1.0,8.713,M,-37.400,M,7.4,0131*66
$PYRTM,2024,127.083605226528,18.193252636667
$GNHDT,83.874,T*1B
$PYRTM,2024,127.083611059919,18.193258470058
$GNGGA,020024.00,3359.91322376,N,11921.46618922,W,2,10,1.0,8.759,M,-37.400,M,4.0,0131*6B
$PYRTM,2024,127.083611059919,18.193258470058
$GNHDT,84.140,T*12
$PYRTM,2024,127.083616804340,18.193264214479
$GNGGA,020024.50,3359.91328582,N,11921.46594721,W,2,10,1.0,8.676,M,-37.400,M,4.4,0131*6B
$PYRTM,2024,127.083616804340,18.193264214479
$GNHDT,84.368,T*1A
$PYRTM,2024,127.083622636505,18.193270046655
$GNGGA,020025.00,3359.91335382,N,11921.46569837,W,2,10,1.0,8.505,M,-37.400,M,5.0,0131*6D
$PYRTM,2024,127.083622636505,18.193270046655
$GNHDT,84.702,T*12
$PYRTM,2024,127.083628369873,18.193275780012
$GNGGA,020025.50,3359.91343372,N,11921.46545359,W,2,10,1.0,8.283,M,-37.400,M,5.4,0131*66
$PYRTM,2024,127.083628369873,18.193275780012
$GNHDT,84.904,T*1A
$PYRTM,2024,127.083634207928,18.193281618079
$GNGGA,020026.00,3359.91352016,N,11921.46522257,W,2,10,1.0,8.075,M,-37.400,M,6.0,0131*63
$PYRTM,2024,127.083634207928,18.193281618079
$GNHDT,85.267,T*15
$PYRTM,2024,127.083639952558,18.193287362697
$GNGGA,020026.50,3359.91361316,N,11921.46500960,W,2,10,1.0,7.930,M,-37.400,M,6.4,0131*69
$PYRTM,2024,127.083639952558,18.193287362697
$GNHDT,85.521,T*10
$PYRTM,2024,127.083645786076,18.193293196215
$GNGGA,020027.00,3359.91370280,N,11921.46481525,W,2,10,1.0,7.875,M,-37.400,M,7.0,0131*63
$PYRTM,2024,127.083645786076,18.193293196215
$GNHDT,85.808,T*16
$PYRTM,2024,127.083651522141,18.193298932280
$GNGGA,020027.50,3359.91379170,N,11921.46462443,W,2,10,1.0,7.896,M,-37.400,M,7.4,0131*66
$PYRTM,2024,127.083651522141,18.193298932280
$GNHDT,86.245,T*16
$PYRTM,2024,127.083657359549,18.193304769688
$GNGGA,020028.00,3359.91387543,N,11921.46442756,W,2,10,1.0,7.976,M,-37.400,M,7.0,0131*67
$PYRTM,2024,127.083657359549,18.193304769688
$GNHDT,86.569,T*1F
$PYRTM,2024,127.083663098183,18.193310508322
$GNGGA,020028.50,3359.91394873,N,11921.46422135,W,2,10,1.0,8.074,M,-37.400,M,7.4,0131*6B
$PYRTM,2024,127.083663098183,18.193310508322
$GNHDT,87.040,T*10
$PYRTM,2024,127.083668929931,18.193316340069
$GNGGA,020029.00,3359.91400828,N,11921.46399723,W,2,10,1.0,8.159,M,-37.400,M,7.0,0131*67
$PYRTM,2024,127.083668929931,18.193316340069
$GNHDT,87.571,T*17
$PYRTM,2024,127.083674671944,18.193322082083
$GNGGA,020029.50,3359.91405089,N,11921.46377069,W,2,10,1.0,8.234,M,-37.400,M,7.4,0131*61
$PYRTM,2024,127.083674671944,18.193322082083
$GNHDT,88.142,T*1C
$PYRTM,2024,127.083680505556,18.193327915694
$GNGGA,020030.00,3359.91408375,N,11921.46354911,W,2,10,1.0,8.262,M,-37.400,M,4.0,0131*62
$PYRTM,2024,127.083680505556,18.193327915694
$GNHDT,88.503,T*1D
$PYRTM,2024,127.083686240417,18.193333650556
$GNGGA,020030.50,3359.91411699,N,11921.46333162,W,2,10,1.0,8.276,M,-37.400,M,4.4,0131*64
$PYRTM,2024,127.083686240417,18.193333650556
$GNHDT,88.993,T*18
$PYRTM,2024,127.083692079329,18.193339489468
$GNGGA,020031.00,3359.91415780,N,11921.46311491,W,2,10,1.0,8.279,M,-37.400,M,5.0,0131*6E
$PYRTM,2024,127.083692079329,18.193339489468
$GNHDT,89.221,T*1B
$PYRTM,2024,127.083697815220,18.193345225359
$GNGGA,020031.50,3359.91422464,N,11921.46289490,W,2,10,1.0,8.245,M,-37.400,M,5.4,0131*6C
$PYRTM,2024,127.083697815220,18.193345225359
$GNHDT,89.493,T*14
$PYRTM,2024,127.083703652708,18.193351062847
$GNGGA,020032.00,3359.91430765,N,11921.46266959,W,2,10,1.0,8.222,M,-37.400,M,6.0,0131*64
$PYRTM,2024,127.083703652708,18.193351062847
$GNHDT,89.823,T*13
$PYRTM,2024,127.083709396250,18.193356806389
$GNGGA,020032.50,3359.91440223,N,11921.46245082,W,2,10,1.0,8.191,M,-37.400,M,6.4,0131*60
$PYRTM,2024,127.083709396250,18.193356806389
$GNHDT,89.973,T*17
$PYRTM,2024,127.083715228530,18.193362638681
$GNGGA,020033.00,3359.91448738,N,11921.46223183,W,2,10,1.0,8.157,M,-37.400,M,7.0,0131*6C
$PYRTM,2024,127.083715228530,18.193362638681
$GNHDT,90.284,T*1C
$PYRTM,2024,127.083720969294,18.193368379444
$GNGGA,020033.50,3359.91455192,N,11921.46202535,W,2,10,1.0,8.120,M,-37.400,M,7.4,0131*6D
$PYRTM,2024,127.083720969294,18.193368379444
$GNHDT,90.883,T*11
$PYRTM,2024,127.083726800035,18.193374210185
$GNGGA,020034.00,3359.91458650,N,11921.46183197,W,2,10,1.0,8.089,M,-37.400,M,7.0,0131*6B
$PYRTM,2024,127.083726800035,18.193374210185
$GNHDT,91.265,T*12
$PYRTM,2024,127.083732537164,18.193379947315
$GNGGA,020034.50,3359.91460378,N,11921.46165276,W,2,10,1.0,8.047,M,-37.400,M,7.4,0131*68
$PYRTM,2024,127.083732537164,18.193379947315
$GNHDT,91.669,T*1A
$PYRTM,2024,127.083738375810,18.193385785949
$GNGGA,020035.00,3359.91460819,N,11921.46147083,W,2,10,1.0,8.007,M,-37.400,M,7.0,0131*68
$PYRTM,2024,127.083738375810,18.193385785949
$GNHDT,91.977,T*1A
$PYRTM,2024,127.083744115671,18.193391525822
$GNGGA,020035.50,3359.91462348,N,11921.46129079,W,2,10,1.0,7.965,M,-37.400,M,7.4,0131*6B
$PYRTM,2024,127.083744115671,18.193391525822
$GNHDT,92.332,T*12
$PYRTM,2024,127.083749951400,18.193397361539
$GNGGA,020036.00,3359.91465306,N,11921.46110884,W,2,10,1.0,7.945,M,-37.400,M,4.0,0131*65
$PYRTM,2024,127.083749951400,18.193397361539
$GNHDT,92.748,T*1B
$PYRTM,2024,127.083755686319,18.193403096470
$GNGGA,020036.50,3359.91470671,N,11921.46092287,W,2,10,1.0,7.938,M,-37.400,M,4.4,0131*6D
$PYRTM,2024,127.083755686319,18.193403096470
$GNHDT,92.983,T*12
$PYRTM,2024,127.083761529815,18.193408939954
$GNGGA,020037.00,3359.91477350,N,11921.46073647,W,2,10,1.0,7.969,M,-37.400,M,5.0,0131*6E
$PYRTM,2024,127.083761529815,18.193408939954
$GNHDT,93.526,T*10
$PYRTM,2024,127.083767262037,18.193414672188
$GNGGA,020037.50,3359.91484829,N,11921.46055160,W,2,10,1.0,8.000,M,-37.400,M,5.4,0131*69
$PYRTM,2024,127.083767262037,18.193414672188
$GNHDT,93.737,T*12
$PYRTM,2024,127.083773096111,18.193420506250
$GNGGA,020038.00,3359.91491362,N,11921.46036332,W,2,10,1.0,8.052,M,-37.400,M,6.0,0131*63
$PYRTM,2024,127.083773096111,18.193420506250
$GNHDT,94.212,T*17
$PYRTM,2024,127.083778840671,18.193426250810
$GNGGA,020038.50,3359.91496845,N,11921.46016755,W,2,10,1.0,8.103,M,-37.400,M,6.4,0131*69
$PYRTM,2024,127.083778840671,18.193426250810
$GNHDT,94.708,T*19
$PYRTM,2024,127.083784672685,18.193432082824
$GNGGA,020039.00,3359.91500470,N,11921.45996364,W,2,10,1.0,8.157,M,-37.400,M,7.0,0131*69
$PYRTM,2024,127.083784672685,18.193432082824
$GNHDT,95.193,T*1C
$PYRTM,2024,127.083790407315,18.193437817454
$GNGGA,020039.50,3359.91503113,N,11921.45975034,W,2,10,1.0,8.206,M,-37.400,M,7.4,0131*67
$PYRTM,2024,127.083790407315,18.193437817454
$GNHDT,95.698,T*10
$PYRTM,2024,127.083796244618,18.193443654757
$GNGGA,020040.00,3359.91505736,N,11921.45952020,W,2,10,1.0,8.250,M,-37.400,M,7.0,0131*6C
$PYRTM,2024,127.083796244618,18.193443654757
$GNHDT,96.152,T*12
$PYRTM,2024,127.083801987130,18.193449397269
$GNGGA,020040.50,3359.91509192,N,11921.45929004,W,2,10,1.0,8.309,M,-37.400,M,7.4,0131*6E
$PYRTM,2024,127.083801987130,18.193449397269
$GNHDT,96.493,T*1A
$PYRTM,2024,127.083807819907,18.193455230046
$GNGGA,020041.00,3359.91515357,N,11921.45905140,W,2,10,1.0,8.358,M,-37.400,M,7.0,0131*63
$PYRTM,2024,127.083807819907,18.193455230046
$GNHDT,96.806,T*1A
$PYRTM,2024,127.083813561516,18.193460971667
$GNGGA,020041.50,3359.91523885,N,11921.45880685,W,2,10,1.0,8.401,M,-37.400,M,7.4,0131*6A
$PYRTM,2024,127.083813561516,18.193460971667
$GNHDT,97.155,T*14
$PYRTM,2024,127.083819394931,18.193466805081
$GNGGA,020042.00,3359.91534653,N,11921.45855476,W,2,10,1.0,8.427,M,-37.400,M,4.0,0131*6A
$PYRTM,2024,127.083819394931,18.193466805081
$GNHDT,97.459,T*1D
$PYRTM,2024,127.083825135625,18.193472545775
$GNGGA,020042.50,3359.91545759,N,11921.45830623,W,2,10,1.0,8.459,M,-37.400,M,4.4,0131*6E
$PYRTM,2024,127.083825135625,18.193472545775
$GNHDT,97.869,T*12
$PYRTM,2024,127.083830972083,18.193478382222
$GNGGA,020043.00,3359.91555699,N,11921.45806349,W,2,10,1.0,8.475,M,-37.400,M,5.0,0131*61
$PYRTM,2024,127.083830972083,18.193478382222
$GNHDT,98.112,T*18
$PYRTM,2024,127.083836705521,18.193484115660
$GNGGA,020043.50,3359.91562906,N,11921.45783372,W,2,10,1.0,8.457,M,-37.400,M,5.4,0131*67
$PYRTM,2024,127.083836705521,18.193484115660
$GNHDT,98.493,T*14
$PYRTM,2024,127.083842545984,18.193489956123
$GNGGA,020044.00,3359.91567500,N,11921.45761360,W,2,10,1.0,8.426,M,-37.400,M,6.0,0131*64
$PYRTM,2024,127.083842545984,18.193489956123
$GNHDT,98.889,T*13
$PYRTM,2024,127.083848280532,18.193495690671
$GNGGA,020044.50,3359.91571409,N,11921.45739248,W,2,10,1.0,8.390,M,-37.400,M,6.4,0131*66
$PYRTM,2024,127.083848280532,18.193495690671
$GNHDT,99.311,T*18
$PYRTM,2024,127.083854116539,18.193501526690
$GNGGA,020045.00,3359.91576252,N,11921.45718160,W,2,10,1.0,8.346,M,-37.400,M,7.0,0131*69
$PYRTM,2024,127.083854116539,18.193501526690
$GNHDT,99.659,T*11
$PYRTM,2024,127.083859851551,18.193507261690
$GNGGA,020045.50,3359.91583185,N,11921.45697592,W,2,10,1.0,8.376,M,-37.400,M,7.4,0131*67
$PYRTM,2024,127.083859851551,18.193507261690
$GNHDT,99.977,T*12
$PYRTM,2024,127.083865698623,18.193513108762
$GNGGA,020046.00,3359.91592659,N,11921.45676467,W,2,10,1.0,8.421,M,-37.400,M,7.0,0131*62
$PYRTM,2024,127.083865698623,18.193513108762
$GNHDT,100.365,T*2A
$PYRTM,2024,127.083871427373,18.193518837523
$GNGGA,020046.50,3359.91602873,N,11921.45655125,W,2,10,1.0,8.485,M,-37.400,M,7.4,0131*63
$PYRTM,2024,127.083871427373,18.193518837523
$GNHDT,100.912,T*20
$PYRTM,2024,127.083877265475,18.193524675625
$GNGGA,020047.00,3359.91613518,N,11921.45633031,W,2,10,1.0,8.538,M,-37.400,M,7.0,0131*60
$PYRTM,2024,127.083877265475,18.193524675625
$GNHDT,101.346,T*2A
$PYRTM,2024,127.083883002593,18.193530412731
$GNGGA,020047.50,3359.91622757,N,11921.45610341,W,2,10,1.0,8.588,M,-37.400,M,7.4,0131*64
$PYRTM,2024,127.083883002593,18.193530412731
$GNHDT,101.789,T*2D
$PYRTM,2024,127.083888844062,18.193536254201
$GNGGA,020048.00,3359.91630536,N,11921.45587755,W,2,10,1.0,8.598,M,-37.400,M,4.0,0131*62
$PYRTM,2024,127.083888844062,18.193536254201
$GNHDT,102.190,T*20
$PYRTM,2024,127.083894575729,18.193541985868
$GNGGA,020048.50,3359.91636383,N,11921.45565593,W,2,10,1.0,8.572,M,-37.400,M,4.4,0131*6D
$PYRTM,2024,127.083894575729,18.193541985868
$GNHDT,102.549,T*20
$PYRTM,2024,127.083900413970,18.193547824120
$GNGGA,020049.00,3359.91640752,N,11921.45543344,W,2,10,1.0,8.530,M,-37.400,M,5.0,0131*6B
$PYRTM,2024,127.083900413970,18.193547824120
$GNHDT,102.875,T*22
$PYRTM,2024,127.083906156944,18.193553567083
$GNGGA,020049.50,3359.91645363,N,11921.45520477,W,2,10,1.0,8.497,M,-37.400,M,5.4,0131*67
$PYRTM,2024,127.083906156944,18.193553567083
$GNHDT,103.154,T*29
$PYRTM,2024,127.083911985382,18.193559395521
$GNGGA,020050.00,3359.91650540,N,11921.45496154,W,2,10,1.0,8.445,M,-37.400,M,6.0,0131*69
$PYRTM,2024,127.083911985382,18.193559395521
$GNHDT,103.676,T*2E
$PYRTM,2024,127.083917730544,18.193565140683
$GNGGA,020050.50,3359.91656371,N,11921.45471417,W,2,10,1.0,8.389,M,-37.400,M,6.4,0131*66
$PYRTM,2024,127.083917730544,18.193565140683
$GNHDT,104.102,T*2D
$PYRTM,2024,127.083923563218,18.193570973368
$GNGGA,020051.00,3359.91662154,N,11921.45447278,W,2,10,1.0,8.326,M,-37.400,M,7.0,0131*6A
$PYRTM,2024,127.083923563218,18.193570973368
$GNHDT,104.590,T*22
$PYRTM,2024,127.083929295602,18.193576705741
$GNGGA,020051.50,3359.91667608,N,11921.45425323,W,2,10,1.0,8.257,M,-37.400,M,7.4,0131*6C
$PYRTM,2024,127.083929295602,18.193576705741
$GNHDT,105.139,T*24
$PYRTM,2024,127.083935134086,18.193582544225
$GNGGA,020052.00,3359.91672348,N,11921.45405596,W,2,10,1.0,8.182,M,-37.400,M,7.0,0131*6A
$PYRTM,2024,127.083935134086,18.193582544225
$GNHDT,105.463,T*2E
$PYRTM,2024,127.083940880671,18.193588290810
$GNGGA,020052.50,3359.91676654,N,11921.45386959,W,2,10,1.0,8.113,M,-37.400,M,7.4,0131*6C
$PYRTM,2024,127.083940880671,18.193588290810
$GNHDT,105.716,T*2F
$PYRTM,2024,127.083946709352,18.193594119491
$GNGGA,020053.00,3359.91680546,N,11921.45368146,W,2,10,1.0,8.043,M,-37.400,M,7.0,0131*67
$PYRTM,2024,127.083946709352,18.193594119491
$GNHDT,105.900,T*26
$PYRTM,2024,127.083952447465,18.193599857604
$GNGGA,020053.50,3359.91684434,N,11921.45347928,W,2,10,1.0,7.968,M,-37.400,M,7.4,0131*64
$PYRTM,2024,127.083952447465,18.193599857604
$GNHDT,106.098,T*2D
$PYRTM,2024,127.083958285532,18.193605695671
$GNGGA,020054.00,3359.91688149,N,11921.45326147,W,2,10,1.0,7.908,M,-37.400,M,4.0,0131*62
$PYRTM,2024,127.083958285532,18.193605695671
$GNHDT,106.422,T*28
$PYRTM,2024,127.083964023993,18.193611434132
$GNGGA,020054.50,3359.91691026,N,11921.45303268,W,2,10,1.0,7.882,M,-37.400,M,4.4,0131*69
$PYRTM,2024,127.083964023993,18.193611434132
$GNHDT,106.874,T*27
$PYRTM,2024,127.083969855394,18.193617265532
$GNGGA,020055.00,3359.91692913,N,11921.45281251,W,2,10,1.0,7.898,M,-37.400,M,5.0,0131*6E
$PYRTM,2024,127.083969855394,18.193617265532
$GNHDT,107.353,T*28
$PYRTM,2024,127.083975597488,18.193623007639
$GNGGA,020055.50,3359.91694335,N,11921.45261506,W,2,10,1.0,7.962,M,-37.400,M,5.4,0131*68
$PYRTM,2024,127.083975597488,18.193623007639
$GNHDT,108.063,T*27
$PYRTM,2024,127.083981434815,18.193628844954
$GNGGA,020056.00,3359.91695783,N,11921.45243739,W,2,10,1.0,8.048,M,-37.400,M,6.0,0131*61
$PYRTM,2024,127.083981434815,18.193628844954
$GNHDT,108.693,T*2E
$PYRTM,2024,127.083987168194,18.193634578333
$GNGGA,020056.50,3359.91697604,N,11921.45226475,W,2,10,1.0,8.137,M,-37.400,M,6.4,0131*6D
$PYRTM,2024,127.083987168194,18.193634578333
$GNHDT,109.197,T*2C
$PYRTM,2024,127.083993005116,18.193640415266
$GNGGA,020057.00,3359.91699666,N,11921.45208416,W,2,10,1.0,8.206,M,-37.400,M,7.0,0131*6E
$PYRTM,2024,127.083993005116,18.193640415266
$GNHDT,109.372,T*25
$PYRTM,2024,127.083998741192,18.193646151331
$GNGGA,020057.50,3359.91702155,N,11921.45187538,W,2,10,1.0,8.230,M,-37.400,M,7.4,0131*67
$PYRTM,2024,127.083998741192,18.193646151331
$GNHDT,109.607,T*22
$PYRTM,2024,127.084004578727,18.193651988866
$GNGGA,020058.00,3359.91705222,N,11921.45163901,W,2,10,1.0,8.219,M,-37.400,M,7.0,0131*6A
$PYRTM,2024,127.084004578727,18.193651988866
$GNHDT,109.839,T*21
$PYRTM,2024,127.084010315937,18.193657726076
$GNGGA,020058.50,3359.91709625,N,11921.45138994,W,2,10,1.0,8.179,M,-37.400,M,7.4,0131*63
$PYRTM,2024,127.084010315937,18.193657726076
$GNHDT,110.032,T*2A
$PYRTM,2024,127.084016156528,18.193663566678
$GNGGA,020059.00,3359.91715344,N,11921.45113439,W,2,10,1.0,8.126,M,-37.400,M,7.0,0131*65
$PYRTM,2024,127.084016156528,18.193663566678
$GNHDT,110.329,T*23
$PYRTM,2024,127.084021892315,18.193669302465
$GNGGA,020059.50,3359.91721342,N,11921.45088813,W,2,10,1.0,8.097,M,-37.400,M,7.4,0131*69
$PYRTM,2024,127.084021892315,18.193669302465
$GNHDT,110.968,T*2C
$PYRTM,2024,127.084027730035,18.193675140185
$GNGGA,020100.00,3359.91727036,N,11921.45065277,W,2,10,1.0,8.095,M,-37.400,M,4.0,0131*69
$PYRTM,2024,127.084027730035,18.193675140185
$GNHDT,111.626,T*28
$PYRTM,2024,127.084033465255,18.193680875405
$GNGGA,020100.50,3359.91731988,N,11921.45043129,W,2,10,1.0,8.142,M,-37.400,M,4.4,0131*64
$PYRTM,2024,127.084033465255,18.193680875405
$GNHDT,112.004,T*2D
$PYRTM,2024,127.084039300961,18.193686711088
$GNGGA,020101.00,3359.91736103,N,11921.45021787,W,2,10,1.0,8.228,M,-37.400,M,5.0,0131*60
$PYRTM,2024,127.084039300961,18.193686711088
$GNHDT,112.586,T*22
$PYRTM,2024,127.084045036898,18.193692447037
$GNGGA,020101.50,3359.91739376,N,11921.45001124,W,2,10,1.0,8.331,M,-37.400,M,5.4,0131*6A
$PYRTM,2024,127.084045036898,18.193692447037
$GNHDT,113.219,T*22
$PYRTM,2024,127.084050873692,18.193698283843
$GNGGA,020102.00,3359.91742078,N,11921.44981148,W,2,10,1.0,8.416,M,-37.400,M,6.0,0131*62
$PYRTM,2024,127.084050873692,18.193698283843
$GNHDT,113.754,T*2E
$PYRTM,2024,127.084056611609,18.193704021748
$GNGGA,020102.50,3359.91744425,N,11921.44960671,W,2,10,1.0,8.492,M,-37.400,M,6.4,0131*67
$PYRTM,2024,127.084056611609,18.193704021748
$GNHDT,113.809,T*29
$PYRTM,2024,127.084062449838,18.193709859977
$GNGGA,020103.00,3359.91747491,N,11921.44938837,W,2,10,1.0,8.527,M,-37.400,M,7.0,0131*64
$PYRTM,2024,127.084062449838,18.193709859977
$GNHDT,114.004,T*2B
$PYRTM,2024,127.084068189699,18.193715599850
$GNGGA,020103.50,3359.91752104,N,11921.44915583,W,2,10,1.0,8.525,M,-37.400,M,7.4,0131*67
$PYRTM,2024,127.084068189699,18.193715599850
$GNHDT,114.194,T*23
$PYRTM,2024,127.084074022766,18.193721432905
$GNGGA,020104.00,3359.91758884,N,11921.44890682,W,2,10,1.0,8.486,M,-37.400,M,7.0,0131*6C
$PYRTM,2024,127.084074022766,18.193721432905
$GNHDT,114.440,T*2F
$PYRTM,2024,127.084079763484,18.193727173634
$GNGGA,020104.50,3359.91767503,N,11921.44865129,W,2,10,1.0,8.439,M,-37.400,M,7.4,0131*6B
$PYRTM,2024,127.084079763484,18.193727173634
$GNHDT,114.672,T*2C
$PYRTM,2024,127.084085597072,18.193733007211
$GNGGA,020105.00,3359.91777043,N,11921.44839418,W,2,10,1.0,8.404,M,-37.400,M,7.0,0131*6B
$PYRTM,2024,127.084085597072,18.193733007211
$GNHDT,115.192,T*24
$PYRTM,2024,127.084091333877,18.193738744016
$GNGGA,020105.50,3359.91787065,N,11921.44815340,W,2,10,1.0,8.394,M,-37.400,M,7.4,0131*6B
$PYRTM,2024,127.084091333877,18.193738744016
$GNHDT,115.598,T*2A
$PYRTM,2024,127.084097173981,18.193744584120
$GNGGA,020106.00,3359.91796329,N,11921.44792798,W,2,10,1.0,8.443,M,-37.400,M,4.0,0131*6D
$PYRTM,2024,127.084097173981,18.193744584120
$GNHDT,116.032,T*2C
$PYRTM,2024,127.084102908356,18.193750318507
$GNGGA,020106.50,3359.91803763,N,11921.44772548,W,2,10,1.0,8.500,M,-37.400,M,4.4,0131*62
$PYRTM,2024,127.084102908356,18.193750318507
$GNHDT,116.602,T*29
$PYRTM,2024,127.084108748762,18.193756158900
$GNGGA,020107.00,3359.91808634,N,11921.44753550,W,2,10,1.0,8.573,M,-37.400,M,5.0,0131*65
$PYRTM,2024,127.084108748762,18.193756158900
$GNHDT,117.074,T*2F
$PYRTM,2024,127.084114489931,18.193761900069
$GNGGA,020107.50,3359.91811843,N,11921.44734894,W,2,10,1.0,8.618,M,-37.400,M,5.4,0131*68
$PYRTM,2024,127.084114489931,18.193761900069
$GNHDT,117.384,T*23
$PYRTM,2024,127.084120320116,18.193767730266
$GNGGA,020108.00,3359.91813747,N,11921.44715791,W,2,10,1.0,8.643,M,-37.400,M,6.0,0131*6B
$PYRTM,2024,127.084120320116,18.193767730266
$GNHDT,117.831,T*26
$PYRTM,2024,127.084126057326,18.193773467465
$GNGGA,020108.50,3359.91815905,N,11921.44695857,W,2,10,1.0,8.616,M,-37.400,M,6.4,0131*68
$PYRTM,2024,127.084126057326,18.193773467465
$GNHDT,118.364,T*22
$PYRTM,2024,127.084131896562,18.193779306701
$GNGGA,020109.00,3359.91818719,N,11921.44674145,W,2,10,1.0,8.557,M,-37.400,M,7.0,0131*64
$PYRTM,2024,127.084131896562,18.193779306701
$GNHDT,118.775,T*26
$PYRTM,2024,127.084137634421,18.193785044572
$GNGGA,020109.50,3359.91823070,N,11921.44650678,W,2,10,1.0,8.486,M,-37.400,M,7.4,0131*67
$PYRTM,2024,127.084137634421,18.193785044572
$GNHDT,119.356,T*22
$PYRTM,2024,127.084143469132,18.193790879271
$GNGGA,020110.00,3359.91828920,N,11921.44625791,W,2,10,1.0,8.411,M,-37.400,M,7.0,0131*63
$PYRTM,2024,127.084143469132,18.193790879271
$GNHDT,119.771,T*23
$PYRTM,2024,127.084149209653,18.193796619803
$GNGGA,020110.50,3359.91836424,N,11921.44600190,W,2,10,1.0,8.337,M,-37.400,M,7.4,0131*67
$PYRTM,2024,127.084149209653,18.193796619803
$GNHDT,120.351,T*2F
$PYRTM,2024,127.084155049560,18.193802459699
$GNGGA,020111.00,3359.91845071,N,11921.44574464,W,2,10,1.0,8.275,M,-37.400,M,7.0,0131*6E
$PYRTM,2024,127.084155049560,18.193802459699
$GNHDT,120.752,T*28
$PYRTM,2024,127.084160785139,18.193808195278
$GNGGA,020111.50,3359.91853368,N,11921.44549577,W,2,10,1.0,8.220,M,-37.400,M,7.4,0131*6E
$PYRTM,2024,127.084160785139,18.193808195278
$GNHDT,120.832,T*21
$PYRTM,2024,127.084166618530,18.193814028669
$GNGGA,020112.00,3359.91858837,N,11921.44526098,W,2,10,1.0,8.140,M,-37.400,M,4.0,0131*6D
$PYRTM,2024,127.084166618530,18.193814028669
$GNHDT,120.953,T*27
$PYRTM,2024,127.084172353206,18.193819763345
$GNGGA,020112.50,3359.91859949,N,11921.44504925,W,2,10,1.0,8.026,M,-37.400,M,4.4,0131*6B
$PYRTM,2024,127.084172353206,18.193819763345
$GNHDT,121.290,T*22
$PYRTM,2024,127.084178196597,18.193825606736
$GNGGA,020113.00,3359.91856609,N,11921.44485662,W,2,10,1.0,7.870,M,-37.399,M,5.0,0131*69
$PYRTM,2024,127.084178196597,18.193825606736
$GNHDT,121.517,T*2A
$PYRTM,2024,127.084183940012,18.193831350162
$GNGGA,020113.50,3359.91851293,N,11921.44466998,W,2,10,1.0,7.718,M,-37.399,M,5.4,0131*6E
$PYRTM,2024,127.084183940012,18.193831350162
$GNHDT,121.870,T*26
$PYRTM,2024,127.084189767095,18.193837177234
$GNGGA,020114.00,3359.91846036,N,11921.44447731,W,2,10,1.0,7.626,M,-37.399,M,6.0,0131*62
$PYRTM,2024,127.084189767095,18.193837177234
$GNHDT,122.347,T*2A
$PYRTM,2024,127.084195505278,18.193842915417
$GNGGA,020114.50,3359.91843094,N,11921.44426817,W,2,10,1.0,7.624,M,-37.399,M,6.4,0131*60
$PYRTM,2024,127.084195505278,18.193842915417
$GNHDT,123.114,T*2F
$PYRTM,2024,127.084201338843,18.193848748981
$GNGGA,020115.00,3359.91843178,N,11921.44404679,W,2,10,1.0,7.730,M,-37.399,M,7.0,0131*60
$PYRTM,2024,127.084201338843,18.193848748981
$GNHDT,123.854,T*22
$PYRTM,2024,127.084207081273,18.193854491424
$GNGGA,020115.50,3359.91845753,N,11921.44381985,W,2,10,1.0,7.887,M,-37.399,M,7.4,0131*6D
$PYRTM,2024,127.084207081273,18.193854491424
$GNHDT,124.312,T*2C
$PYRTM,2024,127.084212916458,18.193860326597
$GNGGA,020116.00,3359.91848768,N,11921.44359145,W,2,10,1.0,8.069,M,-37.399,M,7.0,0131*6C
$PYRTM,2024,127.084212916458,18.193860326597
$GNHDT,124.554,T*28
$PYRTM,2024,127.084218649907,18.193866060046
$GNGGA,020116.50,3359.91850653,N,11921.44336723,W,2,10,1.0,8.209,M,-37.399,M,7.4,0131*66
$PYRTM,2024,127.084218649907,18.193866060046
$GNHDT,124.738,T*20
$PYRTM,2024,127.084224488981,18.193871899132
$GNGGA,020117.00,3359.91850413,N,11921.44314007,W,2,10,1.0,8.263,M,-37.399,M,7.0,0131*6D
$PYRTM,2024,127.084224488981,18.193871899132
$GNHDT,124.832,T*25
$PYRTM,2024,127.084230223715,18.193877633866
$GNGGA,020117.50,3359.91848827,N,11921.44291317,W,2,10,1.0,8.271,M,-37.399,M,7.4,0131*63
$PYRTM,2024,127.084230223715,18.193877633866
$GNHDT,124.952,T*22
$PYRTM,2024,127.084236069456,18.193883479595
$GNGGA,020118.00,3359.91847254,N,11921.44268216,W,2,10,1.0,8.235,M,-37.399,M,4.0,0131*69
$PYRTM,2024,127.084236069456,18.193883479595
$GNHDT,125.165,T*2F
$PYRTM,2024,127.084241798970,18.193889209109
$GNGGA,020118.50,3359.91846891,N,11921.44245211,W,2,10,1.0,8.189,M,-37.399,M,4.4,0131*66
$PYRTM,2024,127.084241798970,18.193889209109
$GNHDT,125.522,T*28
$PYRTM,2024,127.084247637616,18.193895047755
$GNGGA,020119.00,3359.91848048,N,11921.44223603,W,2,10,1.0,8.158,M,-37.399,M,5.0,0131*6E
$PYRTM,2024,127.084247637616,18.193895047755
$GNHDT,125.861,T*22
$PYRTM,2024,127.084253373889,18.193900784039
$GNGGA,020119.50,3359.91850260,N,11921.44203353,W,2,10,1.0,8.165,M,-37.399,M,5.4,0131*62
$PYRTM,2024,127.084253373889,18.193900784039
$GNHDT,126.209,T*25
$PYRTM,2024,127.084259213530,18.193906623669
$GNGGA,020120.00,3359.91854166,N,11921.44184416,W,2,10,1.0,8.218,M,-37.399,M,6.0,0131*68
$PYRTM,2024,127.084259213530,18.193906623669
$GNHDT,126.918,T*2E
$PYRTM,2024,127.084264951308,18.193912361458
$GNGGA,020120.50,3359.91860607,N,11921.44164377,W,2,10,1.0,8.330,M,-37.399,M,6.4,0131*6B
$PYRTM,2024,127.084264951308,18.193912361458
$GNHDT,127.097,T*21
$PYRTM,2024,127.084270786030,18.193918196169
$GNGGA,020121.00,3359.91869331,N,11921.44142899,W,2,10,1.0,8.467,M,-37.399,M,7.0,0131*69
$PYRTM,2024,127.084270786030,18.193918196169
$GNHDT,127.465,T*28
$PYRTM,2024,127.084276519502,18.193923929641
$GNGGA,020121.50,3359.91878806,N,11921.44119531,W,2,10,1.0,8.609,M,-37.399,M,7.4,0131*6C
$PYRTM,2024,127.084276519502,18.193923929641
$GNHDT,127.727,T*2D
$PYRTM,2024,127.084282359062,18.193929769201
$GNGGA,020122.00,3359.91887258,N,11921.44095499,W,2,10,1.0,8.699,M,-37.399,M,7.0,0131*60
$PYRTM,2024,127.084282359062,18.193929769201
$GNHDT,127.969,T*29
$PYRTM,2024,127.084288098194,18.193935508333
$GNGGA,020122.50,3359.91893020,N,11921.44071835,W,2,10,1.0,8.701,M,-37.399,M,7.4,0131*69
$PYRTM,2024,127.084288098194,18.193935508333
$GNHDT,128.081,T*29
$PYRTM,2024,127.084293933785,18.193941343924
$GNGGA,020123.00,3359.91895637,N,11921.44049351,W,2,10,1.0,8.618,M,-37.399,M,7.0,0131*64
$PYRTM,2024,127.084293933785,18.193941343924
$GNHDT,128.510,T*24
$PYRTM,2024,127.084299669468,18.193947079618
$GNGGA,020123.50,3359.91896194,N,11921.44028614,W,2,10,1.0,8.499,M,-37.399,M,7.4,0131*60
$PYRTM,2024,127.084299669468,18.193947079618
$GNHDT,128.577,T*25
$PYRTM,2024,127.084305507998,18.193952918148
$GNGGA,020124.00,3359.91896777,N,11921.44009111,W,2,10,1.0,8.407,M,-37.399,M,4.0,0131*68
$PYRTM,2024,127.084305507998,18.193952918148
$GNHDT,129.101,T*21
$PYRTM,2024,127.084311243218,18.193958653356
$GNGGA,020124.50,3359.91899231,N,11921.43989020,W,2,10,1.0,8.378,M,-37.399,M,4.4,0131*6B
$PYRTM,2024,127.084311243218,18.193958653356
$GNHDT,129.482,T*2F
$PYRTM,2024,127.084317078553,18.193964488692
$GNGGA,020125.00,3359.91904515,N,11921.43967808,W,2,10,1.0,8.453,M,-37.399,M,5.0,0131*62
$PYRTM,2024,127.084317078553,18.193964488692
$GNHDT,129.782,T*2C
$PYRTM,2024,127.084322817002,18.193970227141
$GNGGA,020125.50,3359.91912141,N,11921.43944290,W,2,10,1.0,8.593,M,-37.399,M,5.4,0131*66
$PYRTM,2024,127.084322817002,18.193970227141
$GNHDT,130.072,T*2C
$PYRTM,2024,127.084328654329,18.193976064468
$GNGGA,020126.00,3359.91920532,N,11921.43918612,W,2,10,1.0,8.728,M,-37.399,M,6.0,0131*63
$PYRTM,2024,127.084328654329,18.193976064468
$GNHDT,130.222,T*2B
$PYRTM,2024,127.084334390058,18.193981800208
$GNGGA,020126.50,3359.91928363,N,11921.43891276,W,2,10,1.0,8.809,M,-37.399,M,6.4,0131*62
$PYRTM,2024,127.084334390058,18.193981800208
$GNHDT,130.580,T*24
$PYRTM,2024,127.084340229641,18.193987639780
$GNGGA,020127.00,3359.91934258,N,11921.43862680,W,2,10,1.0,8.826,M,-37.399,M,7.0,0131*6B
$PYRTM,2024,127.084340229641,18.193987639780
$GNHDT,130.996,T*2F
$PYRTM,2024,127.084345963472,18.193993373623
$GNGGA,020127.50,3359.91937407,N,11921.43835215,W,2,10,1.0,8.763,M,-37.399,M,7.4,0131*61
$PYRTM,2024,127.084345963472,18.193993373623
$GNHDT,131.280,T*22
$PYRTM,2024,127.084351808947,18.193999219086
$GNGGA,020128.00,3359.91938281,N,11921.43809079,W,2,10,1.0,8.638,M,-37.399,M,7.0,0131*60
$PYRTM,2024,127.084351808947,18.193999219086
$GNHDT,131.716,T*28
$PYRTM,2024,127.084357540370,18.194004950509
$GNGGA,020128.50,3359.91936903,N,11921.43786312,W,2,10,1.0,8.525,M,-37.399,M,7.4,0131*67
$PYRTM,2024,127.084357540370,18.194004950509
$GNHDT,131.971,T*27
$PYRTM,2024,127.084363383299,18.194010793437
$GNGGA,020129.00,3359.91934490,N,11921.43765497,W,2,10,1.0,8.446,M,-37.399,M,7.0,0131*61
$PYRTM,2024,127.084363383299,18.194010793437
$GNHDT,132.259,T*25
$PYRTM,2024,127.084369113472,18.194016523611
$GNGGA,020129.50,3359.91933455,N,11921.43744988,W,2,10,1.0,8.416,M,-37.399,M,7.4,0131*6B
$PYRTM,2024,127.084369113472,18.194016523611
$GNHDT,132.728,T*26
$PYRTM,2024,127.084374951389,18.194022361539
$GNGGA,020130.00,3359.91934285,N,11921.43723118,W,2,10,1.0,8.406,M,-37.399,M,4.0,0131*6C
$PYRTM,2024,127.084374951389,18.194022361539
$GNHDT,132.983,T*29
$PYRTM,2024,127.084380693183,18.194028103322
$GNGGA,020130.50,3359.91937280,N,11921.43698628,W,2,10,1.0,8.421,M,-37.399,M,4.4,0131*6B
$PYRTM,2024,127.084380693183,18.194028103322
$GNHDT,133.198,T*2A
$PYRTM,2024,127.084386532546,18.194033942685
$GNGGA,020131.00,3359.91941073,N,11921.43672402,W,2,10,1.0,8.429,M,-37.399,M,5.0,0131*63
$PYRTM,2024,127.084386532546,18.194033942685
$GNHDT,133.340,T*2D
$PYRTM,2024,127.084392267963,18.194039678102
$GNGGA,020131.50,3359.91944303,N,11921.43646234,W,2,10,1.0,8.399,M,-37.399,M,5.4,0131*6B
$PYRTM,2024,127.084392267963,18.194039678102
$GNHDT,133.713,T*2F
$PYRTM,2024,127.084398099456,18.194045509595
$GNGGA,020132.00,3359.91945562,N,11921.43622087,W,2,10,1.0,8.307,M,-37.399,M,6.0,0131*65
$PYRTM,2024,127.084398099456,18.194045509595
$GNHDT,133.785,T*20
$PYRTM,2024,127.084403840602,18.194051250752
$GNGGA,020132.50,3359.91944677,N,11921.43600906,W,2,10,1.0,8.179,M,-37.399,M,6.4,0131*69
$PYRTM,2024,127.084403840602,18.194051250752
$GNHDT,133.883,T*29
$PYRTM,2024,127.084409673519,18.194057083657
$GNGGA,020133.00,3359.91942044,N,11921.43581876,W,2,10,1.0,8.030,M,-37.399,M,7.0,0131*68
$PYRTM,2024,127.084409673519,18.194057083657
$GNHDT,134.160,T*2A
$PYRTM,2024,127.084415417315,18.194062827454
$GNGGA,020133.50,3359.91938909,N,11921.43562909,W,2,10,1.0,7.936,M,-37.399,M,7.4,0131*60
$PYRTM,2024,127.084415417315,18.194062827454
$GNHDT,134.220,T*2D
$PYRTM,2024,127.084421244931,18.194068655069
$GNGGA,020134.00,3359.91936102,N,11921.43543052,W,2,10,1.0,7.934,M,-37.399,M,7.0,0131*6D
$PYRTM,2024,127.084421244931,18.194068655069
$GNHDT,134.757,T*28
$PYRTM,2024,127.084426992269,18.194074402407
$GNGGA,020134.50,3359.91935705,N,11921.43520359,W,2,10,1.0,8.030,M,-37.399,M,7.4,0131*61
$PYRTM,2024,127.084426992269,18.194074402407
$GNHDT,135.330,T*2C
$PYRTM,2024,127.084432827951,18.194080238102
$GNGGA,020135.00,3359.91938310,N,11921.43494844,W,2,10,1.0,8.248,M,-37.399,M,7.0,0131*68
$PYRTM,2024,127.084432827951,18.194080238102
$GNHDT,135.825,T*23
$PYRTM,2024,127.084438569803,18.194085979942
$GNGGA,020135.50,3359.91942163,N,11921.43469221,W,2,10,1.0,8.462,M,-37.399,M,7.4,0131*67
$PYRTM,2024,127.084438569803,18.194085979942
$GNHDT,136.470,T*2C
$PYRTM,2024,127.084444398218,18.194091808368
$GNGGA,020136.00,3359.91945200,N,11921.43444642,W,2,10,1.0,8.599,M,-37.399,M,4.0,0131*6C
$PYRTM,2024,127.084444398218,18.194091808368
$GNHDT,136.890,T*2E
$PYRTM,2024,127.084450134988,18.194097545127
$GNGGA,020136.50,3359.91945109,N,11921.43423290,W,2,10,1.0,8.595,M,-37.399,M,4.4,0131*61
$PYRTM,2024,127.084450134988,18.194097545127
$GNHDT,136.954,T*27
$PYRTM,2024,127.084455978333,18.194103388484
$GNGGA,020137.00,3359.91941420,N,11921.43404695,W,2,10,1.0,8.451,M,-37.399,M,5.0,0131*67
$PYRTM,2024,127.084455978333,18.194103388484
$GNHDT,136.797,T*26
$PYRTM,2024,127.084461709387,18.194109119525
$GNGGA,020137.50,3359.91935316,N,11921.43386566,W,2,10,1.0,8.224,M,-37.399,M,5.4,0131*61
$PYRTM,2024,127.084461709387,18.194109119525
$GNHDT,136.882,T*2D
$PYRTM,2024,127.084467546991,18.194114957130
$GNGGA,020138.00,3359.91928904,N,11921.43367791,W,2,10,1.0,7.996,M,-37.399,M,6.0,0131*61
$PYRTM,2024,127.084467546991,18.194114957130
$GNHDT,136.717,T*2E
$PYRTM,2024,127.084473287442,18.194120697581
$GNGGA,020138.50,3359.91926299,N,11921.43343449,W,2,10,1.0,7.877,M,-37.399,M,6.4,0131*6F
$PYRTM,2024,127.084473287442,18.194120697581
$GNHDT,137.127,T*2A
$PYRTM,2024,127.084479120741,18.194126530891
$GNGGA,020139.00,3359.91927781,N,11921.43316407,W,2,10,1.0,7.919,M,-37.399,M,7.0,0131*60
$PYRTM,2024,127.084479120741,18.194126530891
$GNHDT,137.485,T*27
$PYRTM,2024,127.084484860069,18.194132270220
$GNGGA,020139.50,3359.91933868,N,11921.43285431,W,2,10,1.0,8.097,M,-37.399,M,7.4,0131*62
$PYRTM,2024,127.084484860069,18.194132270220
$GNHDT,138.172,T*25
$PYRTM,2024,127.084490695394,18.194138105532
$GNGGA,020140.00,3359.91942165,N,11921.43253722,W,2,10,1.0,8.369,M,-37.399,M,7.0,0131*67
$PYRTM,2024,127.084490695394,18.194138105532
$GNHDT,138.576,T*25
$PYRTM,2024,127.084496430069,18.194143840220
$GNGGA,020140.50,3359.91949384,N,11921.43224849,W,2,10,1.0,8.624,M,-37.399,M,7.4,0131*6E
$PYRTM,2024,127.084496430069,18.194143840220
$GNHDT,138.913,T*2A
$PYRTM,2024,127.084502272083,18.194149682222
$GNGGA,020141.00,3359.91952802,N,11921.43200811,W,2,10,1.0,8.802,M,-37.399,M,7.0,0131*60
$PYRTM,2024,127.084502272083,18.194149682222
$GNHDT,139.203,T*21
$PYRTM,2024,127.084508008229,18.194155418380
$GNGGA,020141.50,3359.91950324,N,11921.43183738,W,2,10,1.0,8.829,M,-37.399,M,7.4,0131*69
$PYRTM,2024,127.084508008229,18.194155418380
$GNHDT,139.537,T*21
$PYRTM,2024,127.084513838843,18.194161248981
$GNGGA,020142.00,3359.91943042,N,11921.43170020,W,2,10,1.0,8.715,M,-37.399,M,4.0,0131*6B
$PYRTM,2024,127.084513838843,18.194161248981
$GNHDT,140.000,T*2E
$PYRTM,2024,127.084519575509,18.194166985648
$GNGGA,020142.50,3359.91933914,N,11921.43156937,W,2,10,1.0,8.528,M,-37.399,M,4.4,0131*60
$PYRTM,2024,127.084519575509,18.194166985648
$GNHDT,139.841,T*2D
$PYRTM,2024,127.084525416007,18.194172826146
$GNGGA,020143.00,3359.91926687,N,11921.43141053,W,2,10,1.0,8.346,M,-37.399,M,5.0,0131*63
$PYRTM,2024,127.084525416007,18.194172826146
$GNHDT,140.055,T*2E
$PYRTM,2024,127.084531151516,18.194178561655
$GNGGA,020143.50,3359.91924107,N,11921.43120351,W,2,10,1.0,8.261,M,-37.399,M,5.4,0131*6D
$PYRTM,2024,127.084531151516,18.194178561655
$GNHDT,140.354,T*2C
$PYRTM,2024,127.084536992141,18.194184402280
$GNGGA,020144.00,3359.91927438,N,11921.43094599,W,2,10,1.0,8.318,M,-37.399,M,6.0,0131*61
$PYRTM,2024,127.084536992141,18.194184402280
$GNHDT,140.840,T*22
$PYRTM,2024,127.084542728993,18.194190139132
$GNGGA,020144.50,3359.91934688,N,11921.43064475,W,2,10,1.0,8.489,M,-37.399,M,6.4,0131*68
$PYRTM,2024,127.084542728993,18.194190139132
$GNHDT,140.768,T*27
$PYRTM,2024,127.084548564988,18.194195975127
$GNGGA,020145.00,3359.91944740,N,11921.43032197,W,2,10,1.0,8.697,M,-37.399,M,7.0,0131*6C
$PYRTM,2024,127.084548564988,18.194195975127
$GNHDT,141.190,T*27
$PYRTM,2024,127.084554297465,18.194201707604
$GNGGA,020145.50,3359.91954513,N,11921.42999078,W,2,10,1.0,8.927,M,-37.399,M,7.4,0131*65
$PYRTM,2024,127.084554297465,18.194201707604
$GNHDT,141.538,T*21
$PYRTM,2024,127.084560136551,18.194207546690
$GNGGA,020146.00,3359.91962262,N,11921.42967599,W,2,10,1.0,9.070,M,-37.399,M,7.0,0131*62
$PYRTM,2024,127.084560136551,18.194207546690
$GNHDT,141.747,T*2B
$PYRTM,2024,127.084565871609,18.194213281748
$GNGGA,020146.50,3359.91966654,N,11921.42940138,W,2,10,1.0,9.129,M,-37.399,M,7.4,0131*61
$PYRTM,2024,127.084565871609,18.194213281748
$GNHDT,142.250,T*2B
$PYRTM,2024,127.084571714850,18.194219124988
$GNGGA,020147.00,3359.91966930,N,11921.42918310,W,2,10,1.0,9.059,M,-37.399,M,7.0,0131*6F
$PYRTM,2024,127.084571714850,18.194219124988
$GNHDT,142.612,T*29
$PYRTM,2024,127.084577445984,18.194224856123
$GNGGA,020147.50,3359.91964235,N,11921.42901265,W,2,10,1.0,8.886,M,-37.399,M,7.4,0131*62
$PYRTM,2024,127.084577445984,18.194224856123
$GNHDT,142.815,T*20
$PYRTM,2024,127.084583287824,18.194230697963
$GNGGA,020148.00,3359.91959490,N,11921.42888235,W,2,10,1.0,8.618,M,-37.399,M,4.0,0131*64
$PYRTM,2024,127.084583287824,18.194230697963
$GNHDT,142.896,T*2B
$PYRTM,2024,127.084589024190,18.194236434329
$GNGGA,020148.50,3359.91954804,N,11921.42875477,W,2,10,1.0,8.287,M,-37.399,M,4.4,0131*69
$PYRTM,2024,127.084589024190,18.194236434329
$GNHDT,143.105,T*29
$PYRTM,2024,127.084594864687,18.194242274826
$GNGGA,020149.00,3359.91950648,N,11921.42860477,W,2,10,1.0,7.953,M,-37.399,M,5.0,0131*63
$PYRTM,2024,127.084594864687,18.194242274826
$GNHDT,143.119,T*24
$PYRTM,2024,127.084600594086,18.194248004225
$GNGGA,020149.50,3359.91947893,N,11921.42841692,W,2,10,1.0,7.721,M,-37.399,M,5.4,0131*6D
$PYRTM,2024,127.084600594086,18.194248004225
$GNHDT,143.497,T*27
$PYRTM,2024,127.084606436238,18.194253846389
$GNGGA,020150.00,3359.91948178,N,11921.42815722,W,2,10,1.0,7.639,M,-37.399,M,6.0,0131*67
$PYRTM,2024,127.084606436238,18.194253846389
$GNHDT,144.075,T*28
$PYRTM,2024,127.084612174144,18.194259584282
$GNGGA,020150.50,3359.91951254,N,11921.42783425,W,2,10,1.0,7.772,M,-37.399,M,6.4,0131*69
$PYRTM,2024,127.084612174144,18.194259584282
$GNHDT,144.237,T*2C
$PYRTM,2024,127.084618011389,18.194265421528
$GNGGA,020151.00,3359.91956326,N,11921.42747290,W,2,10,1.0,8.014,M,-37.399,M,7.0,0131*63
$PYRTM,2024,127.084618011389,18.194265421528
$GNHDT,144.628,T*26
$PYRTM,2024,127.084623748727,18.194271158866
$GNGGA,020151.50,3359.91960023,N,11921.42712637,W,2,10,1.0,8.297,M,-37.399,M,7.4,0131*61
$PYRTM,2024,127.084623748727,18.194271158866
$GNHDT,145.357,T*2A
$PYRTM,2024,127.084629579317,18.194276989456
$GNGGA,020152.00,3359.91959738,N,11921.42683663,W,2,10,1.0,8.520,M,-37.399,M,7.0,0131*67
$PYRTM,2024,127.084629579317,18.194276989456
$GNHDT,145.814,T*26
$PYRTM,2024,127.084635320220,18.194282730359
$GNGGA,020152.50,3359.91954730,N,11921.42662877,W,2,10,1.0,8.618,M,-37.399,M,7.4,0131*6F
$PYRTM,2024,127.084635320220,18.194282730359
$GNHDT,146.158,T*24
$PYRTM,2024,127.084641154051,18.194288564190
$GNGGA,020153.00,3359.91945069,N,11921.42650011,W,2,10,1.0,8.587,M,-37.399,M,7.0,0131*68
$PYRTM,2024,127.084641154051,18.194288564190
$GNHDT,146.404,T*28
$PYRTM,2024,127.084646890243,18.194294300382
$GNGGA,020153.50,3359.91933784,N,11921.42638352,W,2,10,1.0,8.436,M,-37.399,M,7.4,0131*6D
$PYRTM,2024,127.084646890243,18.194294300382
$GNHDT,146.711,T*2F
$PYRTM,2024,127.084652731400,18.194300141539
$GNGGA,020154.00,3359.91922579,N,11921.42625489,W,2,10,1.0,8.203,M,-37.399,M,4.0,0131*65
$PYRTM,2024,127.084652731400,18.194300141539
$GNHDT,146.732,T*2E
$PYRTM,2024,127.084658466528,18.194305876678
$GNGGA,020154.50,3359.91913062,N,11921.42608407,W,2,10,1.0,7.981,M,-37.399,M,4.4,0131*6E
$PYRTM,2024,127.084658466528,18.194305876678
$GNHDT,146.946,T*23
$PYRTM,2024,127.084664303414,18.194311713553
$GNGGA,020155.00,3359.91906642,N,11921.42586901,W,2,10,1.0,7.819,M,-37.399,M,5.0,0131*61
$PYRTM,2024,127.084664303414,18.194311713553
$GNHDT,147.124,T*2E
$PYRTM,2024,127.084670038727,18.194317448866
$GNGGA,020155.50,3359.91904562,N,11921.42562042,W,2,10,1.0,7.785,M,-37.399,M,5.4,0131*6D
$PYRTM,2024,127.084670038727,18.194317448866
$GNHDT,147.378,T*25
$PYRTM,2024,127.084675878623,18.194323288762
$GNGGA,020156.00,3359.91904819,N,11921.42531710,W,2,10,1.0,7.855,M,-37.399,M,6.0,0131*69
$PYRTM,2024,127.084675878623,18.194323288762
$GNHDT,147.573,T*28
$PYRTM,2024,127.084681621285,18.194329031424
$GNGGA,020156.50,3359.91907468,N,11921.42499794,W,2,10,1.0,8.042,M,-37.399,M,6.4,0131*6F
$PYRTM,2024,127.084681621285,18.194329031424
$GNHDT,147.819,T*29
$PYRTM,2024,127.084687451887,18.194334862025
$GNGGA,020157.00,3359.91910274,N,11921.42470000,W,2,10,1.0,8.266,M,-37.399,M,7.0,0131*6A
$PYRTM,2024,127.084687451887,18.194334862025
$GNHDT,148.396,T*2A
$PYRTM,2024,127.084693192234,18.194340602373
$GNGGA,020157.50,3359.91911512,N,11921.42442945,W,2,10,1.0,8.508,M,-37.399,M,7.4,0131*6B
$PYRTM,2024,127.084693192234,18.194340602373
$GNHDT,148.767,T*20
$PYRTM,2024,127.084699025949,18.194346436088
$GNGGA,020158.00,3359.91910941,N,11921.42419432,W,2,10,1.0,8.730,M,-37.399,M,7.0,0131*64
$PYRTM,2024,127.084699025949,18.194346436088
$GNHDT,149.050,T*22
$PYRTM,2024,127.084704765347,18.194352175486
$GNGGA,020158.50,3359.91907864,N,11921.42399737,W,2,10,1.0,8.878,M,-37.399,M,7.4,0131*6F
$PYRTM,2024,127.084704765347,18.194352175486
$GNHDT,149.340,T*20
$PYRTM,2024,127.084710600139,18.194358010278
$GNGGA,020159.00,3359.91902506,N,11921.42381952,W,2,10,1.0,8.923,M,-37.399,M,7.0,0131*68
$PYRTM,2024,127.084710600139,18.194358010278
$GNHDT,149.424,T*25
$PYRTM,2024,127.084716344329,18.194363754468
$GNGGA,020159.50,3359.91895786,N,11921.42365917,W,2,10,1.0,8.825,M,-37.399,M,7.4,0131*60
$PYRTM,2024,127.084716344329,18.194363754468
$GNHDT,149.503,T*21
$PYRTM,2024,127.084722180694,18.194369590833
$GNGGA,020200.00,3359.91887989,N,11921.42349799,W,2,10,1.0,8.618,M,-37.399,M,4.0,0131*69
$PYRTM,2024,127.084722180694,18.194369590833
$GNHDT,149.685,T*2C
$PYRTM,2024,127.084727915486,18.194375325625
$GNGGA,020200.50,3359.91880467,N,11921.42333508,W,2,10,1.0,8.380,M,-37.399,M,4.4,0131*61
$PYRTM,2024,127.084727915486,18.194375325625
$GNHDT,150.157,T*2C
$PYRTM,2024,127.084733750972,18.194381161123
$GNGGA,020201.00,3359.91875331,N,11921.42313138,W,2,10,1.0,8.171,M,-37.399,M,5.0,0131*67
$PYRTM,2024,127.084733750972,18.194381161123
$GNHDT,150.242,T*2B
$PYRTM,2024,127.084739481667,18.194386891806
$GNGGA,020201.50,3359.91873468,N,11921.42289645,W,2,10,1.0,8.068,M,-37.399,M,5.4,0131*6D
$PYRTM,2024,127.084739481667,18.194386891806
$GNHDT,150.550,T*2F
$PYRTM,2024,127.084745322234,18.194392732384
$GNGGA,020202.00,3359.91875766,N,11921.42260876,W,2,10,1.0,8.138,M,-37.399,M,6.0,0131*6A
$PYRTM,2024,127.084745322234,18.194392732384
$GNHDT,150.821,T*24
$PYRTM,2024,127.084751062014,18.194398472153
$GNGGA,020202.50,3359.91880652,N,11921.42228857,W,2,10,1.0,8.319,M,-37.399,M,6.4,0131*69
$PYRTM,2024,127.084751062014,18.194398472153
$GNHDT,151.204,T*28
$PYRTM,2024,127.084756898275,18.194404308426
$GNGGA,020203.00,3359.91886888,N,11921.42194594,W,2,10,1.0,8.512,M,-37.399,M,7.0,0131*6C
$PYRTM,2024,127.084756898275,18.194404308426
$GNHDT,151.331,T*2F
$PYRTM,2024,127.084762636539,18.194410046678
$GNGGA,020203.50,3359.91890380,N,11921.42163102,W,2,10,1.0,8.644,M,-37.399,M,7.4,0131*6A
$PYRTM,2024,127.084762636539,18.194410046678
$GNHDT,152.109,T*25
$PYRTM,2024,127.084768473623,18.194415883773
$GNGGA,020204.00,3359.91889781,N,11921.42138372,W,2,10,1.0,8.655,M,-37.399,M,7.0,0131*6A
$PYRTM,2024,127.084768473623,18.194415883773
$GNHDT,152.388,T*2E
$PYRTM,2024,127.084774210000,18.194421620139
$GNGGA,020204.50,3359.91884759,N,11921.42121429,W,2,10,1.0,8.551,M,-37.399,M,7.4,0131*65
$PYRTM,2024,127.084774210000,18.194421620139
$GNHDT,152.347,T*2D
$PYRTM,2024,127.084780046829,18.194427456968
$GNGGA,020205.00,3359.91876880,N,11921.42110430,W,2,10,1.0,8.359,M,-37.399,M,7.0,0131*67
$PYRTM,2024,127.084780046829,18.194427456968
$GNHDT,152.630,T*28
$PYRTM,2024,127.084785780521,18.194433190660
$GNGGA,020205.50,3359.91867725,N,11921.42101908,W,2,10,1.0,8.163,M,-37.399,M,7.4,0131*6B
$PYRTM,2024,127.084785780521,18.194433190660
$GNHDT,152.862,T*21
$PYRTM,2024,127.084791618576,18.194439028715
$GNGGA,020206.00,3359.91860504,N,11921.42090815,W,2,10,1.0,7.998,M,-37.399,M,4.0,0131*6B
$PYRTM,2024,127.084791618576,18.194439028715
$GNHDT,153.194,T*20
$PYRTM,2024,127.084797357025,18.194444767164
$GNGGA,020206.50,3359.91856181,N,11921.42073795,W,2,10,1.0,7.971,M,-37.399,M,4.4,0131*6B
$PYRTM,2024,127.084797357025,18.194444767164
$GNHDT,153.706,T*2D
$PYRTM,2024,127.084803197396,18.194450607546
$GNGGA,020207.00,3359.91854334,N,11921.42051024,W,2,10,1.0,8.073,M,-37.399,M,5.0,0131*6D
$PYRTM,2024,127.084803197396,18.194450607546
$GNHDT,154.080,T*23
$PYRTM,2024,127.084808932072,18.194456342211
$GNGGA,020207.50,3359.91854761,N,11921.42021311,W,2,10,1.0,8.286,M,-37.399,M,5.4,0131*62
$PYRTM,2024,127.084808932072,18.194456342211
$GNHDT,154.184,T*26
$PYRTM,2024,127.084814768507,18.194462178646
$GNGGA,020208.00,3359.91856168,N,11921.41988404,W,2,10,1.0,8.446,M,-37.399,M,6.0,0131*62
$PYRTM,2024,127.084814768507,18.194462178646
$GNHDT,154.328,T*22
$PYRTM,2024,127.084820505556,18.194467915694
$GNGGA,020208.50,3359.91855984,N,11921.41954620,W,2,10,1.0,8.563,M,-37.399,M,6.4,0131*69
$PYRTM,2024,127.084820505556,18.194467915694
$GNHDT,154.959,T*2E
$PYRTM,2024,127.084826342315,18.194473752454
$GNGGA,020209.00,3359.91853206,N,11921.41924820,W,2,10,1.0,8.553,M,-37.399,M,7.0,0131*65
$PYRTM,2024,127.084826342315,18.194473752454
$GNHDT,155.151,T*2F
$PYRTM,2024,127.084832082199,18.194479492338
$GNGGA,020209.50,3359.91847862,N,11921.41902301,W,2,10,1.0,8.448,M,-37.399,M,7.4,0131*6E
$PYRTM,2024,127.084832082199,18.194479492338
$GNHDT,155.222,T*28
$PYRTM,2024,127.084837923275,18.194485333414
$GNGGA,020210.00,3359.91840427,N,11921.41884632,W,2,10,1.0,8.280,M,-37.399,M,7.0,0131*65
$PYRTM,2024,127.084837923275,18.194485333414
$GNHDT,155.480,T*26
$PYRTM,2024,127.084843650752,18.194491060891
$GNGGA,020210.50,3359.91832935,N,11921.41870335,W,2,10,1.0,8.137,M,-37.399,M,7.4,0131*69
$PYRTM,2024,127.084843650752,18.194491060891
$GNHDT,155.846,T*20
$PYRTM,2024,127.084849487975,18.194496898113
$GNGGA,020211.00,3359.91826423,N,11921.41853628,W,2,10,1.0,8.044,M,-37.399,M,7.0,0131*6B
$PYRTM,2024,127.084849487975,18.194496898113
$GNHDT,156.053,T*2F
$PYRTM,2024,127.084855231308,18.194502641447
$GNGGA,020211.50,3359.91822264,N,11921.41832133,W,2,10,1.0,8.017,M,-37.399,M,7.4,0131*67
$PYRTM,2024,127.084855231308,18.194502641447
$GNHDT,156.361,T*2D
$PYRTM,2024,127.084861064988,18.194508475127
$GNGGA,020212.00,3359.91819438,N,11921.41804798,W,2,10,1.0,8.055,M,-37.399,M,4.0,0131*65
$PYRTM,2024,127.084861064988,18.194508475127
$GNHDT,156.565,T*2F
$PYRTM,2024,127.084866801215,18.194514211366
$GNGGA,020212.50,3359.91818284,N,11921.41774369,W,2,10,1.0,8.116,M,-37.399,M,4.4,0131*60
$PYRTM,2024,127.084866801215,18.194514211366
$GNHDT,157.109,T*20
$PYRTM,2024,127.084872644965,18.194520055104
$GNGGA,020213.00,3359.91817668,N,11921.41743735,W,2,10,1.0,8.158,M,-37.399,M,5.0,0131*6B
$PYRTM,2024,127.084872644965,18.194520055104
$GNHDT,157.424,T*2A
$PYRTM,2024,127.084878373623,18.194525783773
$GNGGA,020213.50,3359.91816064,N,11921.41715322,W,2,10,1.0,8.142,M,-37.399,M,5.4,0131*6B
$PYRTM,2024,127.084878373623,18.194525783773
$GNHDT,157.417,T*2A
$PYRTM,2024,127.084884214201,18.194531624352
$GNGGA,020214.00,3359.91811861,N,11921.41692679,W,2,10,1.0,7.998,M,-37.399,M,6.0,0131*61
$PYRTM,2024,127.084884214201,18.194531624352
$GNHDT,157.761,T*28
$PYRTM,2024,127.084889955509,18.194537365648
$GNGGA,020214.50,3359.91803997,N,11921.41677293,W,2,10,1.0,7.802,M,-37.399,M,6.4,0131*62
$PYRTM,2024,127.084889955509,18.194537365648
$GNHDT,158.261,T*22
$PYRTM,2024,127.084895790278,18.194543200417
$GNGGA,020215.00,3359.91793472,N,11921.41669375,W,2,10,1.0,7.541,M,-37.399,M,7.0,0131*6F
$PYRTM,2024,127.084895790278,18.194543200417
$GNHDT,158.435,T*25
$PYRTM,2024,127.084901524479,18.194548934618
$GNGGA,020215.50,3359.91781951,N,11921.41663249,W,2,10,1.0,7.338,M,-37.399,M,7.4,0131*6D
$PYRTM,2024,127.084901524479,18.194548934618
$GNHDT,158.631,T*23
$PYRTM,2024,127.084907363461,18.194554773600
$GNGGA,020216.00,3359.91771312,N,11921.41653721,W,2,10,1.0,7.258,M,-37.399,M,7.0,0131*62
$PYRTM,2024,127.084907363461,18.194554773600
$GNHDT,158.746,T*22
$PYRTM,2024,127.084913099398,18.194560509537
$GNGGA,020216.50,3359.91763874,N,11921.41635904,W,2,10,1.0,7.368,M,-37.399,M,7.4,0131*60
$PYRTM,2024,127.084913099398,18.194560509537
$GNHDT,159.169,T*28
$PYRTM,2024,127.084918942928,18.194566353067
$GNGGA,020217.00,3359.91759903,N,11921.41607031,W,2,10,1.0,7.637,M,-37.399,M,7.0,0131*69
$PYRTM,2024,127.084918942928,18.194566353067
$GNHDT,159.316,T*22
$PYRTM,2024,127.084924672535,18.194572082685
$GNGGA,020217.50,3359.91759065,N,11921.41571279,W,2,10,1.0,7.990,M,-37.399,M,7.4,0131*6F
$PYRTM,2024,127.084924672535,18.194572082685
$GNHDT,159.726,T*25
$PYRTM,2024,127.084930510556,18.194577920694
$GNGGA,020218.00,3359.91758474,N,11921.41534132,W,2,10,1.0,8.293,M,-37.399,M,4.0,0131*6D
$PYRTM,2024,127.084930510556,18.194577920694
$GNHDT,160.307,T*28
$PYRTM,2024,127.084936242743,18.194583652882
$GNGGA,020218.50,3359.91755239,N,11921.41504464,W,2,10,1.0,8.450,M,-37.399,M,4.4,0131*62
$PYRTM,2024,127.084936242743,18.194583652882
$GNHDT,160.246,T*2C
$PYRTM,2024,127.084942083576,18.194589493715
$GNGGA,020219.00,3359.91748671,N,11921.41484158,W,2,10,1.0,8.429,M,-37.399,M,5.0,0131*6A
$PYRTM,2024,127.084942083576,18.194589493715
$GNHDT,160.567,T*28
$PYRTM,2024,127.084947818461,18.194595228600
$GNGGA,020219.50,3359.91739932,N,11921.41471883,W,2,10,1.0,8.262,M,-37.399,M,5.4,0131*69
$PYRTM,2024,127.084947818461,18.194595228600
$GNHDT,160.639,T*20
$PYRTM,2024,127.084953663056,18.194601073206
$GNGGA,020220.00,3359.91729878,N,11921.41463410,W,2,10,1.0,8.006,M,-37.399,M,6.0,0131*6A
$PYRTM,2024,127.084953663056,18.194601073206
$GNHDT,160.880,T*2C
$PYRTM,2024,127.084959396493,18.194606806632
$GNGGA,020220.50,3359.91721747,N,11921.41452031,W,2,10,1.0,7.798,M,-37.399,M,6.4,0131*6A
$PYRTM,2024,127.084959396493,18.194606806632
$GNHDT,161.289,T*2E
$PYRTM,2024,127.084965235752,18.194612645891
$GNGGA,020221.00,3359.91716018,N,11921.41434373,W,2,10,1.0,7.623,M,-37.399,M,7.0,0131*66
$PYRTM,2024,127.084965235752,18.194612645891
$GNHDT,161.490,T*20
$PYRTM,2024,127.084970965255,18.194618375394
$GNGGA,020221.50,3359.91712866,N,11921.41410168,W,2,10,1.0,7.591,M,-37.399,M,7.4,0131*66
$PYRTM,2024,127.084970965255,18.194618375394
$GNHDT,161.704,T*2E
$PYRTM,2024,127.084976810741,18.194624220880
$GNGGA,020222.00,3359.91710501,N,11921.41381641,W,2,10,1.0,7.608,M,-37.399,M,7.0,0131*6A
$PYRTM,2024,127.084976810741,18.194624220880
$GNHDT,162.092,T*25
$PYRTM,2024,127.084982539433,18.194629949583
$GNGGA,020222.50,3359.91708395,N,11921.41353212,W,2,10,1.0,7.644,M,-37.399,M,7.4,0131*6C
$PYRTM,2024,127.084982539433,18.194629949583
$GNHDT,162.417,T*2C
$PYRTM,2024,127.084988383275,18.194635793426
$GNGGA,020223.00,3359.91705517,N,11921.41326356,W,2,10,1.0,7.668,M,-37.399,M,7.0,0131*60
$PYRTM,2024,127.084988383275,18.194635793426
$GNHDT,162.754,T*28
$PYRTM,2024,127.084994112801,18.194641522940
$GNGGA,020223.50,3359.91701786,N,11921.41303832,W,2,10,1.0,7.719,M,-37.399,M,7.4,0131*66
$PYRTM,2024,127.084994112801,18.194641522940
$GNHDT,162.666,T*28
$PYRTM,2024,127.084999953947,18.194647364086
$GNGGA,020224.00,3359.91697055,N,11921.41284850,W,2,10,1.0,7.766,M,-37.399,M,4.0,0131*66
$PYRTM,2024,127.084999953947,18.194647364086
$GNHDT,162.605,T*2D
$PYRTM,2024,127.085005692072,18.194653102211
$GNGGA,020224.50,3359.91692535,N,11921.41267100,W,2,10,1.0,7.846,M,-37.399,M,4.4,0131*6D
$PYRTM,2024,127.085005692072,18.194653102211
$GNHDT,162.778,T*26
$PYRTM,2024,127.085011530347,18.194658940486
$GNGGA,020225.00,3359.91687335,N,11921.41248794,W,2,10,1.0,7.916,M,-37.399,M,5.0,0131*6C
$PYRTM,2024,127.085011530347,18.194658940486
$GNHDT,162.845,T*27
$PYRTM,2024,127.085017261597,18.194664671736
$GNGGA,020225.50,3359.91681767,N,11921.41229927,W,2,10,1.0,7.949,M,-37.399,M,5.4,0131*63
$PYRTM,2024,127.085017261597,18.194664671736
$GNHDT,163.068,T*21
$PYRTM,2024,127.085023100266,18.194670510417
$GNGGA,020226.00,3359.91675614,N,11921.41210663,W,2,10,1.0,7.932,M,-37.399,M,6.0,0131*65
$PYRTM,2024,127.085023100266,18.194670510417
$GNHDT,163.335,T*2A
$PYRTM,2024,127.085028844965,18.194676255104
$GNGGA,020226.50,3359.91669591,N,11921.41192336,W,2,10,1.0,7.867,M,-37.399,M,6.4,0131*6A
$PYRTM,2024,127.085028844965,18.194676255104
$GNHDT,163.667,T*28
$PYRTM,2024,127.085034675683,18.194682085833
$GNGGA,020227.00,3359.91664495,N,11921.41174579,W,2,10,1.0,7.772,M,-37.399,M,7.0,0131*6D
$PYRTM,2024,127.085034675683,18.194682085833
$GNHDT,163.979,T*28
$PYRTM,2024,127.085040409826,18.194687819965
$GNGGA,020227.50,3359.91661024,N,11921.41157034,W,2,10,1.0,7.700,M,-37.399,M,7.4,0131*6F
$PYRTM,2024,127.085040409826,18.194687819965
$GNHDT,164.000,T*28
$PYRTM,2024,127.085046255139,18.194693665278
$GNGGA,020228.00,3359.91658990,N,11921.41137262,W,2,10,1.0,7.674,M,-37.399,M,7.0,0131*68
$PYRTM,2024,127.085046255139,18.194693665278
$GNHDT,164.076,T*29
$PYRTM,2024,127.085051988750,18.194699398889
$GNGGA,020228.50,3359.91658083,N,11921.41113945,W,2,10,1.0,7.728,M,-37.399,M,7.4,0131*62
$PYRTM,2024,127.085051988750,18.194699398889
$GNHDT,164.246,T*28
$PYRTM,2024,127.085057830938,18.194705241076
$GNGGA,020229.00,3359.91657742,N,11921.41087954,W,2,10,1.0,7.820,M,-37.399,M,7.0,0131*6C
$PYRTM,2024,127.085057830938,18.194705241076
$GNHDT,164.469,T*23
$PYRTM,2024,127.085063564988,18.194710975127
$GNGGA,020229.50,3359.91656995,N,11921.41060142,W,2,10,1.0,7.902,M,-37.399,M,7.4,0131*6F
$PYRTM,2024,127.085063564988,18.194710975127
