$PYRTM,2024,125.333333522118,16.442980932257
$GNGGA,080000.00,3512.40277287,N,12149.86360011,W,2,10,1.0,8.373,M,-38.539,M,5.0,0131*6F
$PYRTM,2024,125.333333522118,16.442980932257
$GNHDT,311.498,T*2D
$PYRTM,2024,125.333339258449,16.442986668588
$GNGGA,080000.50,3512.40293963,N,12149.86381241,W,2,10,1.0,8.520,M,-38.539,M,5.4,0131*6D
$PYRTM,2024,125.333339258449,16.442986668588
$GNHDT,311.397,T*25
$PYRTM,2024,125.333345100822,16.442992510961
$GNGGA,080001.00,3512.40308592,N,12149.86398767,W,2,09,1.1,8.868,M,-38.539,M,6.0,0131*6E
$PYRTM,2024,125.333345100822,16.442992510961
$GNHDT,311.383,T*20
$PYRTM,2024,125.333350827118,16.442998237257
$GNGGA,080001.50,3512.40323354,N,12149.86415870,W,2,09,1.1,9.236,M,-38.539,M,6.4,0131*61
$PYRTM,2024,125.333350827118,16.442998237257
$GNHDT,312.021,T*28
$PYRTM,2024,125.333356667257,16.443004077396
$GNGGA,080002.00,3512.40340094,N,12149.86435701,W,2,09,1.1,9.504,M,-38.539,M,7.0,0131*65
$PYRTM,2024,125.333356667257,16.443004077396
$GNHDT,312.336,T*2D
$PYRTM,2024,125.333362407662,16.443009817801
$GNGGA,080002.50,3512.40360816,N,12149.86459835,W,2,09,1.1,9.566,M,-38.539,M,7.4,0131*62
$PYRTM,2024,125.333362407662,16.443009817801
$GNHDT,312.223,T*28
$PYRTM,2024,125.333368251736,16.443015661875
$GNGGA,080003.00,3512.40384279,N,12149.86488906,W,2,09,1.1,9.385,M,-38.539,M,7.0,0131*6D
$PYRTM,2024,125.333368251736,16.443015661875
$GNHDT,312.186,T*24
$PYRTM,2024,125.333373979282,16.443021389954
$GNGGA,080003.50,3512.40408869,N,12149.86521344,W,2,09,1.1,9.036,M,-38.539,M,7.4,0131*61
$PYRTM,2024,125.333373979282,16.443021389954
$GNHDT,311.980,T*29
$PYRTM,2024,125.333379821273,16.443027231424
$GNGGA,080004.00,3512.40432096,N,12149.86555765,W,2,09,1.1,8.629,M,-38.539,M,7.0,0131*6B
$PYRTM,2024,125.333379821273,16.443027231424
$GNHDT,311.804,T*24
$PYRTM,2024,125.333385552616,16.443032962755
$GNGGA,080004.50,3512.40451742,N,12149.86589678,W,2,09,1.1,8.319,M,-38.539,M,7.4,0131*6B
$PYRTM,2024,125.333385552616,16.443032962755
$GNHDT,312.056,T*28
$PYRTM,2024,125.333391397396,16.443038807535
$GNGGA,080005.00,3512.40467510,N,12149.86621527,W,2,09,1.1,8.216,M,-38.539,M,4.0,0131*6E
$PYRTM,2024,125.333391397396,16.443038807535
$GNHDT,312.271,T*2F
$PYRTM,2024,125.333397127488,16.443044537627
$GNGGA,080005.50,3512.40480591,N,12149.86648681,W,2,09,1.1,8.357,M,-38.539,M,4.4,0131*6B
$PYRTM,2024,125.333397127488,16.443044537627
$GNHDT,311.829,T*2B
$PYRTM,2024,125.333402972176,16.443050382315
$GNGGA,080006.00,3512.40493810,N,12149.86669657,W,2,09,1.1,8.673,M,-38.539,M,5.0,0131*65
$PYRTM,2024,125.333402972176,16.443050382315
$GNHDT,312.273,T*2D
$PYRTM,2024,125.333408697743,16.443056107894
$GNGGA,080006.50,3512.40511433,N,12149.86687052,W,2,09,1.1,9.032,M,-38.539,M,5.4,0131*63
$PYRTM,2024,125.333408697743,16.443056107894
$GNHDT,312.689,T*2C
$PYRTM,2024,125.333414541065,16.443061951204
$GNGGA,080007.00,3512.40534600,N,12149.86703576,W,2,09,1.1,9.281,M,-38.539,M,6.0,0131*61
$PYRTM,2024,125.333414541065,16.443061951204
$GNHDT,312.741,T*29
$PYRTM,2024,125.333420275046,16.443067685185
$GNGGA,080007.50,3512.40562739,N,12149.86724008,W,2,09,1.1,9.354,M,-38.539,M,6.4,0131*68
$PYRTM,2024,125.333420275046,16.443067685185
$GNHDT,312.852,T*24
$PYRTM,2024,125.333426112130,16.443073522269
$GNGGA,080008.00,3512.40592414,N,12149.86749939,W,2,09,1.1,9.224,M,-38.539,M,7.0,0131*62
$PYRTM,2024,125.333426112130,16.443073522269
$GNHDT,312.736,T*29
$PYRTM,2024,125.333431850590,16.443079260729
$GNGGA,080008.50,3512.40618525,N,12149.86781213,W,2,09,1.1,8.981,M,-38.539,M,7.4,0131*63
$PYRTM,2024,125.333431850590,16.443079260729
$GNHDT,312.466,T*2F
$PYRTM,2024,125.333437690255,16.443085100394
$GNGGA,080009.00,3512.40637159,N,12149.86816000,W,2,09,1.1,8.765,M,-38.539,M,7.0,0131*64
$PYRTM,2024,125.333437690255,16.443085100394
$GNHDT,312.344,T*28
$PYRTM,2024,125.333443422523,16.443090832674
$GNGGA,080009.50,3512.40647602,N,12149.86850474,W,2,09,1.1,8.715,M,-38.539,M,7.4,0131*69
$PYRTM,2024,125.333443422523,16.443090832674
$GNHDT,312.092,T*20
$PYRTM,2024,125.333449266470,16.443096676609
$GNGGA,080010.00,3512.40652447,N,12149.86881542,W,2,09,1.1,8.835,M,-38.539,M,7.0,0131*62
$PYRTM,2024,125.333449266470,16.443096676609
$GNHDT,312.002,T*29
$PYRTM,2024,125.333455001366,16.443102411516
$GNGGA,080010.50,3512.40656923,N,12149.86907590,W,2,09,1.1,9.013,M,-38.539,M,7.4,0131*65
$PYRTM,2024,125.333455001366,16.443102411516
$GNHDT,312.593,T*24
$PYRTM,2024,125.333460838854,16.443108248993
$GNGGA,080011.00,3512.40667842,N,12149.86927912,W,2,09,1.1,9.148,M,-38.539,M,4.0,0131*69
$PYRTM,2024,125.333460838854,16.443108248993
$GNHDT,312.956,T*21
$PYRTM,2024,125.333466569988,16.443113980127
$GNGGA,080011.50,3512.40690441,N,12149.86945409,W,2,09,1.1,9.090,M,-38.539,M,4.4,0131*68
$PYRTM,2024,125.333466569988,16.443113980127
$GNHDT,313.367,T*28
$PYRTM,2024,125.333472414468,16.443119824606
$GNGGA,080012.00,3512.40724552,N,12149.86962041,W,2,09,1.1,8.799,M,-38.539,M,5.0,0131*64
$PYRTM,2024,125.333472414468,16.443119824606
$GNHDT,313.721,T*2E
$PYRTM,2024,125.333478142569,16.443125552708
$GNGGA,080012.50,3512.40764045,N,12149.86980911,W,2,09,1.1,8.398,M,-38.539,M,5.4,0131*67
$PYRTM,2024,125.333478142569,16.443125552708
$GNHDT,314.081,T*24
$PYRTM,2024,125.333483989595,16.443131399734
$GNGGA,080013.00,3512.40800992,N,12149.87005202,W,2,09,1.1,8.006,M,-38.539,M,6.0,0131*62
$PYRTM,2024,125.333483989595,16.443131399734
$GNHDT,313.962,T*27
$PYRTM,2024,125.333489720000,16.443137130150
$GNGGA,080013.50,3512.40829836,N,12149.87035700,W,2,09,1.1,7.807,M,-38.539,M,6.4,0131*65
$PYRTM,2024,125.333489720000,16.443137130150
$GNHDT,313.678,T*23
$PYRTM,2024,125.333495558796,16.443142968935
$GNGGA,080014.00,3512.40846965,N,12149.87073189,W,2,09,1.1,7.913,M,-38.539,M,7.0,0131*6D
$PYRTM,2024,125.333495558796,16.443142968935
$GNHDT,313.243,T*2F
$PYRTM,2024,125.333501297569,16.443148707708
$GNGGA,080014.50,3512.40855011,N,12149.87113578,W,2,09,1.1,8.212,M,-38.539,M,7.4,0131*6C
$PYRTM,2024,125.333501297569,16.443148707708
$GNHDT,312.721,T*2F
$PYRTM,2024,125.333507135405,16.443154545544
$GNGGA,080015.00,3512.40858875,N,12149.87152360,W,2,09,1.1,8.696,M,-38.539,M,7.0,0131*69
$PYRTM,2024,125.333507135405,16.443154545544
$GNHDT,312.310,T*29
$PYRTM,2024,125.333512875810,16.443160285949
$GNGGA,080015.50,3512.40862885,N,12149.87186043,W,2,09,1.1,9.212,M,-38.539,M,7.4,0131*6C
$PYRTM,2024,125.333512875810,16.443160285949
$GNHDT,312.565,T*2D
$PYRTM,2024,125.333518713704,16.443166123843
$GNGGA,080016.00,3512.40871774,N,12149.87210856,W,2,09,1.1,9.709,M,-38.539,M,7.0,0131*62
$PYRTM,2024,125.333518713704,16.443166123843
$GNHDT,312.843,T*24
$PYRTM,2024,125.333524438009,16.443171848148
$GNGGA,080016.50,3512.40887825,N,12149.87227758,W,2,09,1.1,10.024,M,-38.539,M,7.4,0131*54
$PYRTM,2024,125.333524438009,16.443171848148
$GNHDT,312.562,T*2A
$PYRTM,2024,125.333530283113,16.443177693252
$GNGGA,080017.00,3512.40911675,N,12149.87239139,W,2,09,1.1,10.015,M,-38.539,M,4.0,0131*5E
$PYRTM,2024,125.333530283113,16.443177693252
$GNHDT,312.416,T*28
$PYRTM,2024,125.333536016088,16.443183426227
$GNGGA,080017.50,3512.40939890,N,12149.87249104,W,2,09,1.1,9.650,M,-38.539,M,4.4,0131*66
$PYRTM,2024,125.333536016088,16.443183426227
$GNHDT,313.502,T*2D
$PYRTM,2024,125.333541856968,16.443189267106
$GNGGA,080018.00,3512.40966747,N,12149.87264577,W,2,09,1.1,9.032,M,-38.539,M,5.0,0131*6B
$PYRTM,2024,125.333541856968,16.443189267106
$GNHDT,313.425,T*29
$PYRTM,2024,125.333547598472,16.443195008611
$GNGGA,080018.50,3512.40989604,N,12149.87286093,W,2,09,1.1,8.382,M,-38.539,M,5.4,0131*67
$PYRTM,2024,125.333547598472,16.443195008611
$GNHDT,313.184,T*27
$PYRTM,2024,125.333553430787,16.443200840926
$GNGGA,080019.00,3512.41006427,N,12149.87316127,W,2,09,1.1,7.840,M,-38.539,M,6.0,0131*64
$PYRTM,2024,125.333553430787,16.443200840926
$GNHDT,313.009,T*23
$PYRTM,2024,125.333559165370,16.443206575509
$GNGGA,080019.50,3512.41017664,N,12149.87351624,W,2,09,1.1,7.613,M,-38.540,M,6.4,0131*61
$PYRTM,2024,125.333559165370,16.443206575509
$GNHDT,312.993,T*28
$PYRTM,2024,125.333565007812,16.443212417951
$GNGGA,080020.00,3512.41025633,N,12149.87386186,W,2,09,1.1,7.771,M,-38.540,M,7.0,0131*68
$PYRTM,2024,125.333565007812,16.443212417951
$GNHDT,312.999,T*22
$PYRTM,2024,125.333570743507,16.443218153646
$GNGGA,080020.50,3512.41033626,N,12149.87415315,W,2,09,1.1,8.200,M,-38.540,M,7.4,0131*63
$PYRTM,2024,125.333570743507,16.443218153646
$GNHDT,312.769,T*23
$PYRTM,2024,125.333576580347,16.443223990486
$GNGGA,080021.00,3512.41045302,N,12149.87439614,W,2,09,1.1,8.755,M,-38.540,M,7.0,0131*6E
$PYRTM,2024,125.333576580347,16.443223990486
$GNHDT,312.814,T*26
$PYRTM,2024,125.333582317986,16.443229728125
$GNGGA,080021.50,3512.41063295,N,12149.87460545,W,2,09,1.1,9.278,M,-38.540,M,7.4,0131*64
$PYRTM,2024,125.333582317986,16.443229728125
$GNHDT,312.573,T*2A
$PYRTM,2024,125.333588152465,16.443235562604
$GNGGA,080022.00,3512.41086555,N,12149.87479925,W,2,09,1.1,9.688,M,-38.540,M,7.0,0131*6F
$PYRTM,2024,125.333588152465,16.443235562604
$GNHDT,312.323,T*29
$PYRTM,2024,125.333593883484,16.443241293623
$GNGGA,080022.50,3512.41111929,N,12149.87499380,W,2,09,1.1,9.913,M,-38.540,M,7.4,0131*60
$PYRTM,2024,125.333593883484,16.443241293623
$GNHDT,312.259,T*25
$PYRTM,2024,125.333599728981,16.443247139120
$GNGGA,080023.00,3512.41136707,N,12149.87518822,W,2,09,1.1,9.968,M,-38.540,M,4.0,0131*63
$PYRTM,2024,125.333599728981,16.443247139120
$GNHDT,312.162,T*2E
$PYRTM,2024,125.333605457037,16.443252867176
$GNGGA,080023.50,3512.41158102,N,12149.87538834,W,2,09,1.1,9.848,M,-38.540,M,4.4,0131*6F
$PYRTM,2024,125.333605457037,16.443252867176
$GNHDT,312.047,T*28
$PYRTM,2024,125.333611303322,16.443258713461
$GNGGA,080024.00,3512.41175599,N,12149.87561347,W,2,09,1.1,9.586,M,-38.540,M,5.0,0131*6D
$PYRTM,2024,125.333611303322,16.443258713461
$GNHDT,312.143,T*2D
$PYRTM,2024,125.333617037269,16.443264447407
$GNGGA,080024.50,3512.41190537,N,12149.87586437,W,2,09,1.1,9.236,M,-38.540,M,5.4,0131*66
$PYRTM,2024,125.333617037269,16.443264447407
$GNHDT,312.219,T*21
$PYRTM,2024,125.333622877650,16.443270287789
$GNGGA,080025.00,3512.41204498,N,12149.87614946,W,2,09,1.1,8.829,M,-38.540,M,6.0,0131*69
$PYRTM,2024,125.333622877650,16.443270287789
$GNHDT,312.671,T*2B
$PYRTM,2024,125.333628613866,16.443276024005
$GNGGA,080025.50,3512.41218335,N,12149.87645823,W,2,09,1.1,8.434,M,-38.540,M,6.4,0131*63
$PYRTM,2024,125.333628613866,16.443276024005
$GNHDT,312.262,T*2D
$PYRTM,2024,125.333634451019,16.443281861157
$GNGGA,080026.00,3512.41232156,N,12149.87676834,W,2,09,1.1,8.148,M,-38.540,M,7.0,0131*67
$PYRTM,2024,125.333634451019,16.443281861157
$GNHDT,312.395,T*24
$PYRTM,2024,125.333640187928,16.443287598067
$GNGGA,080026.50,3512.41247115,N,12149.87705607,W,2,09,1.1,8.021,M,-38.540,M,7.4,0131*66
$PYRTM,2024,125.333640187928,16.443287598067
$GNHDT,312.860,T*25
$PYRTM,2024,125.333646021586,16.443293431725
$GNGGA,080027.00,3512.41265695,N,12149.87730500,W,2,09,1.1,8.030,M,-38.540,M,7.0,0131*6B
$PYRTM,2024,125.333646021586,16.443293431725
$GNHDT,312.826,T*27
$PYRTM,2024,125.333651761424,16.443299171563
$GNGGA,080027.50,3512.41289845,N,12149.87753147,W,2,09,1.1,8.106,M,-38.540,M,7.4,0131*6D
$PYRTM,2024,125.333651761424,16.443299171563
$GNHDT,312.802,T*21
$PYRTM,2024,125.333657596806,16.443305006944
$GNGGA,080028.00,3512.41318792,N,12149.87776130,W,2,09,1.1,8.257,M,-38.540,M,7.0,0131*6F
$PYRTM,2024,125.333657596806,16.443305006944
$GNHDT,312.665,T*2E
$PYRTM,2024,125.333663334167,16.443310744306
$GNGGA,080028.50,3512.41348610,N,12149.87800939,W,2,09,1.1,8.429,M,-38.540,M,7.4,0131*60
$PYRTM,2024,125.333663334167,16.443310744306
$GNHDT,312.541,T*2B
$PYRTM,2024,125.333669180127,16.443316590266
$GNGGA,080029.00,3512.41373353,N,12149.87829056,W,2,09,1.1,8.670,M,-38.540,M,4.0,0131*6C
$PYRTM,2024,125.333669180127,16.443316590266
$GNHDT,312.544,T*2E
$PYRTM,2024,125.333674905058,16.443322315197
$GNGGA,080029.50,3512.41390909,N,12149.87860352,W,2,09,1.1,8.942,M,-38.540,M,4.4,0131*61
$PYRTM,2024,125.333674905058,16.443322315197
$GNHDT,312.803,T*20
$PYRTM,2024,125.333680742546,16.443328152685
$GNGGA,080030.00,3512.41402994,N,12149.87893032,W,2,09,1.1,9.219,M,-38.540,M,5.0,0131*6C
$PYRTM,2024,125.333680742546,16.443328152685
$GNHDT,313.208,T*20
$PYRTM,2024,125.333686481458,16.443333891597
$GNGGA,080030.50,3512.41412656,N,12149.87923282,W,2,09,1.1,9.416,M,-38.540,M,5.4,0131*67
$PYRTM,2024,125.333686481458,16.443333891597
$GNHDT,312.789,T*2D
$PYRTM,2024,125.333692317917,16.443339728056
$GNGGA,080031.00,3512.41422359,N,12149.87949799,W,2,09,1.1,9.537,M,-38.540,M,6.0,0131*6C
$PYRTM,2024,125.333692317917,16.443339728056
$GNHDT,312.950,T*27
$PYRTM,2024,125.333698058669,16.443345468808
$GNGGA,080031.50,3512.41433070,N,12149.87972027,W,2,09,1.1,9.565,M,-38.540,M,6.4,0131*68
$PYRTM,2024,125.333698058669,16.443345468808
$GNHDT,312.464,T*2D
$PYRTM,2024,125.333703895579,16.443351305729
$GNGGA,080032.00,3512.41446729,N,12149.87991519,W,2,09,1.1,9.480,M,-38.540,M,7.0,0131*6D
$PYRTM,2024,125.333703895579,16.443351305729
$GNHDT,312.411,T*2F
$PYRTM,2024,125.333709625440,16.443357035579
$GNGGA,080032.50,3512.41464722,N,12149.88011237,W,2,09,1.1,9.284,M,-38.540,M,7.4,0131*60
$PYRTM,2024,125.333709625440,16.443357035579
$GNHDT,312.557,T*2C
$PYRTM,2024,125.333715471134,16.443362881273
$GNGGA,080033.00,3512.41485944,N,12149.88033144,W,2,09,1.1,8.953,M,-38.540,M,7.0,0131*66
$PYRTM,2024,125.333715471134,16.443362881273
$GNHDT,312.347,T*2B
$PYRTM,2024,125.333721199873,16.443368610012
$GNGGA,080033.50,3512.41508408,N,12149.88058205,W,2,09,1.1,8.568,M,-38.540,M,7.4,0131*69
$PYRTM,2024,125.333721199873,16.443368610012
$GNHDT,312.104,T*2E
$PYRTM,2024,125.333727040949,16.443374451088
$GNGGA,080034.00,3512.41530689,N,12149.88085593,W,2,09,1.1,8.239,M,-38.540,M,7.0,0131*64
$PYRTM,2024,125.333727040949,16.443374451088
$GNHDT,312.338,T*23
$PYRTM,2024,125.333732777708,16.443380187847
$GNGGA,080034.50,3512.41551820,N,12149.88113829,W,2,09,1.1,8.037,M,-38.540,M,7.4,0131*61
$PYRTM,2024,125.333732777708,16.443380187847
$GNHDT,312.222,T*29
$PYRTM,2024,125.333738615417,16.443386025556
$GNGGA,080035.00,3512.41571977,N,12149.88142243,W,2,09,1.1,8.010,M,-38.540,M,4.0,0131*64
$PYRTM,2024,125.333738615417,16.443386025556
$GNHDT,312.642,T*2B
$PYRTM,2024,125.333744347431,16.443391757569
$GNGGA,080035.50,3512.41590610,N,12149.88171945,W,2,09,1.1,8.145,M,-38.540,M,4.4,0131*68
$PYRTM,2024,125.333744347431,16.443391757569
$GNHDT,312.787,T*23
$PYRTM,2024,125.333750187072,16.443397597211
$GNGGA,080036.00,3512.41608201,N,12149.88202165,W,2,09,1.1,8.410,M,-38.540,M,5.0,0131*65
$PYRTM,2024,125.333750187072,16.443397597211
$GNHDT,312.671,T*2B
$PYRTM,2024,125.333755926933,16.443403337072
$GNGGA,080036.50,3512.41625656,N,12149.88231980,W,2,09,1.1,8.765,M,-38.540,M,5.4,0131*6F
$PYRTM,2024,125.333755926933,16.443403337072
$GNHDT,312.879,T*2D
$PYRTM,2024,125.333761761829,16.443409171979
$GNGGA,080037.00,3512.41641829,N,12149.88258177,W,2,09,1.1,9.185,M,-38.540,M,6.0,0131*6E
$PYRTM,2024,125.333761761829,16.443409171979
$GNHDT,312.748,T*20
$PYRTM,2024,125.333767496250,16.443414906400
$GNGGA,080037.50,3512.41658037,N,12149.88279686,W,2,10,1.1,9.583,M,-38.540,M,6.4,0131*60
$PYRTM,2024,125.333767496250,16.443414906400
$GNHDT,312.151,T*2E
$PYRTM,2024,125.333773336111,16.443420746250
$GNGGA,080038.00,3512.41674908,N,12149.88298418,W,2,10,1.0,9.877,M,-38.540,M,7.0,0131*69
$PYRTM,2024,125.333773336111,16.443420746250
$GNHDT,311.972,T*24
$PYRTM,2024,125.333779070150,16.443426480289
$GNGGA,080038.50,3512.41694565,N,12149.88317656,W,2,10,1.0,9.932,M,-38.540,M,7.4,0131*6F
$PYRTM,2024,125.333779070150,16.443426480289
$GNHDT,311.838,T*2B
$PYRTM,2024,125.333784911447,16.443432321586
$GNGGA,080039.00,3512.41715383,N,12149.88341693,W,2,10,1.0,9.712,M,-38.540,M,7.0,0131*6F
$PYRTM,2024,125.333784911447,16.443432321586
$GNHDT,311.822,T*20
$PYRTM,2024,125.333790642975,16.443438053113
$GNGGA,080039.50,3512.41735327,N,12149.88370102,W,2,10,1.0,9.314,M,-38.540,M,7.4,0131*6D
$PYRTM,2024,125.333790642975,16.443438053113
$GNHDT,312.023,T*2A
$PYRTM,2024,125.333796487025,16.443443897164
$GNGGA,080040.00,3512.41751572,N,12149.88401249,W,2,10,1.0,8.867,M,-38.540,M,7.0,0131*65
$PYRTM,2024,125.333796487025,16.443443897164
$GNHDT,312.291,T*21
$PYRTM,2024,125.333802223657,16.443449633796
$GNGGA,080040.50,3512.41763478,N,12149.88433285,W,2,10,1.0,8.506,M,-38.540,M,7.4,0131*65
$PYRTM,2024,125.333802223657,16.443449633796
$GNHDT,312.112,T*29
$PYRTM,2024,125.333808065058,16.443455475197
$GNGGA,080041.00,3512.41772402,N,12149.88463071,W,2,10,1.0,8.340,M,-38.540,M,4.0,0131*63
$PYRTM,2024,125.333808065058,16.443455475197
$GNHDT,312.067,T*2A
$PYRTM,2024,125.333813794653,16.443461204792
$GNGGA,080041.50,3512.41783886,N,12149.88487127,W,2,10,1.0,8.370,M,-38.540,M,4.4,0131*67
$PYRTM,2024,125.333813794653,16.443461204792
$GNHDT,312.425,T*28
$PYRTM,2024,125.333819640845,16.443467050984
$GNGGA,080042.00,3512.41801214,N,12149.88506013,W,2,10,1.0,8.475,M,-38.540,M,5.0,0131*6C
$PYRTM,2024,125.333819640845,16.443467050984
$GNHDT,312.458,T*22
$PYRTM,2024,125.333825365544,16.443472775683
$GNGGA,080042.50,3512.41826000,N,12149.88524514,W,2,10,1.0,8.593,M,-38.540,M,5.4,0131*64
$PYRTM,2024,125.333825365544,16.443472775683
$GNHDT,312.539,T*24
$PYRTM,2024,125.333831205475,16.443478615613
$GNGGA,080043.00,3512.41856507,N,12149.88546182,W,2,10,1.0,8.621,M,-38.540,M,6.0,0131*67
$PYRTM,2024,125.333831205475,16.443478615613
$GNHDT,312.234,T*2E
$PYRTM,2024,125.333836938530,16.443484348669
$GNGGA,080043.50,3512.41889023,N,12149.88571175,W,2,10,1.0,8.611,M,-38.540,M,6.4,0131*68
$PYRTM,2024,125.333836938530,16.443484348669
$GNHDT,311.748,T*23
$PYRTM,2024,125.333842781238,16.443490191377
$GNGGA,080044.00,3512.41916610,N,12149.88599157,W,2,10,1.0,8.629,M,-38.540,M,7.0,0131*63
$PYRTM,2024,125.333842781238,16.443490191377
$GNHDT,311.591,T*25
$PYRTM,2024,125.333848514491,16.443495924630
$GNGGA,080044.50,3512.41935348,N,12149.88629260,W,2,10,1.0,8.735,M,-38.540,M,7.4,0131*68
$PYRTM,2024,125.333848514491,16.443495924630
$GNHDT,311.765,T*2C
$PYRTM,2024,125.333854355833,16.443501765972
$GNGGA,080045.00,3512.41943977,N,12149.88661997,W,2,10,1.0,8.909,M,-38.540,M,7.0,0131*61
$PYRTM,2024,125.333854355833,16.443501765972
$GNHDT,311.657,T*2C
$PYRTM,2024,125.333860089028,16.443507499178
$GNGGA,080045.50,3512.41947756,N,12149.88695721,W,2,10,1.0,9.089,M,-38.540,M,7.4,0131*61
$PYRTM,2024,125.333860089028,16.443507499178
$GNHDT,311.839,T*2A
$PYRTM,2024,125.333865934861,16.443513345000
$GNGGA,080046.00,3512.41952366,N,12149.88729438,W,2,10,1.0,9.158,M,-38.540,M,7.0,0131*60
$PYRTM,2024,125.333865934861,16.443513345000
$GNHDT,311.818,T*29
$PYRTM,2024,125.333871667708,16.443519077847
$GNGGA,080046.50,3512.41963255,N,12149.88759853,W,2,10,1.0,9.089,M,-38.540,M,7.4,0131*69
$PYRTM,2024,125.333871667708,16.443519077847
$GNHDT,311.823,T*21
$PYRTM,2024,125.333877505521,16.443524915660
$GNGGA,080047.00,3512.41982066,N,12149.88786189,W,2,10,1.0,8.887,M,-38.540,M,4.0,0131*6C
$PYRTM,2024,125.333877505521,16.443524915660
$GNHDT,311.781,T*26
$PYRTM,2024,125.333883242928,16.443530653067
$GNGGA,080047.50,3512.42007858,N,12149.88808223,W,2,10,1.0,8.617,M,-38.540,M,4.4,0131*62
$PYRTM,2024,125.333883242928,16.443530653067
$GNHDT,311.454,T*2D
$PYRTM,2024,125.333889078796,16.443536488924
$GNGGA,080048.00,3512.42037508,N,12149.88827462,W,2,10,1.0,8.340,M,-38.540,M,5.0,0131*6F
$PYRTM,2024,125.333889078796,16.443536488924
$GNHDT,311.829,T*2B
$PYRTM,2024,125.333894808067,16.443542218206
$GNGGA,080048.50,3512.42066273,N,12149.88846405,W,2,10,1.0,8.176,M,-38.540,M,5.4,0131*60
$PYRTM,2024,125.333894808067,16.443542218206
$GNHDT,311.444,T*2C
$PYRTM,2024,125.333900650613,16.443548060752
$GNGGA,080049.00,3512.42090181,N,12149.88867040,W,2,10,1.0,8.188,M,-38.540,M,6.0,0131*63
$PYRTM,2024,125.333900650613,16.443548060752
$GNHDT,311.344,T*2B
$PYRTM,2024,125.333906394653,16.443553804792
$GNGGA,080049.50,3512.42107535,N,12149.88892922,W,2,10,1.0,8.378,M,-38.540,M,6.4,0131*6C
$PYRTM,2024,125.333906394653,16.443553804792
$GNHDT,311.067,T*29
$PYRTM,2024,125.333912229745,16.443559639884
$GNGGA,080050.00,3512.42118952,N,12149.88922675,W,2,10,1.0,8.686,M,-38.540,M,7.0,0131*64
$PYRTM,2024,125.333912229745,16.443559639884
$GNHDT,311.145,T*28
$PYRTM,2024,125.333917959641,16.443565369780
$GNGGA,080050.50,3512.42128236,N,12149.88956898,W,2,10,1.0,9.003,M,-38.540,M,7.4,0131*6B
$PYRTM,2024,125.333917959641,16.443565369780
$GNHDT,310.920,T*22
$PYRTM,2024,125.333923800463,16.443571210602
$GNGGA,080051.00,3512.42140087,N,12149.88994114,W,2,10,1.0,9.214,M,-38.540,M,7.0,0131*6A
$PYRTM,2024,125.333923800463,16.443571210602
$GNHDT,310.903,T*23
$PYRTM,2024,125.333929533565,16.443576943704
$GNGGA,080051.50,3512.42156769,N,12149.89031708,W,2,10,1.0,9.245,M,-38.540,M,7.4,0131*63
$PYRTM,2024,125.333929533565,16.443576943704
$GNHDT,311.170,T*2E
$PYRTM,2024,125.333935376505,16.443582786875
$GNGGA,080052.00,3512.42178316,N,12149.89065190,W,2,10,1.0,9.138,M,-38.540,M,7.0,0131*6E
$PYRTM,2024,125.333935376505,16.443582786875
$GNHDT,311.697,T*20
$PYRTM,2024,125.333941108646,16.443588518785
$GNGGA,080052.50,3512.42202921,N,12149.89091205,W,2,10,1.0,8.973,M,-38.540,M,7.4,0131*6D
$PYRTM,2024,125.333941108646,16.443588518785
$GNHDT,311.158,T*24
$PYRTM,2024,125.333946966956,16.443594377095
$GNGGA,080053.00,3512.42227667,N,12149.89109160,W,2,10,1.0,8.817,M,-38.540,M,4.0,0131*67
$PYRTM,2024,125.333946966956,16.443594377095
$GNHDT,311.003,T*2B
$PYRTM,2024,125.333952684618,16.443600094757
$GNGGA,080053.50,3512.42250327,N,12149.89122970,W,2,10,1.0,8.771,M,-38.540,M,4.4,0131*68
$PYRTM,2024,125.333952684618,16.443600094757
$GNHDT,311.217,T*2C
$PYRTM,2024,125.333958527928,16.443605938067
$GNGGA,080054.00,3512.42270091,N,12149.89136096,W,2,10,1.0,8.811,M,-38.540,M,5.0,0131*6E
$PYRTM,2024,125.333958527928,16.443605938067
$GNHDT,311.139,T*23
$PYRTM,2024,125.333964256979,16.443611667118
$GNGGA,080054.50,3512.42287113,N,12149.89152073,W,2,10,1.0,8.948,M,-38.540,M,5.4,0131*68
$PYRTM,2024,125.333964256979,16.443611667118
$GNHDT,310.939,T*2A
$PYRTM,2024,125.333970096944,16.443617507083
$GNGGA,080055.00,3512.42302030,N,12149.89174082,W,2,10,1.0,9.082,M,-38.540,M,6.0,0131*63
$PYRTM,2024,125.333970096944,16.443617507083
$GNHDT,310.740,T*2A
$PYRTM,2024,125.333975832558,16.443623242697
$GNGGA,080055.50,3512.42315568,N,12149.89203126,W,2,10,1.0,9.150,M,-38.540,M,6.4,0131*6E
$PYRTM,2024,125.333975832558,16.443623242697
$GNHDT,310.614,T*2A
$PYRTM,2024,125.333981674514,16.443629084653
$GNGGA,080056.00,3512.42327809,N,12149.89237572,W,2,10,1.0,9.109,M,-38.540,M,7.0,0131*68
$PYRTM,2024,125.333981674514,16.443629084653
$GNHDT,310.730,T*2D
$PYRTM,2024,125.333987408241,16.443634818380
$GNGGA,080056.50,3512.42339876,N,12149.89273370,W,2,10,1.0,8.974,M,-38.540,M,7.4,0131*69
$PYRTM,2024,125.333987408241,16.443634818380
$GNHDT,310.875,T*23
$PYRTM,2024,125.333993245880,16.443640656019
$GNGGA,080057.00,3512.42353642,N,12149.89307014,W,2,10,1.0,8.774,M,-38.540,M,7.0,0131*61
$PYRTM,2024,125.333993245880,16.443640656019
$GNHDT,310.828,T*2B
$PYRTM,2024,125.333998979514,16.443646389653
$GNGGA,080057.50,3512.42370919,N,12149.89335785,W,2,10,1.0,8.554,M,-38.540,M,7.4,0131*6E
$PYRTM,2024,125.333998979514,16.443646389653
$GNHDT,310.872,T*24
$PYRTM,2024,125.334004819734,16.443652229884
$GNGGA,080058.00,3512.42391992,N,12149.89360933,W,2,10,1.0,8.351,M,-38.540,M,7.0,0131*6C
$PYRTM,2024,125.334004819734,16.443652229884
$GNHDT,310.982,T*2A
$PYRTM,2024,125.334010556227,16.443657966366
$GNGGA,080058.50,3512.42415780,N,12149.89383381,W,2,10,1.0,8.208,M,-38.540,M,7.4,0131*68
$PYRTM,2024,125.334010556227,16.443657966366
$GNHDT,310.883,T*2A
$PYRTM,2024,125.334016394444,16.443663804583
$GNGGA,080059.00,3512.42440731,N,12149.89403206,W,2,10,1.0,8.185,M,-38.540,M,4.0,0131*66
$PYRTM,2024,125.334016394444,16.443663804583
$GNHDT,310.818,T*28
$PYRTM,2024,125.334022127187,16.443669537326
$GNGGA,080059.50,3512.42464535,N,12149.89422860,W,2,10,1.0,8.270,M,-38.540,M,4.4,0131*67
$PYRTM,2024,125.334022127187,16.443669537326
$GNHDT,310.924,T*26
$PYRTM,2024,125.334027967882,16.443675378021
$GNGGA,080100.00,3512.42486291,N,12149.89444060,W,2,10,1.0,8.459,M,-38.540,M,5.0,0131*6A
$PYRTM,2024,125.334027967882,16.443675378021
$GNHDT,310.987,T*2F
$PYRTM,2024,125.334033705313,16.443681115451
$GNGGA,080100.50,3512.42506192,N,12149.89469745,W,2,10,1.0,8.665,M,-38.540,M,5.4,0131*60
$PYRTM,2024,125.334033705313,16.443681115451
$GNHDT,310.825,T*26
$PYRTM,2024,125.334039539699,16.443686949838
$GNGGA,080101.00,3512.42525323,N,12149.89500792,W,2,10,1.0,8.830,M,-38.540,M,6.0,0131*60
$PYRTM,2024,125.334039539699,16.443686949838
$GNHDT,310.600,T*2F
$PYRTM,2024,125.334045272465,16.443692682616
$GNGGA,080101.50,3512.42543631,N,12149.89534667,W,2,10,1.0,8.898,M,-38.540,M,6.4,0131*69
$PYRTM,2024,125.334045272465,16.443692682616
$GNHDT,310.938,T*2B
$PYRTM,2024,125.334051115775,16.443698525914
$GNGGA,080102.00,3512.42560041,N,12149.89570792,W,2,10,1.0,8.929,M,-38.540,M,7.0,0131*6A
$PYRTM,2024,125.334051115775,16.443698525914
$GNHDT,310.962,T*24
$PYRTM,2024,125.334056850312,16.443704260451
$GNGGA,080102.50,3512.42573441,N,12149.89606877,W,2,10,1.0,8.954,M,-38.540,M,7.4,0131*61
$PYRTM,2024,125.334056850312,16.443704260451
$GNHDT,310.374,T*29
$PYRTM,2024,125.334062692176,16.443710102315
$GNGGA,080103.00,3512.42584255,N,12149.89640338,W,2,10,1.0,8.963,M,-38.540,M,7.0,0131*6C
$PYRTM,2024,125.334062692176,16.443710102315
$GNHDT,310.059,T*25
$PYRTM,2024,125.334068421759,16.443715831898
$GNGGA,080103.50,3512.42596599,N,12149.89669870,W,2,10,1.0,8.935,M,-38.540,M,7.4,0131*66
$PYRTM,2024,125.334068421759,16.443715831898
$GNHDT,310.342,T*2C
$PYRTM,2024,125.334074268669,16.443721678808
$GNGGA,080104.00,3512.42614037,N,12149.89696597,W,2,10,1.0,8.816,M,-38.540,M,7.0,0131*6C
$PYRTM,2024,125.334074268669,16.443721678808
$GNHDT,310.519,T*24
$PYRTM,2024,125.334079998032,16.443727408171
$GNGGA,080104.50,3512.42638108,N,12149.89720946,W,2,10,1.0,8.606,M,-38.540,M,7.4,0131*6D
$PYRTM,2024,125.334079998032,16.443727408171
$GNHDT,310.807,T*26
$PYRTM,2024,125.334085836296,16.443733246435
$GNGGA,080105.00,3512.42666716,N,12149.89744300,W,2,10,1.0,8.357,M,-38.540,M,4.0,0131*67
$PYRTM,2024,125.334085836296,16.443733246435
$GNHDT,311.025,T*2F
$PYRTM,2024,125.334091574687,16.443738984826
$GNGGA,080105.50,3512.42694855,N,12149.89767638,W,2,10,1.0,8.212,M,-38.540,M,4.4,0131*6C
$PYRTM,2024,125.334091574687,16.443738984826
$GNHDT,310.719,T*26
$PYRTM,2024,125.334097413600,16.443744823738
$GNGGA,080106.00,3512.42718648,N,12149.89791441,W,2,10,1.0,8.299,M,-38.540,M,5.0,0131*6E
$PYRTM,2024,125.334097413600,16.443744823738
$GNHDT,310.563,T*29
$PYRTM,2024,125.334103145833,16.443750555972
$GNGGA,080106.50,3512.42736860,N,12149.89815022,W,2,10,1.0,8.580,M,-38.540,M,5.4,0131*6A
$PYRTM,2024,125.334103145833,16.443750555972
$GNHDT,310.509,T*25
$PYRTM,2024,125.334108987697,16.443756397836
$GNGGA,080107.00,3512.42750481,N,12149.89840936,W,2,10,1.0,8.959,M,-38.540,M,6.0,0131*6E
$PYRTM,2024,125.334108987697,16.443756397836
$GNHDT,310.408,T*25
$PYRTM,2024,125.334114720880,16.443762131030
$GNGGA,080107.50,3512.42761807,N,12149.89871034,W,2,10,1.0,9.295,M,-38.540,M,6.4,0131*6C
$PYRTM,2024,125.334114720880,16.443762131030
$GNHDT,310.055,T*29
$PYRTM,2024,125.334120566400,16.443767976539
$GNGGA,080108.00,3512.42772253,N,12149.89904879,W,2,10,1.0,9.470,M,-38.540,M,7.0,0131*65
$PYRTM,2024,125.334120566400,16.443767976539
$GNHDT,310.336,T*2F
$PYRTM,2024,125.334126292708,16.443773702847
$GNGGA,080108.50,3512.42783672,N,12149.89941615,W,2,10,1.0,9.437,M,-38.540,M,7.4,0131*6B
$PYRTM,2024,125.334126292708,16.443773702847
$GNHDT,310.312,T*29
$PYRTM,2024,125.334132137269,16.443779547407
$GNGGA,080109.00,3512.42797900,N,12149.89976615,W,2,10,1.0,9.241,M,-38.540,M,7.0,0131*67
$PYRTM,2024,125.334132137269,16.443779547407
$GNHDT,310.393,T*20
$PYRTM,2024,125.334137870000,16.443785280139
$GNGGA,080109.50,3512.42816187,N,12149.90006280,W,2,10,1.0,8.954,M,-38.540,M,7.4,0131*67
$PYRTM,2024,125.334137870000,16.443785280139
$GNHDT,310.280,T*23
$PYRTM,2024,125.334143705058,16.443791115208
$GNGGA,080110.00,3512.42839150,N,12149.90029201,W,2,10,1.0,8.682,M,-38.540,M,7.0,0131*69
$PYRTM,2024,125.334143705058,16.443791115208
$GNHDT,310.244,T*2B
$PYRTM,2024,125.334149442963,16.443796853113
$GNGGA,080110.50,3512.42865104,N,12149.90047379,W,2,10,1.0,8.470,M,-38.540,M,7.4,0131*69
$PYRTM,2024,125.334149442963,16.443796853113
$GNHDT,310.536,T*29
$PYRTM,2024,125.334155284109,16.443802694248
$GNGGA,080111.00,3512.42891064,N,12149.90063061,W,2,10,1.0,8.387,M,-38.540,M,4.0,0131*65
$PYRTM,2024,125.334155284109,16.443802694248
$GNHDT,310.177,T*28
$PYRTM,2024,125.334161017025,16.443808427164
$GNGGA,080111.50,3512.42914559,N,12149.90081547,W,2,10,1.0,8.439,M,-38.540,M,4.4,0131*6C
$PYRTM,2024,125.334161017025,16.443808427164
$GNHDT,310.037,T*2D
$PYRTM,2024,125.334166857014,16.443814267153
$GNGGA,080112.00,3512.42932612,N,12149.90103316,W,2,10,1.0,8.595,M,-38.540,M,5.0,0131*69
$PYRTM,2024,125.334166857014,16.443814267153
$GNHDT,310.248,T*27
$PYRTM,2024,125.334172590810,16.443820000949
$GNGGA,080112.50,3512.42945310,N,12149.90129725,W,2,10,1.0,8.807,M,-38.540,M,5.4,0131*65
$PYRTM,2024,125.334172590810,16.443820000949
$GNHDT,310.806,T*27
$PYRTM,2024,125.334178431262,16.443825841400
$GNGGA,080113.00,3512.42953230,N,12149.90160178,W,2,10,1.0,9.021,M,-38.540,M,6.0,0131*6C
$PYRTM,2024,125.334178431262,16.443825841400
$GNHDT,310.809,T*28
$PYRTM,2024,125.334184165521,16.443831575660
$GNGGA,080113.50,3512.42961067,N,12149.90192328,W,2,10,1.0,9.158,M,-38.540,M,6.4,0131*69
$PYRTM,2024,125.334184165521,16.443831575660
$GNHDT,310.818,T*28
$PYRTM,2024,125.334190007025,16.443837417164
$GNGGA,080114.00,3512.42972538,N,12149.90224921,W,2,10,1.0,9.131,M,-38.540,M,7.0,0131*61
$PYRTM,2024,125.334190007025,16.443837417164
$GNHDT,310.804,T*25
$PYRTM,2024,125.334195742060,16.443843152199
$GNGGA,080114.50,3512.42990640,N,12149.90254678,W,2,10,1.0,8.995,M,-38.540,M,7.4,0131*63
$PYRTM,2024,125.334195742060,16.443843152199
$GNHDT,310.498,T*2C
$PYRTM,2024,125.334201586007,16.443848996146
$GNGGA,080115.00,3512.43015082,N,12149.90280735,W,2,10,1.0,8.723,M,-38.540,M,7.0,0131*6C
$PYRTM,2024,125.334201586007,16.443848996146
$GNHDT,310.322,T*2A
$PYRTM,2024,125.334207311667,16.443854721806
$GNGGA,080115.50,3512.43041874,N,12149.90303910,W,2,10,1.0,8.419,M,-38.540,M,7.4,0131*64
$PYRTM,2024,125.334207311667,16.443854721806
$GNHDT,310.212,T*28
$PYRTM,2024,125.334213154340,16.443860564479
$GNGGA,080116.00,3512.43067723,N,12149.90327394,W,2,10,1.0,8.154,M,-38.540,M,7.0,0131*63
$PYRTM,2024,125.334213154340,16.443860564479
$GNHDT,310.047,T*2A
$PYRTM,2024,125.334218889965,16.443866300104
$GNGGA,080116.50,3512.43089921,N,12149.90353986,W,2,10,1.0,8.003,M,-38.540,M,7.4,0131*67
$PYRTM,2024,125.334218889965,16.443866300104
$GNHDT,310.264,T*29
$PYRTM,2024,125.334224726933,16.443872137072
$GNGGA,080117.00,3512.43107567,N,12149.90382814,W,2,10,1.0,7.991,M,-38.540,M,4.0,0131*66
$PYRTM,2024,125.334224726933,16.443872137072
$GNHDT,310.390,T*23
$PYRTM,2024,125.334230456748,16.443877866887
$GNGGA,080117.50,3512.43121201,N,12149.90412921,W,2,10,1.0,8.141,M,-38.540,M,4.4,0131*67
$PYRTM,2024,125.334230456748,16.443877866887
$GNHDT,310.183,T*23
$PYRTM,2024,125.334236302396,16.443883712535
$GNGGA,080118.00,3512.43133106,N,12149.90441698,W,2,10,1.0,8.426,M,-38.540,M,5.0,0131*60
$PYRTM,2024,125.334236302396,16.443883712535
$GNHDT,309.934,T*2F
$PYRTM,2024,125.334242038981,16.443889449120
$GNGGA,080118.50,3512.43146839,N,12149.90469336,W,2,10,1.0,8.737,M,-38.540,M,5.4,0131*6E
$PYRTM,2024,125.334242038981,16.443889449120
$GNHDT,310.116,T*2F
$PYRTM,2024,125.334247878808,16.443895288947
$GNGGA,080119.00,3512.43164340,N,12149.90497427,W,2,10,1.0,9.005,M,-38.540,M,6.0,0131*69
$PYRTM,2024,125.334247878808,16.443895288947
$GNHDT,310.104,T*2C
$PYRTM,2024,125.334253616366,16.443901026505
$GNGGA,080119.50,3512.43185389,N,12149.90526917,W,2,10,1.0,9.163,M,-38.540,M,6.4,0131*66
$PYRTM,2024,125.334253616366,16.443901026505
$GNHDT,309.904,T*2C
$PYRTM,2024,125.334259452639,16.443906862778
$GNGGA,080120.00,3512.43207605,N,12149.90558998,W,2,10,1.0,9.139,M,-38.540,M,7.0,0131*65
$PYRTM,2024,125.334259452639,16.443906862778
$GNHDT,309.898,T*28
$PYRTM,2024,125.334265185243,16.443912595382
$GNGGA,080120.50,3512.43229443,N,12149.90592266,W,2,10,1.0,8.976,M,-38.540,M,7.4,0131*66
$PYRTM,2024,125.334265185243,16.443912595382
$GNHDT,309.990,T*21
$PYRTM,2024,125.334271020938,16.443918431076
$GNGGA,080121.00,3512.43249202,N,12149.90626906,W,2,10,1.0,8.710,M,-38.540,M,7.0,0131*6C
$PYRTM,2024,125.334271020938,16.443918431076
$GNHDT,309.861,T*2E
$PYRTM,2024,125.334276759699,16.443924169838
$GNGGA,080121.50,3512.43266360,N,12149.90661134,W,2,10,1.0,8.454,M,-38.540,M,7.4,0131*6C
$PYRTM,2024,125.334276759699,16.443924169838
$GNHDT,309.447,T*26
$PYRTM,2024,125.334282594329,16.443930004468
$GNGGA,080122.00,3512.43281086,N,12149.90692955,W,2,10,1.0,8.270,M,-38.540,M,7.0,0131*6F
$PYRTM,2024,125.334282594329,16.443930004468
$GNHDT,309.267,T*22
$PYRTM,2024,125.334288329410,16.443935739549
$GNGGA,080122.50,3512.43295351,N,12149.90721122,W,2,10,1.0,8.252,M,-38.540,M,7.4,0131*63
$PYRTM,2024,125.334288329410,16.443935739549
$GNHDT,309.767,T*27
$PYRTM,2024,125.334294177512,16.443941587650
$GNGGA,080123.00,3512.43311601,N,12149.90744483,W,2,10,1.0,8.391,M,-38.540,M,4.0,0131*6E
$PYRTM,2024,125.334294177512,16.443941587650
$GNHDT,310.393,T*20
$PYRTM,2024,125.334299905220,16.443947315359
$GNGGA,080123.50,3512.43331297,N,12149.90764669,W,2,10,1.0,8.616,M,-38.540,M,4.4,0131*68
$PYRTM,2024,125.334299905220,16.443947315359
$GNHDT,310.346,T*28
$PYRTM,2024,125.334305750660,16.443953160799
$GNGGA,080124.00,3512.43356192,N,12149.90783349,W,2,10,1.0,8.855,M,-38.540,M,5.0,0131*6F
$PYRTM,2024,125.334305750660,16.443953160799
$GNHDT,310.404,T*29
$PYRTM,2024,125.334311487558,16.443958897697
$GNGGA,080124.50,3512.43384116,N,12149.90801732,W,2,10,1.0,9.066,M,-38.541,M,5.4,0131*68
$PYRTM,2024,125.334311487558,16.443958897697
$GNHDT,310.503,T*2F
$PYRTM,2024,125.334317322917,16.443964733056
$GNGGA,080125.00,3512.43410955,N,12149.90821659,W,2,10,1.0,9.218,M,-38.541,M,6.0,0131*6B
$PYRTM,2024,125.334317322917,16.443964733056
$GNHDT,310.431,T*2F
$PYRTM,2024,125.334323053287,16.443970463426
$GNGGA,080125.50,3512.43431794,N,12149.90846611,W,2,10,1.0,9.334,M,-38.541,M,6.4,0131*68
$PYRTM,2024,125.334323053287,16.443970463426
$GNHDT,309.897,T*27
$PYRTM,2024,125.334328899734,16.443976309873
$GNGGA,080126.00,3512.43445513,N,12149.90877613,W,2,10,1.0,9.384,M,-38.541,M,7.0,0131*6E
$PYRTM,2024,125.334328899734,16.443976309873
$GNHDT,309.726,T*22
$PYRTM,2024,125.334334629005,16.443982039155
$GNGGA,080126.50,3512.43454644,N,12149.90913259,W,2,10,1.0,9.324,M,-38.541,M,7.4,0131*6D
$PYRTM,2024,125.334334629005,16.443982039155
$GNHDT,309.299,T*23
$PYRTM,2024,125.334340463588,16.443987873727
$GNGGA,080127.00,3512.43463112,N,12149.90951639,W,2,10,1.0,9.115,M,-38.541,M,7.0,0131*69
$PYRTM,2024,125.334340463588,16.443987873727
$GNHDT,309.326,T*26
$PYRTM,2024,125.334346203530,16.443993613669
$GNGGA,080127.50,3512.43474274,N,12149.90987242,W,2,10,1.0,8.815,M,-38.541,M,7.4,0131*66
$PYRTM,2024,125.334346203530,16.443993613669
$GNHDT,309.748,T*2A
$PYRTM,2024,125.334352046181,16.443999456319
$GNGGA,080128.00,3512.43489509,N,12149.91015486,W,2,10,1.0,8.517,M,-38.541,M,7.0,0131*65
$PYRTM,2024,125.334352046181,16.443999456319
$GNHDT,309.618,T*2E
$PYRTM,2024,125.334357778241,16.444005188380
$GNGGA,080128.50,3512.43508889,N,12149.91035705,W,2,10,1.0,8.312,M,-38.541,M,7.4,0131*60
$PYRTM,2024,125.334357778241,16.444005188380
$GNHDT,309.946,T*2A
$PYRTM,2024,125.334363615023,16.444011025162
$GNGGA,080129.00,3512.43531799,N,12149.91050137,W,2,10,1.0,8.187,M,-38.541,M,4.0,0131*6D
$PYRTM,2024,125.334363615023,16.444011025162
$GNHDT,310.067,T*28
$PYRTM,2024,125.334369350451,16.444016760602
$GNGGA,080129.50,3512.43557546,N,12149.91064587,W,2,10,1.0,8.100,M,-38.541,M,4.4,0131*6B
$PYRTM,2024,125.334369350451,16.444016760602
$GNHDT,310.055,T*29
$PYRTM,2024,125.334375190741,16.444022600880
$GNGGA,080130.00,3512.43584916,N,12149.91083626,W,2,10,1.0,7.997,M,-38.541,M,5.0,0131*6C
$PYRTM,2024,125.334375190741,16.444022600880
$GNHDT,310.281,T*22
$PYRTM,2024,125.334380923287,16.444028333426
$GNGGA,080130.50,3512.43610714,N,12149.91109390,W,2,10,1.0,7.928,M,-38.541,M,5.4,0131*60
$PYRTM,2024,125.334380923287,16.444028333426
$GNHDT,310.311,T*2A
$PYRTM,2024,125.334386761065,16.444034171204
$GNGGA,080131.00,3512.43628012,N,12149.91139683,W,2,10,1.0,8.024,M,-38.541,M,6.0,0131*67
$PYRTM,2024,125.334386761065,16.444034171204
$GNHDT,310.035,T*2F
$PYRTM,2024,125.334392499120,16.444039909259
$GNGGA,080131.50,3512.43634914,N,12149.91171910,W,2,10,1.0,8.321,M,-38.541,M,6.4,0131*6B
$PYRTM,2024,125.334392499120,16.444039909259
$GNHDT,310.059,T*25
$PYRTM,2024,125.334398342975,16.444045753113
$GNGGA,080132.00,3512.43634075,N,12149.91205389,W,2,10,1.0,8.773,M,-38.541,M,7.0,0131*6F
$PYRTM,2024,125.334398342975,16.444045753113
$GNHDT,309.812,T*2A
$PYRTM,2024,125.334404069063,16.444051479201
$GNGGA,080132.50,3512.43633538,N,12149.91240008,W,2,10,1.0,9.138,M,-38.541,M,7.4,0131*66
$PYRTM,2024,125.334404069063,16.444051479201
$GNHDT,309.413,T*27
$PYRTM,2024,125.334409913056,16.444057323194
$GNGGA,080133.00,3512.43642896,N,12149.91276322,W,2,10,1.0,9.130,M,-38.541,M,7.0,0131*6F
$PYRTM,2024,125.334409913056,16.444057323194
$GNHDT,309.201,T*22
$PYRTM,2024,125.334415651366,16.444063061505
$GNGGA,080133.50,3512.43664291,N,12149.91311896,W,2,10,1.0,8.748,M,-38.541,M,7.4,0131*6B
$PYRTM,2024,125.334415651366,16.444063061505
$GNHDT,309.118,T*29
$PYRTM,2024,125.334421486944,16.444068897095
$GNGGA,080134.00,3512.43692742,N,12149.91343398,W,2,10,1.0,8.196,M,-38.541,M,7.0,0131*68
$PYRTM,2024,125.334421486944,16.444068897095
$GNHDT,309.026,T*25
$PYRTM,2024,125.334427218218,16.444074628368
$GNGGA,080134.50,3512.43721549,N,12149.91370206,W,2,10,1.0,7.715,M,-38.541,M,7.4,0131*6D
$PYRTM,2024,125.334427218218,16.444074628368
$GNHDT,309.279,T*2D
$PYRTM,2024,125.334433062164,16.444080472303
$GNGGA,080135.00,3512.43743725,N,12149.91392730,W,2,10,1.0,7.535,M,-38.541,M,4.0,0131*6E
$PYRTM,2024,125.334433062164,16.444080472303
$GNHDT,309.134,T*27
$PYRTM,2024,125.334438799282,16.444086209421
$GNGGA,080135.50,3512.43758430,N,12149.91411797,W,2,10,1.0,7.702,M,-38.541,M,4.4,0131*65
$PYRTM,2024,125.334438799282,16.444086209421
$GNHDT,308.953,T*2F
$PYRTM,2024,125.334444633715,16.444092043854
$GNGGA,080136.00,3512.43768273,N,12149.91430584,W,2,10,1.0,8.159,M,-38.541,M,5.0,0131*60
$PYRTM,2024,125.334444633715,16.444092043854
$GNHDT,308.782,T*2D
$PYRTM,2024,125.334450368356,16.444097778495
$GNGGA,080136.50,3512.43776845,N,12149.91450355,W,2,10,1.0,8.693,M,-38.541,M,5.4,0131*6C
$PYRTM,2024,125.334450368356,16.444097778495
$GNHDT,308.627,T*23
$PYRTM,2024,125.334456213611,16.444103623750
$GNGGA,080137.00,3512.43787148,N,12149.91475326,W,2,10,1.0,9.198,M,-38.541,M,6.0,0131*6B
$PYRTM,2024,125.334456213611,16.444103623750
$GNHDT,308.833,T*28
$PYRTM,2024,125.334461945116,16.444109355255
$GNGGA,080137.50,3512.43800370,N,12149.91506480,W,2,10,1.0,9.497,M,-38.541,M,6.4,0131*67
$PYRTM,2024,125.334461945116,16.444109355255
$GNHDT,308.579,T*2B
$PYRTM,2024,125.334467790012,16.444115200150
$GNGGA,080138.00,3512.43816451,N,12149.91542359,W,2,10,1.0,9.564,M,-38.541,M,7.0,0131*65
$PYRTM,2024,125.334467790012,16.444115200150
$GNHDT,308.754,T*26
$PYRTM,2024,125.334473518530,16.444120928669
$GNGGA,080138.50,3512.43833494,N,12149.91576278,W,2,10,1.0,9.397,M,-38.541,M,7.4,0131*65
$PYRTM,2024,125.334473518530,16.444120928669
$GNHDT,308.445,T*25
$PYRTM,2024,125.334479358287,16.444126768426
$GNGGA,080139.00,3512.43850722,N,12149.91605911,W,2,10,1.0,9.062,M,-38.541,M,7.0,0131*64
$PYRTM,2024,125.334479358287,16.444126768426
$GNHDT,308.432,T*25
$PYRTM,2024,125.334485091516,16.444132501655
$GNGGA,080139.50,3512.43868056,N,12149.91629823,W,2,10,1.0,8.701,M,-38.541,M,7.4,0131*67
$PYRTM,2024,125.334485091516,16.444132501655
$GNHDT,308.571,T*23
$PYRTM,2024,125.334490931910,16.444138342049
$GNGGA,080140.00,3512.43884939,N,12149.91648677,W,2,10,1.0,8.378,M,-38.541,M,7.0,0131*68
$PYRTM,2024,125.334490931910,16.444138342049
$GNHDT,308.656,T*25
$PYRTM,2024,125.334496663623,16.444144073762
$GNGGA,080140.50,3512.43901377,N,12149.91665332,W,2,10,1.0,8.201,M,-38.541,M,7.4,0131*61
$PYRTM,2024,125.334496663623,16.444144073762
$GNHDT,308.460,T*22
$PYRTM,2024,125.334502508403,16.444149918542
$GNGGA,080141.00,3512.43916479,N,12149.91682602,W,2,10,1.0,8.156,M,-38.541,M,4.0,0131*63
$PYRTM,2024,125.334502508403,16.444149918542
$GNHDT,308.588,T*25
$PYRTM,2024,125.334508238981,16.444155649132
$GNGGA,080141.50,3512.43930376,N,12149.91704473,W,2,10,1.0,8.213,M,-38.541,M,4.4,0131*67
$PYRTM,2024,125.334508238981,16.444155649132
$GNHDT,308.569,T*2A
$PYRTM,2024,125.334514079757,16.444161489896
$GNGGA,080142.00,3512.43943138,N,12149.91730980,W,2,10,1.0,8.300,M,-38.541,M,5.0,0131*6D
$PYRTM,2024,125.334514079757,16.444161489896
$GNHDT,308.430,T*27
$PYRTM,2024,125.334519810428,16.444167220567
$GNGGA,080142.50,3512.43956610,N,12149.91760735,W,2,10,1.0,8.393,M,-38.541,M,5.4,0131*6A
$PYRTM,2024,125.334519810428,16.444167220567
$GNHDT,308.344,T*23
$PYRTM,2024,125.334525656146,16.444173066285
$GNGGA,080143.00,3512.43970611,N,12149.91790165,W,2,10,1.0,8.466,M,-38.541,M,6.0,0131*6D
$PYRTM,2024,125.334525656146,16.444173066285
$GNHDT,308.291,T*2A
$PYRTM,2024,125.334531387396,16.444178797535
$GNGGA,080143.50,3512.43984479,N,12149.91817949,W,2,10,1.0,8.518,M,-38.541,M,6.4,0131*65
$PYRTM,2024,125.334531387396,16.444178797535
$GNHDT,308.272,T*27
$PYRTM,2024,125.334537228947,16.444184639086
$GNGGA,080144.00,3512.43998146,N,12149.91843790,W,2,10,1.0,8.546,M,-38.541,M,7.0,0131*66
$PYRTM,2024,125.334537228947,16.444184639086
$GNHDT,308.627,T*23
$PYRTM,2024,125.334542962199,16.444190372350
$GNGGA,080144.50,3512.44011668,N,12149.91867980,W,2,10,1.0,8.573,M,-38.541,M,7.4,0131*6C
$PYRTM,2024,125.334542962199,16.444190372350
$GNHDT,308.488,T*24
$PYRTM,2024,125.334548801296,16.444196211435
$GNGGA,080145.00,3512.44023779,N,12149.91890771,W,2,10,1.0,8.566,M,-38.541,M,7.0,0131*60
$PYRTM,2024,125.334548801296,16.444196211435
$GNHDT,308.300,T*23
$PYRTM,2024,125.334554536435,16.444201946574
$GNGGA,080145.50,3512.44034966,N,12149.91913182,W,2,10,1.0,8.511,M,-38.541,M,7.4,0131*67
$PYRTM,2024,125.334554536435,16.444201946574
$GNHDT,308.906,T*2F
$PYRTM,2024,125.334560374236,16.444207784387
$GNGGA,080146.00,3512.44045571,N,12149.91937824,W,2,10,1.0,8.395,M,-38.541,M,7.0,0131*60
$PYRTM,2024,125.334560374236,16.444207784387
$GNHDT,308.744,T*27
$PYRTM,2024,125.334566109641,16.444213519792
$GNGGA,080146.50,3512.44056941,N,12149.91964490,W,2,10,1.0,8.202,M,-38.541,M,7.4,0131*66
$PYRTM,2024,125.334566109641,16.444213519792
$GNHDT,308.707,T*20
$PYRTM,2024,125.334571953044,16.444219363183
$GNGGA,080147.00,3512.44069795,N,12149.91992732,W,2,10,1.0,7.965,M,-38.541,M,4.0,0131*69
$PYRTM,2024,125.334571953044,16.444219363183
$GNHDT,308.606,T*20
$PYRTM,2024,125.334577683345,16.444225093484
$GNGGA,080147.50,3512.44084641,N,12149.92020503,W,2,10,1.0,7.788,M,-38.541,M,4.4,0131*6D
$PYRTM,2024,125.334577683345,16.444225093484
$GNHDT,308.577,T*25
$PYRTM,2024,125.334583524144,16.444230934294
$GNGGA,080148.00,3512.44101680,N,12149.92046189,W,2,10,1.0,7.727,M,-38.541,M,5.0,0131*60
$PYRTM,2024,125.334583524144,16.444230934294
$GNHDT,308.613,T*24
$PYRTM,2024,125.334589256979,16.444236667118
$GNGGA,080148.50,3512.44120505,N,12149.92070066,W,2,10,1.0,7.811,M,-38.541,M,5.4,0131*63
$PYRTM,2024,125.334589256979,16.444236667118
$GNHDT,308.673,T*22
$PYRTM,2024,125.334595099606,16.444242509745
$GNGGA,080149.00,3512.44139669,N,12149.92093547,W,2,10,1.0,8.003,M,-38.541,M,6.0,0131*6E
$PYRTM,2024,125.334595099606,16.444242509745
$GNHDT,308.832,T*29
$PYRTM,2024,125.334600831343,16.444248241481
$GNGGA,080149.50,3512.44156712,N,12149.92118676,W,2,10,1.0,8.252,M,-38.541,M,6.4,0131*6E
$PYRTM,2024,125.334600831343,16.444248241481
$GNHDT,308.722,T*27
$PYRTM,2024,125.334606671852,16.444254081991
$GNGGA,080150.00,3512.44170013,N,12149.92147949,W,2,10,1.0,8.482,M,-38.541,M,7.0,0131*66
$PYRTM,2024,125.334606671852,16.444254081991
$GNHDT,308.666,T*26
$PYRTM,2024,125.334612408391,16.444259818530
$GNGGA,080150.50,3512.44180593,N,12149.92180786,W,2,10,1.0,8.656,M,-38.541,M,7.4,0131*68
$PYRTM,2024,125.334612408391,16.444259818530
$GNHDT,308.407,T*23
$PYRTM,2024,125.334618243519,16.444265653657
$GNGGA,080151.00,3512.44190439,N,12149.92215431,W,2,10,1.0,8.715,M,-38.541,M,7.0,0131*6E
$PYRTM,2024,125.334618243519,16.444265653657
$GNHDT,308.347,T*20
$PYRTM,2024,125.334623982431,16.444271392569
$GNGGA,080151.50,3512.44202442,N,12149.92249151,W,2,10,1.0,8.683,M,-38.541,M,7.4,0131*6F
$PYRTM,2024,125.334623982431,16.444271392569
$GNHDT,308.686,T*28
$PYRTM,2024,125.334629820903,16.444277231053
$GNGGA,080152.00,3512.44218681,N,12149.92279060,W,2,10,1.0,8.580,M,-38.541,M,7.0,0131*6B
$PYRTM,2024,125.334629820903,16.444277231053
$GNHDT,308.718,T*2E
$PYRTM,2024,125.334635552813,16.444282962963
$GNGGA,080152.50,3512.44238835,N,12149.92304042,W,2,10,1.0,8.446,M,-38.541,M,7.4,0131*69
$PYRTM,2024,125.334635552813,16.444282962963
$GNHDT,308.654,T*27
$PYRTM,2024,125.334641395613,16.444288805764
$GNGGA,080153.00,3512.44262315,N,12149.92324336,W,2,10,1.0,8.318,M,-38.541,M,4.0,0131*62
$PYRTM,2024,125.334641395613,16.444288805764
$GNHDT,308.823,T*29
$PYRTM,2024,125.334647127350,16.444294537488
$GNGGA,080153.50,3512.44286662,N,12149.92342993,W,2,10,1.0,8.205,M,-38.541,M,4.4,0131*64
$PYRTM,2024,125.334647127350,16.444294537488
$GNHDT,308.910,T*28
$PYRTM,2024,125.334652967106,16.444300377245
$GNGGA,080154.00,3512.44310762,N,12149.92362309,W,2,10,1.0,8.111,M,-38.541,M,5.0,0131*61
$PYRTM,2024,125.334652967106,16.444300377245
$GNHDT,309.133,T*20
$PYRTM,2024,125.334658698426,16.444306108576
$GNGGA,080154.50,3512.44332316,N,12149.92386902,W,2,10,1.0,8.047,M,-38.541,M,5.4,0131*6E
$PYRTM,2024,125.334658698426,16.444306108576
$GNHDT,309.455,T*25
$PYRTM,2024,125.334664546157,16.444311956296
$GNGGA,080155.00,3512.44349904,N,12149.92417610,W,2,10,1.0,8.005,M,-38.541,M,6.0,0131*6D
$PYRTM,2024,125.334664546157,16.444311956296
$GNHDT,309.329,T*29
$PYRTM,2024,125.334670279213,16.444317689352
$GNGGA,080155.50,3512.44362928,N,12149.92452756,W,2,10,1.0,8.036,M,-38.541,M,6.4,0131*69
$PYRTM,2024,125.334670279213,16.444317689352
$GNHDT,309.457,T*27
$PYRTM,2024,125.334676121655,16.444323531794
$GNGGA,080156.00,3512.44372506,N,12149.92488835,W,2,10,1.0,8.126,M,-38.541,M,7.0,0131*66
$PYRTM,2024,125.334676121655,16.444323531794
$GNHDT,309.438,T*2E
$PYRTM,2024,125.334681852940,16.444329263079
$GNGGA,080156.50,3512.44382242,N,12149.92521163,W,2,10,1.0,8.269,M,-38.541,M,7.4,0131*6F
$PYRTM,2024,125.334681852940,16.444329263079
$GNHDT,309.716,T*21
$PYRTM,2024,125.334687688368,16.444335098507
$GNGGA,080157.00,3512.44395237,N,12149.92547253,W,2,10,1.0,8.432,M,-38.541,M,7.0,0131*63
$PYRTM,2024,125.334687688368,16.444335098507
$GNHDT,309.962,T*2C
$PYRTM,2024,125.334693426111,16.444340836250
$GNGGA,080157.50,3512.44412549,N,12149.92567202,W,2,10,1.0,8.572,M,-38.541,M,7.4,0131*67
$PYRTM,2024,125.334693426111,16.444340836250
$GNHDT,309.842,T*2F
$PYRTM,2024,125.334699263866,16.444346674005
$GNGGA,080158.00,3512.44431879,N,12149.92583532,W,2,10,1.0,8.634,M,-38.541,M,7.0,0131*69
$PYRTM,2024,125.334699263866,16.444346674005
$GNHDT,309.851,T*2D
$PYRTM,2024,125.334705003738,16.444352413877
$GNGGA,080158.50,3512.44452030,N,12149.92600213,W,2,10,1.0,8.607,M,-38.541,M,7.4,0131*64
$PYRTM,2024,125.334705003738,16.444352413877
$GNHDT,309.614,T*22
$PYRTM,2024,125.334710840544,16.444358250683
$GNGGA,080159.00,3512.44471342,N,12149.92619091,W,2,10,1.0,8.497,M,-38.541,M,4.0,0131*6B
$PYRTM,2024,125.334710840544,16.444358250683
$GNHDT,309.635,T*21
$PYRTM,2024,125.334716577176,16.444363987315
$GNGGA,080159.50,3512.44488099,N,12149.92641645,W,2,10,1.0,8.340,M,-38.541,M,4.4,0131*66
$PYRTM,2024,125.334716577176,16.444363987315
$GNHDT,309.630,T*24
$PYRTM,2024,125.334722410660,16.444369820810
$GNGGA,080200.00,3512.44501571,N,12149.92668936,W,2,10,1.0,8.144,M,-38.541,M,5.0,0131*6C
$PYRTM,2024,125.334722410660,16.444369820810
$GNHDT,309.555,T*24
$PYRTM,2024,125.334728150498,16.444375560637
$GNGGA,080200.50,3512.44511709,N,12149.92700526,W,2,10,1.0,7.986,M,-38.541,M,5.4,0131*6A
$PYRTM,2024,125.334728150498,16.444375560637
$GNHDT,309.708,T*2E
$PYRTM,2024,125.334733987176,16.444381397315
$GNGGA,080201.00,3512.44519867,N,12149.92734315,W,2,10,1.0,7.868,M,-38.541,M,6.0,0131*66
$PYRTM,2024,125.334733987176,16.444381397315
$GNHDT,309.866,T*29
$PYRTM,2024,125.334739719039,16.444387129178
$GNGGA,080201.50,3512.44527045,N,12149.92768663,W,2,10,1.0,7.814,M,-38.541,M,6.4,0131*64
$PYRTM,2024,125.334739719039,16.444387129178
$GNHDT,310.324,T*2C
$PYRTM,2024,125.334745564745,16.444392974884
$GNGGA,080202.00,3512.44535973,N,12149.92800841,W,2,10,1.0,7.836,M,-38.541,M,7.0,0131*67
$PYRTM,2024,125.334745564745,16.444392974884
$GNHDT,310.461,T*2A
$PYRTM,2024,125.334751294861,16.444398705000
$GNGGA,080202.50,3512.44550219,N,12149.92827282,W,2,10,1.0,7.908,M,-38.541,M,7.4,0131*6E
$PYRTM,2024,125.334751294861,16.444398705000
$GNHDT,310.487,T*22
$PYRTM,2024,125.334757141215,16.444404551354
$GNGGA,080203.00,3512.44571504,N,12149.92849646,W,2,10,1.0,7.992,M,-38.541,M,7.0,0131*61
$PYRTM,2024,125.334757141215,16.444404551354
$GNHDT,310.494,T*20
$PYRTM,2024,125.334762865741,16.444410275880
$GNGGA,080203.50,3512.44597895,N,12149.92869456,W,2,10,1.0,8.075,M,-38.541,M,7.4,0131*63
$PYRTM,2024,125.334762865741,16.444410275880
$GNHDT,310.307,T*2D
$PYRTM,2024,125.334768705926,16.444416116065
$GNGGA,080204.00,3512.44625376,N,12149.92889983,W,2,10,1.0,8.148,M,-38.541,M,7.0,0131*6D
$PYRTM,2024,125.334768705926,16.444416116065
$GNHDT,310.293,T*21
$PYRTM,2024,125.334774446053,16.444421856192
$GNGGA,080204.50,3512.44649961,N,12149.92913606,W,2,10,1.0,8.243,M,-38.541,M,7.4,0131*62
$PYRTM,2024,125.334774446053,16.444421856192
$GNHDT,310.343,T*2D
$PYRTM,2024,125.334780284711,16.444427694861
$GNGGA,080205.00,3512.44670510,N,12149.92941421,W,2,10,1.0,8.300,M,-38.541,M,4.0,0131*67
$PYRTM,2024,125.334780284711,16.444427694861
$GNHDT,310.512,T*2F
$PYRTM,2024,125.334786021088,16.444433431227
$GNGGA,080205.50,3512.44687092,N,12149.92972757,W,2,10,1.0,8.332,M,-38.541,M,4.4,0131*62
$PYRTM,2024,125.334786021088,16.444433431227
$GNHDT,311.051,T*2C
$PYRTM,2024,125.334791857882,16.444439268021
$GNGGA,080206.00,3512.44699571,N,12149.93008072,W,2,10,1.0,8.348,M,-38.541,M,5.0,0131*6E
$PYRTM,2024,125.334791857882,16.444439268021
$GNHDT,310.924,T*26
$PYRTM,2024,125.334797590995,16.444445001146
$GNGGA,080206.50,3512.44709405,N,12149.93044868,W,2,10,1.0,8.369,M,-38.541,M,5.4,0131*6D
$PYRTM,2024,125.334797590995,16.444445001146
$GNHDT,310.609,T*26
$PYRTM,2024,125.334803432998,16.444450843137
$GNGGA,080207.00,3512.44719042,N,12149.93079654,W,2,10,1.0,8.395,M,-38.541,M,6.0,0131*64
$PYRTM,2024,125.334803432998,16.444450843137
$GNHDT,310.619,T*27
$PYRTM,2024,125.334809165961,16.444456576100
$GNGGA,080207.50,3512.44732404,N,12149.93108273,W,2,10,1.0,8.424,M,-38.541,M,6.4,0131*61
$PYRTM,2024,125.334809165961,16.444456576100
$GNHDT,310.866,T*21
$PYRTM,2024,125.334815005625,16.444462415764
$GNGGA,080208.00,3512.44750807,N,12149.93131099,W,2,10,1.0,8.422,M,-38.541,M,7.0,0131*6F
$PYRTM,2024,125.334815005625,16.444462415764
$GNHDT,310.674,T*2C
$PYRTM,2024,125.334820741042,16.444468151181
$GNGGA,080208.50,3512.44774267,N,12149.93149674,W,2,10,1.0,8.389,M,-38.541,M,7.4,0131*68
$PYRTM,2024,125.334820741042,16.444468151181
$GNHDT,310.895,T*2D
$PYRTM,2024,125.334826576273,16.444473986412
$GNGGA,080209.00,3512.44800588,N,12149.93167454,W,2,10,1.0,8.280,M,-38.541,M,7.0,0131*66
$PYRTM,2024,125.334826576273,16.444473986412
$GNHDT,311.100,T*29
$PYRTM,2024,125.334832319560,16.444479729699
$GNGGA,080209.50,3512.44827585,N,12149.93189044,W,2,10,1.0,8.135,M,-38.541,M,7.4,0131*67
$PYRTM,2024,125.334832319560,16.444479729699
$GNHDT,311.221,T*29
$PYRTM,2024,125.334838151204,16.444485561343
$GNGGA,080210.00,3512.44852837,N,12149.93214021,W,2,10,1.0,7.964,M,-38.541,M,7.0,0131*6F
$PYRTM,2024,125.334838151204,16.444485561343
$GNHDT,311.291,T*22
$PYRTM,2024,125.334843887500,16.444491297650
$GNGGA,080210.50,3512.44874385,N,12149.93242961,W,2,10,1.0,7.853,M,-38.541,M,7.4,0131*63
$PYRTM,2024,125.334843887500,16.444491297650
$GNHDT,311.637,T*2A
$PYRTM,2024,125.334849730949,16.444497141088
$GNGGA,080211.00,3512.44890671,N,12149.93274930,W,2,10,1.0,7.840,M,-38.541,M,4.0,0131*67
$PYRTM,2024,125.334849730949,16.444497141088
$GNHDT,311.536,T*28
$PYRTM,2024,125.334855464514,16.444502874664
$GNGGA,080211.50,3512.44900623,N,12149.93308632,W,2,10,1.0,7.964,M,-38.541,M,4.4,0131*69
$PYRTM,2024,125.334855464514,16.444502874664
$GNHDT,311.525,T*2A
$PYRTM,2024,125.334861302951,16.444508713090
$GNGGA,080212.00,3512.44905685,N,12149.93343365,W,2,10,1.0,8.142,M,-38.541,M,5.0,0131*68
$PYRTM,2024,125.334861302951,16.444508713090
$GNHDT,311.466,T*2C
$PYRTM,2024,125.334867038565,16.444514448704
$GNGGA,080212.50,3512.44911130,N,12149.93376190,W,2,10,1.0,8.339,M,-38.541,M,5.4,0131*65
$PYRTM,2024,125.334867038565,16.444514448704
$GNHDT,311.460,T*2A
$PYRTM,2024,125.334872876134,16.444520286273
$GNGGA,080213.00,3512.44921089,N,12149.93404184,W,2,10,1.0,8.453,M,-38.541,M,6.0,0131*6A
$PYRTM,2024,125.334872876134,16.444520286273
$GNHDT,311.644,T*2E
$PYRTM,2024,125.334878610486,16.444526020625
$GNGGA,080213.50,3512.44938779,N,12149.93425467,W,2,10,1.0,8.439,M,-38.541,M,6.4,0131*6C
$PYRTM,2024,125.334878610486,16.444526020625
$GNHDT,312.061,T*2C
$PYRTM,2024,125.334884449259,16.444531859398
$GNGGA,080214.00,3512.44963561,N,12149.93441080,W,2,10,1.0,8.291,M,-38.541,M,7.0,0131*65
$PYRTM,2024,125.334884449259,16.444531859398
$GNHDT,312.265,T*2A
$PYRTM,2024,125.334890185602,16.444537595741
$GNGGA,080214.50,3512.44993293,N,12149.93455133,W,2,10,1.0,8.061,M,-38.541,M,7.4,0131*60
$PYRTM,2024,125.334890185602,16.444537595741
$GNHDT,312.289,T*28
$PYRTM,2024,125.334896023507,16.444543433646
$GNGGA,080215.00,3512.45021335,N,12149.93472210,W,2,10,1.0,7.804,M,-38.541,M,7.0,0131*6F
$PYRTM,2024,125.334896023507,16.444543433646
$GNHDT,312.192,T*21
$PYRTM,2024,125.334901755174,16.444549165312
$GNGGA,080215.50,3512.45043116,N,12149.93496337,W,2,10,1.0,7.673,M,-38.541,M,7.4,0131*69
$PYRTM,2024,125.334901755174,16.444549165312
$GNHDT,312.087,T*24
$PYRTM,2024,125.334907598877,16.444555009016
$GNGGA,080216.00,3512.45056328,N,12149.93530203,W,2,10,1.0,7.696,M,-38.541,M,7.0,0131*60
$PYRTM,2024,125.334907598877,16.444555009016
$GNHDT,311.777,T*2F
$PYRTM,2024,125.334913334537,16.444560744676
$GNGGA,080216.50,3512.45061806,N,12149.93572107,W,2,10,1.0,7.826,M,-38.541,M,7.4,0131*66
$PYRTM,2024,125.334913334537,16.444560744676
$GNHDT,311.356,T*28
$PYRTM,2024,125.334919174618,16.444566584757
$GNGGA,080217.00,3512.45063961,N,12149.93619066,W,2,10,1.0,8.000,M,-38.541,M,4.0,0131*6C
$PYRTM,2024,125.334919174618,16.444566584757
$GNHDT,311.115,T*2D
$PYRTM,2024,125.334924904907,16.444572315046
$GNGGA,080217.50,3512.45069851,N,12149.93664442,W,2,10,1.0,8.115,M,-38.541,M,4.4,0131*68
$PYRTM,2024,125.334924904907,16.444572315046
$GNHDT,311.442,T*2A
$PYRTM,2024,125.334930747199,16.444578157338
$GNGGA,080218.00,3512.45084844,N,12149.93701340,W,2,10,1.0,8.158,M,-38.542,M,5.0,0131*6D
$PYRTM,2024,125.334930747199,16.444578157338
$GNHDT,311.660,T*28
$PYRTM,2024,125.334936482222,16.444583892361
$GNGGA,080218.50,3512.45110367,N,12149.93726430,W,2,10,1.0,8.138,M,-38.542,M,5.4,0131*69
$PYRTM,2024,125.334936482222,16.444583892361
$GNHDT,311.928,T*2B
$PYRTM,2024,125.334942320903,16.444589731285
$GNGGA,080219.00,3512.45142762,N,12149.93739679,W,2,10,1.0,8.114,M,-38.542,M,6.0,0131*63
$PYRTM,2024,125.334942320903,16.444589731285
$GNHDT,312.028,T*21
$PYRTM,2024,125.334948055706,16.444595465845
$GNGGA,080219.50,3512.45176896,N,12149.93747678,W,2,10,1.0,8.134,M,-38.542,M,6.4,0131*6B
$PYRTM,2024,125.334948055706,16.444595465845
$GNHDT,312.590,T*27
$PYRTM,2024,125.334953893750,16.444601303900
$GNGGA,080220.00,3512.45208100,N,12149.93755900,W,2,10,1.0,8.254,M,-38.542,M,7.0,0131*6B
$PYRTM,2024,125.334953893750,16.444601303900
$GNHDT,312.561,T*29
$PYRTM,2024,125.334959629421,16.444607039560
$GNGGA,080220.50,3512.45231925,N,12149.93772100,W,2,10,1.0,8.419,M,-38.542,M,7.4,0131*6D
$PYRTM,2024,125.334959629421,16.444607039560
$GNHDT,312.087,T*24
$PYRTM,2024,125.334965472766,16.444612882905
$GNGGA,080221.00,3512.45247451,N,12149.93798951,W,2,10,1.0,8.608,M,-38.542,M,7.0,0131*68
$PYRTM,2024,125.334965472766,16.444612882905
$GNHDT,311.934,T*26
$PYRTM,2024,125.334971210891,16.444618621030
$GNGGA,080221.50,3512.45256045,N,12149.93836794,W,2,10,1.0,8.752,M,-38.542,M,7.4,0131*6A
$PYRTM,2024,125.334971210891,16.444618621030
$GNHDT,311.764,T*2D
$PYRTM,2024,125.334977050220,16.444624460359
$GNGGA,080222.00,3512.45261528,N,12149.93881453,W,2,10,1.0,8.759,M,-38.542,M,7.0,0131*6D
$PYRTM,2024,125.334977050220,16.444624460359
$GNHDT,311.730,T*2C
$PYRTM,2024,125.334982781944,16.444630192095
$GNGGA,080222.50,3512.45268869,N,12149.93927086,W,2,10,1.0,8.657,M,-38.542,M,7.4,0131*63
$PYRTM,2024,125.334982781944,16.444630192095
$GNHDT,312.180,T*22
$PYRTM,2024,125.334988619167,16.444636029306
$GNGGA,080223.00,3512.45281137,N,12149.93965845,W,2,10,1.0,8.452,M,-38.542,M,4.0,0131*63
$PYRTM,2024,125.334988619167,16.444636029306
$GNHDT,312.215,T*2D
$PYRTM,2024,125.334994348681,16.444641758819
$GNGGA,080223.50,3512.45299901,N,12149.93992162,W,2,10,1.0,8.247,M,-38.542,M,4.4,0131*60
$PYRTM,2024,125.334994348681,16.444641758819
$GNHDT,311.831,T*22
$PYRTM,2024,125.335000188183,16.444647598333
$GNGGA,080224.00,3512.45322723,N,12149.94008413,W,2,10,1.0,8.107,M,-38.542,M,5.0,0131*61
$PYRTM,2024,125.335000188183,16.444647598333
$GNHDT,311.922,T*21
$PYRTM,2024,125.335005926505,16.444653336655
$GNGGA,080224.50,3512.45346445,N,12149.94020118,W,2,10,1.0,8.009,M,-38.542,M,5.4,0131*6A
$PYRTM,2024,125.335005926505,16.444653336655
$GNHDT,311.900,T*21
$PYRTM,2024,125.335011767407,16.444659177558
$GNGGA,080225.00,3512.45370709,N,12149.94034216,W,2,10,1.0,7.907,M,-38.542,M,6.0,0131*67
$PYRTM,2024,125.335011767407,16.444659177558
$GNHDT,311.893,T*2A
$PYRTM,2024,125.335017499502,16.444664909641
$GNGGA,080225.50,3512.45395277,N,12149.94054059,W,2,10,1.0,7.754,M,-38.542,M,6.4,0131*66
$PYRTM,2024,125.335017499502,16.444664909641
$GNHDT,312.194,T*27
$PYRTM,2024,125.335023335127,16.444670745278
$GNGGA,080226.00,3512.45420365,N,12149.94080954,W,2,10,1.0,7.570,M,-38.542,M,7.0,0131*67
$PYRTM,2024,125.335023335127,16.444670745278
$GNHDT,312.630,T*2E
$PYRTM,2024,125.335029071343,16.444676481481
$GNGGA,080226.50,3512.45444205,N,12149.94113754,W,2,10,1.0,7.417,M,-38.542,M,7.4,0131*66
$PYRTM,2024,125.335029071343,16.444676481481
$GNHDT,313.036,T*2F
$PYRTM,2024,125.335034916701,16.444682326840
$GNGGA,080227.00,3512.45465029,N,12149.94150262,W,2,10,1.0,7.382,M,-38.542,M,7.0,0131*65
$PYRTM,2024,125.335034916701,16.444682326840
$GNHDT,312.955,T*22
$PYRTM,2024,125.335040649884,16.444688060035
$GNGGA,080227.50,3512.45480797,N,12149.94187957,W,2,10,1.0,7.536,M,-38.542,M,7.4,0131*63
$PYRTM,2024,125.335040649884,16.444688060035
$GNHDT,312.844,T*23
$PYRTM,2024,125.335046488646,16.444693898785
$GNGGA,080228.00,3512.45490637,N,12149.94223610,W,2,10,1.0,7.880,M,-38.542,M,7.0,0131*66
$PYRTM,2024,125.335046488646,16.444693898785
$GNHDT,312.133,T*2A
$PYRTM,2024,125.335052221840,16.444699631979
$GNGGA,080228.50,3512.45497776,N,12149.94254406,W,2,10,1.0,8.299,M,-38.542,M,7.4,0131*6C
$PYRTM,2024,125.335052221840,16.444699631979
$GNHDT,311.879,T*2E
$PYRTM,2024,125.335058061262,16.444705471400
