$PYRTM,2024,123.833333577755,14.942980987905
$GNGGA,200000.00,3443.36817186,N,12111.43083145,W,2,10,1.1,5.918,M,-37.475,M,5.0,0135*6C
$PYRTM,2024,123.833333577755,14.942980987905
$GNHDT,323.184,T*24
$PYRTM,2024,123.833339300891,14.942986711030
$GNGGA,200000.50,3443.36871999,N,12111.43147583,W,2,10,1.1,5.979,M,-37.475,M,5.4,0135*6B
$PYRTM,2024,123.833339300891,14.942986711030
$GNHDT,323.719,T*26
$PYRTM,2024,123.833345144236,14.942992554375
$GNGGA,200001.00,3443.36924916,N,12111.43203370,W,2,10,1.1,6.128,M,-37.475,M,6.0,0135*68
$PYRTM,2024,123.833345144236,14.942992554375
$GNHDT,323.584,T*20
$PYRTM,2024,123.833350877975,14.942998288113
$GNGGA,200001.50,3443.36980499,N,12111.43249937,W,2,10,1.1,6.264,M,-37.475,M,6.4,0135*61
$PYRTM,2024,123.833350877975,14.942998288113
$GNHDT,323.262,T*2F
$PYRTM,2024,123.833356718727,14.943004128866
$GNGGA,200002.00,3443.37041968,N,12111.43290091,W,2,10,1.1,6.335,M,-37.475,M,7.0,0135*60
$PYRTM,2024,123.833356718727,14.943004128866
$GNHDT,323.137,T*2C
$PYRTM,2024,123.833362456863,14.943009867002
$GNGGA,200002.50,3443.37108905,N,12111.43327721,W,2,10,1.1,6.339,M,-37.475,M,7.4,0135*6B
$PYRTM,2024,123.833362456863,14.943009867002
$GNHDT,322.787,T*20
$PYRTM,2024,123.833368291979,14.943015702118
$GNGGA,200003.00,3443.37180154,N,12111.43367190,W,2,10,1.1,6.225,M,-37.475,M,7.0,0135*63
$PYRTM,2024,123.833368291979,14.943015702118
$GNHDT,323.163,T*2D
$PYRTM,2024,123.833374024688,14.943021434826
$GNGGA,200003.50,3443.37253381,N,12111.43410748,W,2,10,1.1,6.027,M,-37.475,M,7.4,0135*61
$PYRTM,2024,123.833374024688,14.943021434826
$GNHDT,323.028,T*23
$PYRTM,2024,123.833379864583,14.943027274722
$GNGGA,200004.00,3443.37326754,N,12111.43462066,W,2,10,1.1,5.763,M,-37.475,M,7.0,0135*62
$PYRTM,2024,123.833379864583,14.943027274722
$GNHDT,323.180,T*20
$PYRTM,2024,123.833385600903,14.943033011042
$GNGGA,200004.50,3443.37397931,N,12111.43516912,W,2,10,1.1,5.589,M,-37.475,M,7.4,0135*6A
$PYRTM,2024,123.833385600903,14.943033011042
$GNHDT,323.417,T*2B
$PYRTM,2024,123.833391438090,14.943038848229
$GNGGA,200005.00,3443.37460192,N,12111.43574733,W,2,10,1.1,5.742,M,-37.475,M,4.0,0135*6B
$PYRTM,2024,123.833391438090,14.943038848229
$GNHDT,323.629,T*24
$PYRTM,2024,123.833397177593,14.943044587731
$GNGGA,200005.50,3443.37514856,N,12111.43632140,W,2,10,1.1,6.100,M,-37.475,M,4.4,0135*69
$PYRTM,2024,123.833397177593,14.943044587731
$GNHDT,323.395,T*26
$PYRTM,2024,123.833403013866,14.943050424005
$GNGGA,200006.00,3443.37565672,N,12111.43688164,W,2,10,1.1,6.611,M,-37.475,M,5.0,0135*64
$PYRTM,2024,123.833403013866,14.943050424005
$GNHDT,323.103,T*2B
$PYRTM,2024,123.833408745799,14.943056155938
$GNGGA,200006.50,3443.37619812,N,12111.43742418,W,2,10,1.1,7.046,M,-37.475,M,5.4,0135*69
$PYRTM,2024,123.833408745799,14.943056155938
$GNHDT,323.426,T*29
$PYRTM,2024,123.833414588403,14.943061998542
$GNGGA,200007.00,3443.37684316,N,12111.43796157,W,2,10,1.1,7.148,M,-37.475,M,6.0,0135*69
$PYRTM,2024,123.833414588403,14.943061998542
$GNHDT,323.205,T*2E
$PYRTM,2024,123.833420320891,14.943067731030
$GNGGA,200007.50,3443.37757707,N,12111.43849710,W,2,10,1.1,6.915,M,-37.475,M,6.4,0135*6A
$PYRTM,2024,123.833420320891,14.943067731030
$GNHDT,322.818,T*29
$PYRTM,2024,123.833426163715,14.943073573854
$GNGGA,200008.00,3443.37832477,N,12111.43903836,W,2,10,1.1,6.459,M,-37.475,M,7.0,0135*6C
$PYRTM,2024,123.833426163715,14.943073573854
$GNHDT,322.745,T*2E
$PYRTM,2024,123.833431898900,14.943079309039
$GNGGA,200008.50,3443.37903906,N,12111.43957091,W,2,10,1.1,5.996,M,-37.475,M,7.4,0135*6C
$PYRTM,2024,123.833431898900,14.943079309039
$GNHDT,322.338,T*20
$PYRTM,2024,123.833437739016,14.943085149155
$GNGGA,200009.00,3443.37971264,N,12111.44005756,W,2,10,1.1,5.676,M,-37.474,M,7.0,0135*63
$PYRTM,2024,123.833437739016,14.943085149155
$GNHDT,323.080,T*21
$PYRTM,2024,123.833443468287,14.943090878438
$GNGGA,200009.50,3443.38035213,N,12111.44050227,W,2,10,1.1,5.597,M,-37.474,M,7.4,0135*6B
$PYRTM,2024,123.833443468287,14.943090878438
$GNHDT,322.997,T*2F
$PYRTM,2024,123.833449308692,14.943096718831
$GNGGA,200010.00,3443.38097556,N,12111.44092046,W,2,10,1.1,5.752,M,-37.474,M,7.0,0135*6C
$PYRTM,2024,123.833449308692,14.943096718831
$GNHDT,323.511,T*2C
$PYRTM,2024,123.833455041481,14.943102451620
$GNGGA,200010.50,3443.38161471,N,12111.44134095,W,2,10,1.1,6.041,M,-37.474,M,7.4,0135*64
$PYRTM,2024,123.833455041481,14.943102451620
$GNHDT,323.848,T*2D
$PYRTM,2024,123.833460890150,14.943108300301
$GNGGA,200011.00,3443.38227059,N,12111.44178722,W,2,10,1.1,6.352,M,-37.474,M,4.0,0135*6A
$PYRTM,2024,123.833460890150,14.943108300301
$GNHDT,323.919,T*28
$PYRTM,2024,123.833466619097,14.943114029236
$GNGGA,200011.50,3443.38294372,N,12111.44228696,W,2,10,1.1,6.534,M,-37.474,M,4.4,0135*67
$PYRTM,2024,123.833466619097,14.943114029236
$GNHDT,323.797,T*20
$PYRTM,2024,123.833472457373,14.943119867512
$GNGGA,200012.00,3443.38362842,N,12111.44285679,W,2,10,1.1,6.532,M,-37.474,M,5.0,0135*64
$PYRTM,2024,123.833472457373,14.943119867512
$GNHDT,324.108,T*27
$PYRTM,2024,123.833478194826,14.943125604965
$GNGGA,200012.50,3443.38430903,N,12111.44348827,W,2,10,1.1,6.360,M,-37.474,M,5.4,0135*65
$PYRTM,2024,123.833478194826,14.943125604965
$GNHDT,323.966,T*20
$PYRTM,2024,123.833484031968,14.943131442106
$GNGGA,200013.00,3443.38496130,N,12111.44413138,W,2,10,1.1,6.174,M,-37.474,M,6.0,0135*6B
$PYRTM,2024,123.833484031968,14.943131442106
$GNHDT,324.023,T*2F
$PYRTM,2024,123.833489771678,14.943137181817
$GNGGA,200013.50,3443.38558854,N,12111.44471684,W,2,10,1.1,6.074,M,-37.474,M,6.4,0135*67
$PYRTM,2024,123.833489771678,14.943137181817
$GNHDT,324.472,T*2F
$PYRTM,2024,123.833495607546,14.943143017685
$GNGGA,200014.00,3443.38620293,N,12111.44520569,W,2,10,1.1,6.108,M,-37.474,M,7.0,0135*62
$PYRTM,2024,123.833495607546,14.943143017685
$GNHDT,325.437,T*2F
$PYRTM,2024,123.833501342870,14.943148753009
$GNGGA,200014.50,3443.38683032,N,12111.44562404,W,2,10,1.1,6.237,M,-37.474,M,7.4,0135*60
$PYRTM,2024,123.833501342870,14.943148753009
$GNHDT,324.680,T*20
$PYRTM,2024,123.833507179352,14.943154589491
$GNGGA,200015.00,3443.38750255,N,12111.44603007,W,2,10,1.1,6.365,M,-37.474,M,7.0,0135*69
$PYRTM,2024,123.833507179352,14.943154589491
$GNHDT,324.574,T*28
$PYRTM,2024,123.833512918565,14.943160328715
$GNGGA,200015.50,3443.38820942,N,12111.44645934,W,2,10,1.1,6.439,M,-37.474,M,7.4,0135*68
$PYRTM,2024,123.833512918565,14.943160328715
$GNHDT,324.803,T*25
$PYRTM,2024,123.833518757396,14.943166167535
$GNGGA,200016.00,3443.38892875,N,12111.44692208,W,2,10,1.1,6.404,M,-37.474,M,7.0,0135*66
$PYRTM,2024,123.833518757396,14.943166167535
$GNHDT,324.817,T*20
$PYRTM,2024,123.833524492130,14.943171902269
$GNGGA,200016.50,3443.38964036,N,12111.44742917,W,2,10,1.1,6.286,M,-37.474,M,7.4,0135*65
$PYRTM,2024,123.833524492130,14.943171902269
$GNHDT,324.783,T*22
$PYRTM,2024,123.833530328981,14.943177739120
$GNGGA,200017.00,3443.39034264,N,12111.44800337,W,2,10,1.1,6.082,M,-37.474,M,4.0,0135*69
$PYRTM,2024,123.833530328981,14.943177739120
$GNHDT,324.726,T*2D
$PYRTM,2024,123.833536069213,14.943183479352
$GNGGA,200017.50,3443.39102128,N,12111.44864675,W,2,10,1.1,5.876,M,-37.474,M,4.4,0135*66
$PYRTM,2024,123.833536069213,14.943183479352
$GNHDT,324.777,T*29
$PYRTM,2024,123.833541901238,14.943189311377
$GNGGA,200018.00,3443.39167260,N,12111.44930424,W,2,10,1.1,5.718,M,-37.474,M,5.0,0135*64
$PYRTM,2024,123.833541901238,14.943189311377
$GNHDT,325.135,T*28
$PYRTM,2024,123.833547637488,14.943195047627
$GNGGA,200018.50,3443.39230602,N,12111.44990026,W,2,10,1.1,5.737,M,-37.474,M,5.4,0135*65
$PYRTM,2024,123.833547637488,14.943195047627
$GNHDT,325.491,T*23
$PYRTM,2024,123.833553474792,14.943200884931
$GNGGA,200019.00,3443.39295139,N,12111.45038322,W,2,10,1.1,5.939,M,-37.474,M,6.0,0135*6B
$PYRTM,2024,123.833553474792,14.943200884931
$GNHDT,325.761,T*2F
$PYRTM,2024,123.833559208507,14.943206618646
$GNGGA,200019.50,3443.39362559,N,12111.45076754,W,2,10,1.1,6.269,M,-37.474,M,6.4,0135*63
$PYRTM,2024,123.833559208507,14.943206618646
$GNHDT,325.733,T*28
$PYRTM,2024,123.833565051852,14.943212461991
$GNGGA,200020.00,3443.39434779,N,12111.45108383,W,2,10,1.1,6.658,M,-37.474,M,7.0,0135*6D
$PYRTM,2024,123.833565051852,14.943212461991
$GNHDT,326.108,T*25
$PYRTM,2024,123.833570783391,14.943218193530
$GNGGA,200020.50,3443.39508389,N,12111.45139770,W,2,10,1.1,6.975,M,-37.474,M,7.4,0135*63
$PYRTM,2024,123.833570783391,14.943218193530
$GNHDT,325.599,T*2A
$PYRTM,2024,123.833576631331,14.943224041470
$GNGGA,200021.00,3443.39582296,N,12111.45175822,W,2,10,1.1,7.136,M,-37.474,M,7.0,0135*60
$PYRTM,2024,123.833576631331,14.943224041470
$GNHDT,325.443,T*2C
$PYRTM,2024,123.833582357824,14.943229767975
$GNGGA,200021.50,3443.39654122,N,12111.45222756,W,2,10,1.1,7.060,M,-37.474,M,7.4,0135*6A
$PYRTM,2024,123.833582357824,14.943229767975
$GNHDT,324.781,T*20
$PYRTM,2024,123.833588199653,14.943235609792
$GNGGA,200022.00,3443.39724156,N,12111.45278860,W,2,10,1.1,6.802,M,-37.474,M,7.0,0135*65
$PYRTM,2024,123.833588199653,14.943235609792
$GNHDT,324.568,T*25
$PYRTM,2024,123.833593940741,14.943241350880
$GNGGA,200022.50,3443.39792931,N,12111.45342086,W,2,10,1.1,6.407,M,-37.474,M,7.4,0135*61
$PYRTM,2024,123.833593940741,14.943241350880
$GNHDT,325.375,T*2E
$PYRTM,2024,123.833599772743,14.943247182882
$GNGGA,200023.00,3443.39860376,N,12111.45409208,W,2,10,1.1,5.933,M,-37.474,M,4.0,0135*6C
$PYRTM,2024,123.833599772743,14.943247182882
$GNHDT,325.176,T*2F
$PYRTM,2024,123.833605506076,14.943252916215
$GNGGA,200023.50,3443.39926749,N,12111.45473605,W,2,10,1.1,5.585,M,-37.474,M,4.4,0135*63
$PYRTM,2024,123.833605506076,14.943252916215
$GNHDT,325.053,T*29
$PYRTM,2024,123.833611354155,14.943258764294
$GNGGA,200024.00,3443.39991796,N,12111.45526502,W,2,10,1.1,5.513,M,-37.474,M,5.0,0135*60
$PYRTM,2024,123.833611354155,14.943258764294
$GNHDT,325.428,T*21
$PYRTM,2024,123.833617082917,14.943264493056
$GNGGA,200024.50,3443.40057040,N,12111.45567179,W,2,10,1.1,5.721,M,-37.474,M,5.4,0135*6E
$PYRTM,2024,123.833617082917,14.943264493056
$GNHDT,325.459,T*27
$PYRTM,2024,123.833622923669,14.943270333808
$GNGGA,200025.00,3443.40123776,N,12111.45597611,W,2,10,1.1,6.079,M,-37.474,M,6.0,0135*62
$PYRTM,2024,123.833622923669,14.943270333808
$GNHDT,325.864,T*25
$PYRTM,2024,123.833628656227,14.943276066366
$GNGGA,200025.50,3443.40196784,N,12111.45629251,W,2,10,1.1,6.419,M,-37.474,M,6.4,0135*64
$PYRTM,2024,123.833628656227,14.943276066366
$GNHDT,325.659,T*25
$PYRTM,2024,123.833634499294,14.943281909433
$GNGGA,200026.00,3443.40276160,N,12111.45671159,W,2,10,1.1,6.557,M,-37.474,M,7.0,0135*6B
$PYRTM,2024,123.833634499294,14.943281909433
$GNHDT,325.748,T*24
$PYRTM,2024,123.833640228113,14.943287638264
$GNGGA,200026.50,3443.40357285,N,12111.45724329,W,2,10,1.1,6.531,M,-37.474,M,7.4,0135*64
$PYRTM,2024,123.833640228113,14.943287638264
$GNHDT,325.231,T*2F
$PYRTM,2024,123.833646070752,14.943293480891
$GNGGA,200027.00,3443.40433519,N,12111.45783372,W,2,10,1.1,6.458,M,-37.474,M,7.0,0135*6E
$PYRTM,2024,123.833646070752,14.943293480891
$GNHDT,325.292,T*26
$PYRTM,2024,123.833651802095,14.943299212234
$GNGGA,200027.50,3443.40502622,N,12111.45843602,W,2,10,1.1,6.438,M,-37.474,M,7.4,0135*60
$PYRTM,2024,123.833651802095,14.943299212234
$GNHDT,324.587,T*24
$PYRTM,2024,123.833657644444,14.943305054595
$GNGGA,200028.00,3443.40565977,N,12111.45899695,W,2,10,1.1,6.525,M,-37.474,M,7.0,0135*64
$PYRTM,2024,123.833657644444,14.943305054595
$GNHDT,325.030,T*2C
$PYRTM,2024,123.833663376343,14.943310786481
$GNGGA,200028.50,3443.40627596,N,12111.45951324,W,2,10,1.1,6.656,M,-37.474,M,7.4,0135*6E
$PYRTM,2024,123.833663376343,14.943310786481
$GNHDT,325.495,T*27
$PYRTM,2024,123.833669217002,14.943316627153
$GNGGA,200029.00,3443.40691173,N,12111.45998522,W,2,10,1.1,6.751,M,-37.474,M,4.0,0135*6C
$PYRTM,2024,123.833669217002,14.943316627153
$GNHDT,325.794,T*25
$PYRTM,2024,123.833674954039,14.943322364178
$GNGGA,200029.50,3443.40759080,N,12111.46043005,W,2,10,1.1,6.741,M,-37.474,M,4.4,0135*68
$PYRTM,2024,123.833674954039,14.943322364178
$GNHDT,325.518,T*23
$PYRTM,2024,123.833680789734,14.943328199884
$GNGGA,200030.00,3443.40832411,N,12111.46086006,W,2,10,1.1,6.591,M,-37.474,M,5.0,0135*6B
$PYRTM,2024,123.833680789734,14.943328199884
$GNHDT,325.635,T*2F
$PYRTM,2024,123.833686523588,14.943333933727
$GNGGA,200030.50,3443.40910526,N,12111.46131471,W,2,10,1.1,6.292,M,-37.474,M,5.4,0135*63
$PYRTM,2024,123.833686523588,14.943333933727
$GNHDT,325.684,T*25
$PYRTM,2024,123.833692368275,14.943339778414
$GNGGA,200031.00,3443.40993069,N,12111.46181202,W,2,10,1.1,5.866,M,-37.474,M,6.0,0135*6E
$PYRTM,2024,123.833692368275,14.943339778414
$GNHDT,325.048,T*23
$PYRTM,2024,123.833698102025,14.943345512176
$GNGGA,200031.50,3443.41074658,N,12111.46234738,W,2,10,1.1,5.482,M,-37.474,M,6.4,0135*6D
$PYRTM,2024,123.833698102025,14.943345512176
$GNHDT,324.854,T*27
$PYRTM,2024,123.833703946609,14.943351356759
$GNGGA,200032.00,3443.41150642,N,12111.46289170,W,2,10,1.1,5.346,M,-37.474,M,7.0,0135*61
$PYRTM,2024,123.833703946609,14.943351356759
$GNHDT,325.024,T*29
$PYRTM,2024,123.833709678148,14.943357088287
$GNGGA,200032.50,3443.41217684,N,12111.46341808,W,2,10,1.1,5.524,M,-37.474,M,7.4,0135*6B
$PYRTM,2024,123.833709678148,14.943357088287
$GNHDT,325.204,T*29
$PYRTM,2024,123.833715513611,14.943362923750
$GNGGA,200033.00,3443.41279565,N,12111.46390372,W,2,10,1.1,5.969,M,-37.474,M,7.0,0135*60
$PYRTM,2024,123.833715513611,14.943362923750
$GNHDT,325.133,T*2E
$PYRTM,2024,123.833721249514,14.943368659653
$GNGGA,200033.50,3443.41340927,N,12111.46434325,W,2,10,1.1,6.498,M,-37.474,M,7.4,0135*6B
$PYRTM,2024,123.833721249514,14.943368659653
$GNHDT,325.742,T*2E
$PYRTM,2024,123.833727089375,14.943374499514
$GNGGA,200034.00,3443.41405441,N,12111.46476860,W,2,10,1.1,6.921,M,-37.474,M,7.0,0135*65
$PYRTM,2024,123.833727089375,14.943374499514
$GNHDT,325.428,T*21
$PYRTM,2024,123.833732833171,14.943380243310
$GNGGA,200034.50,3443.41475098,N,12111.46520530,W,2,10,1.1,7.106,M,-37.474,M,7.4,0135*65
$PYRTM,2024,123.833732833171,14.943380243310
$GNHDT,325.556,T*29
$PYRTM,2024,123.833738663067,14.943386073206
$GNGGA,200035.00,3443.41548918,N,12111.46568547,W,2,10,1.1,6.945,M,-37.474,M,4.0,0135*6A
$PYRTM,2024,123.833738663067,14.943386073206
$GNHDT,325.499,T*2B
$PYRTM,2024,123.833744401111,14.943391811250
$GNGGA,200035.50,3443.41625261,N,12111.46620646,W,2,10,1.1,6.524,M,-37.474,M,4.4,0135*60
$PYRTM,2024,123.833744401111,14.943391811250
$GNHDT,325.497,T*25
$PYRTM,2024,123.833750240729,14.943397650868
$GNGGA,200036.00,3443.41700458,N,12111.46674919,W,2,10,1.1,6.030,M,-37.474,M,5.0,0135*6D
$PYRTM,2024,123.833750240729,14.943397650868
$GNHDT,325.757,T*2A
$PYRTM,2024,123.833755968322,14.943403378461
$GNGGA,200036.50,3443.41770397,N,12111.46727841,W,2,10,1.1,5.657,M,-37.474,M,5.4,0135*60
$PYRTM,2024,123.833755968322,14.943403378461
$GNHDT,325.147,T*2D
$PYRTM,2024,123.833761808715,14.943409218854
$GNGGA,200037.00,3443.41833768,N,12111.46777235,W,2,10,1.1,5.587,M,-37.474,M,6.0,0135*6D
$PYRTM,2024,123.833761808715,14.943409218854
$GNHDT,325.211,T*2D
$PYRTM,2024,123.833767542627,14.943414952766
$GNGGA,200037.50,3443.41895743,N,12111.46823752,W,2,10,1.1,5.748,M,-37.474,M,6.4,0135*62
$PYRTM,2024,123.833767542627,14.943414952766
$GNHDT,325.445,T*2A
$PYRTM,2024,123.833773383657,14.943420793796
$GNGGA,200038.00,3443.41960507,N,12111.46869998,W,2,10,1.1,5.995,M,-37.474,M,7.0,0135*6C
$PYRTM,2024,123.833773383657,14.943420793796
$GNHDT,325.337,T*28
$PYRTM,2024,123.833779121134,14.943426531273
$GNGGA,200038.50,3443.42032185,N,12111.46919931,W,2,10,1.1,6.128,M,-37.474,M,7.4,0135*66
$PYRTM,2024,123.833779121134,14.943426531273
$GNHDT,324.473,T*2E
$PYRTM,2024,123.833784960336,14.943432370475
$GNGGA,200039.00,3443.42108802,N,12111.46971454,W,2,10,1.1,6.183,M,-37.474,M,7.0,0135*69
$PYRTM,2024,123.833784960336,14.943432370475
$GNHDT,324.611,T*28
$PYRTM,2024,123.833790690000,14.943438100150
$GNGGA,200039.50,3443.42183930,N,12111.47023936,W,2,10,1.1,6.243,M,-37.474,M,7.4,0135*62
$PYRTM,2024,123.833790690000,14.943438100150
$GNHDT,324.463,T*2F
$PYRTM,2024,123.833796532650,14.943443942789
$GNGGA,200040.00,3443.42255164,N,12111.47077200,W,2,10,1.1,6.372,M,-37.474,M,7.0,0135*60
$PYRTM,2024,123.833796532650,14.943443942789
$GNHDT,324.646,T*2A
$PYRTM,2024,123.833802266991,14.943449677130
$GNGGA,200040.50,3443.42324623,N,12111.47131590,W,2,10,1.1,6.517,M,-37.474,M,7.4,0135*6A
$PYRTM,2024,123.833802266991,14.943449677130
$GNHDT,324.450,T*2F
$PYRTM,2024,123.833808103576,14.943455513715
$GNGGA,200041.00,3443.42394573,N,12111.47188215,W,2,10,1.1,6.611,M,-37.474,M,4.0,0135*69
$PYRTM,2024,123.833808103576,14.943455513715
$GNHDT,323.885,T*2C
$PYRTM,2024,123.833813839699,14.943461249838
$GNGGA,200041.50,3443.42465965,N,12111.47245987,W,2,10,1.1,6.631,M,-37.474,M,4.4,0135*6A
$PYRTM,2024,123.833813839699,14.943461249838
$GNHDT,323.885,T*2C
$PYRTM,2024,123.833819678785,14.943467088935
$GNGGA,200042.00,3443.42537642,N,12111.47303993,W,2,10,1.1,6.550,M,-37.474,M,5.0,0135*67
$PYRTM,2024,123.833819678785,14.943467088935
$GNHDT,323.818,T*28
$PYRTM,2024,123.833825421586,14.943472831725
$GNGGA,200042.50,3443.42610149,N,12111.47360018,W,2,10,1.1,6.442,M,-37.474,M,5.4,0135*61
$PYRTM,2024,123.833825421586,14.943472831725
$GNHDT,324.239,T*26
$PYRTM,2024,123.833831254861,14.943478665000
$GNGGA,200043.00,3443.42682509,N,12111.47413321,W,2,10,1.1,6.314,M,-37.474,M,6.0,0135*67
$PYRTM,2024,123.833831254861,14.943478665000
$GNHDT,324.761,T*2E
$PYRTM,2024,123.833836990567,14.943484400706
$GNGGA,200043.50,3443.42756020,N,12111.47461982,W,2,10,1.1,6.236,M,-37.474,M,6.4,0135*67
$PYRTM,2024,123.833836990567,14.943484400706
$GNHDT,324.559,T*27
$PYRTM,2024,123.833842830972,14.943490241111
$GNGGA,200044.00,3443.42830160,N,12111.47505556,W,2,10,1.1,6.248,M,-37.474,M,7.0,0135*65
$PYRTM,2024,123.833842830972,14.943490241111
$GNHDT,324.446,T*28
$PYRTM,2024,123.833848567569,14.943495977708
$GNGGA,200044.50,3443.42903811,N,12111.47550761,W,2,10,1.1,6.385,M,-37.474,M,7.4,0135*6C
$PYRTM,2024,123.833848567569,14.943495977708
$GNHDT,324.069,T*21
$PYRTM,2024,123.833854403113,14.943501813252
$GNGGA,200045.00,3443.42973569,N,12111.47604135,W,2,10,1.1,6.610,M,-37.474,M,7.0,0135*65
$PYRTM,2024,123.833854403113,14.943501813252
$GNHDT,323.466,T*2D
$PYRTM,2024,123.833860137801,14.943507547940
$GNGGA,200045.50,3443.43040785,N,12111.47667902,W,2,10,1.1,6.765,M,-37.474,M,7.4,0135*66
$PYRTM,2024,123.833860137801,14.943507547940
$GNHDT,322.836,T*25
$PYRTM,2024,123.833865976505,14.943513386644
$GNGGA,200046.00,3443.43107562,N,12111.47740690,W,2,10,1.1,6.730,M,-37.474,M,7.0,0135*6D
$PYRTM,2024,123.833865976505,14.943513386644
$GNHDT,322.498,T*2D
$PYRTM,2024,123.833871716481,14.943519126620
$GNGGA,200046.50,3443.43176644,N,12111.47816414,W,2,10,1.1,6.465,M,-37.474,M,7.4,0135*6C
$PYRTM,2024,123.833871716481,14.943519126620
$GNHDT,322.411,T*2C
$PYRTM,2024,123.833877553796,14.943524963947
$GNGGA,200047.00,3443.43249751,N,12111.47885994,W,2,10,1.1,6.053,M,-37.474,M,4.0,0135*6B
$PYRTM,2024,123.833877553796,14.943524963947
$GNHDT,322.346,T*29
$PYRTM,2024,123.833883283461,14.943530693600
$GNGGA,200047.50,3443.43323173,N,12111.47939058,W,2,10,1.1,5.786,M,-37.474,M,4.4,0135*62
$PYRTM,2024,123.833883283461,14.943530693600
$GNHDT,323.166,T*28
$PYRTM,2024,123.833889126019,14.943536536157
$GNGGA,200048.00,3443.43392382,N,12111.47977221,W,2,10,1.1,5.828,M,-37.474,M,5.0,0135*66
$PYRTM,2024,123.833889126019,14.943536536157
$GNHDT,323.366,T*2A
$PYRTM,2024,123.833894857546,14.943542267685
$GNGGA,200048.50,3443.43457589,N,12111.48007892,W,2,10,1.1,6.137,M,-37.474,M,5.4,0135*63
$PYRTM,2024,123.833894857546,14.943542267685
$GNHDT,323.347,T*29
$PYRTM,2024,123.833900701458,14.943548111597
$GNGGA,200049.00,3443.43519884,N,12111.48043629,W,2,10,1.1,6.554,M,-37.474,M,6.0,0135*64
$PYRTM,2024,123.833900701458,14.943548111597
$GNHDT,322.696,T*21
$PYRTM,2024,123.833906430127,14.943553840255
$GNGGA,200049.50,3443.43584598,N,12111.48093526,W,2,10,1.1,6.805,M,-37.474,M,6.4,0135*69
$PYRTM,2024,123.833906430127,14.943553840255
$GNHDT,322.139,T*23
$PYRTM,2024,123.833912274722,14.943559684861
$GNGGA,200050.00,3443.43652001,N,12111.48156491,W,2,10,1.1,6.784,M,-37.474,M,7.0,0135*6F
$PYRTM,2024,123.833912274722,14.943559684861
$GNHDT,321.803,T*20
$PYRTM,2024,123.833918013831,14.943565423970
$GNGGA,200050.50,3443.43720366,N,12111.48226851,W,2,10,1.1,6.508,M,-37.474,M,7.4,0135*6A
$PYRTM,2024,123.833918013831,14.943565423970
$GNHDT,321.779,T*22
$PYRTM,2024,123.833923853970,14.943571264109
$GNGGA,200051.00,3443.43782865,N,12111.48297065,W,2,10,1.1,6.263,M,-37.474,M,7.0,0135*65
$PYRTM,2024,123.833923853970,14.943571264109
$GNHDT,321.572,T*2B
$PYRTM,2024,123.833929580058,14.943576990197
$GNGGA,200051.50,3443.43842284,N,12111.48358362,W,2,10,1.1,6.107,M,-37.474,M,7.4,0135*65
$PYRTM,2024,123.833929580058,14.943576990197
$GNHDT,322.534,T*2A
$PYRTM,2024,123.833935422419,14.943582832558
$GNGGA,200052.00,3443.43897972,N,12111.48406827,W,2,10,1.1,6.164,M,-37.474,M,7.0,0135*6E
$PYRTM,2024,123.833935422419,14.943582832558
$GNHDT,322.540,T*29
$PYRTM,2024,123.833941156516,14.943588566655
$GNGGA,200052.50,3443.43954661,N,12111.48444399,W,2,10,1.1,6.371,M,-37.474,M,7.4,0135*62
$PYRTM,2024,123.833941156516,14.943588566655
$GNHDT,322.838,T*2B
$PYRTM,2024,123.833947010081,14.943594420220
$GNGGA,200053.00,3443.44015937,N,12111.48478362,W,2,10,1.1,6.600,M,-37.474,M,4.0,0135*6E
$PYRTM,2024,123.833947010081,14.943594420220
$GNHDT,322.759,T*23
$PYRTM,2024,123.833952734722,14.943600144861
$GNGGA,200053.50,3443.44085245,N,12111.48518478,W,2,10,1.1,6.639,M,-37.474,M,4.4,0135*69
$PYRTM,2024,123.833952734722,14.943600144861
$GNHDT,322.911,T*21
$PYRTM,2024,123.833958570926,14.943605981065
$GNGGA,200054.00,3443.44160066,N,12111.48569791,W,2,10,1.1,6.466,M,-37.474,M,5.0,0135*6D
$PYRTM,2024,123.833958570926,14.943605981065
$GNHDT,323.100,T*28
$PYRTM,2024,123.833964305347,14.943611715486
$GNGGA,200054.50,3443.44234714,N,12111.48628218,W,2,10,1.1,6.157,M,-37.474,M,5.4,0135*69
$PYRTM,2024,123.833964305347,14.943611715486
$GNHDT,322.248,T*26
$PYRTM,2024,123.833970141713,14.943617551852
$GNGGA,200055.00,3443.44305307,N,12111.48691595,W,2,10,1.1,5.887,M,-37.474,M,6.0,0135*68
$PYRTM,2024,123.833970141713,14.943617551852
$GNHDT,322.180,T*21
$PYRTM,2024,123.833975878380,14.943623288519
$GNGGA,200055.50,3443.44367144,N,12111.48755420,W,2,10,1.1,5.815,M,-37.474,M,6.4,0135*65
$PYRTM,2024,123.833975878380,14.943623288519
$GNHDT,322.351,T*2F
$PYRTM,2024,123.833981721053,14.943629131192
$GNGGA,200056.00,3443.44419672,N,12111.48814774,W,2,10,1.1,6.061,M,-37.474,M,7.0,0135*6A
$PYRTM,2024,123.833981721053,14.943629131192
$GNHDT,322.754,T*2E
$PYRTM,2024,123.833987454722,14.943634864861
$GNGGA,200056.50,3443.44469485,N,12111.48868438,W,2,10,1.1,6.535,M,-37.474,M,7.4,0135*62
$PYRTM,2024,123.833987454722,14.943634864861
$GNHDT,322.590,T*24
$PYRTM,2024,123.833993295116,14.943640705266
$GNGGA,200057.00,3443.44520921,N,12111.48915456,W,2,10,1.1,7.084,M,-37.474,M,7.0,0135*60
$PYRTM,2024,123.833993295116,14.943640705266
$GNHDT,322.526,T*29
$PYRTM,2024,123.833999029144,14.943646439282
$GNGGA,200057.50,3443.44583450,N,12111.48958109,W,2,10,1.1,7.401,M,-37.474,M,7.4,0135*6C
$PYRTM,2024,123.833999029144,14.943646439282
$GNHDT,322.404,T*28
$PYRTM,2024,123.834004868704,14.943652278843
$GNGGA,200058.00,3443.44659521,N,12111.49001867,W,2,10,1.1,7.255,M,-37.474,M,7.0,0135*63
$PYRTM,2024,123.834004868704,14.943652278843
$GNHDT,322.463,T*29
$PYRTM,2024,123.834010609792,14.943658019931
$GNGGA,200058.50,3443.44744088,N,12111.49049963,W,2,10,1.1,6.718,M,-37.474,M,7.4,0135*6D
$PYRTM,2024,123.834010609792,14.943658019931
$GNHDT,323.208,T*23
$PYRTM,2024,123.834016443229,14.943663853380
$GNGGA,200059.00,3443.44824481,N,12111.49101474,W,2,10,1.1,6.118,M,-37.474,M,4.0,0135*6A
$PYRTM,2024,123.834016443229,14.943663853380
$GNHDT,323.209,T*22
$PYRTM,2024,123.834022174120,14.943669584259
$GNGGA,200059.50,3443.44892131,N,12111.49154800,W,2,10,1.1,5.804,M,-37.474,M,4.4,0135*60
$PYRTM,2024,123.834022174120,14.943669584259
$GNHDT,322.736,T*2A
$PYRTM,2024,123.834028016204,14.943675426343
$GNGGA,200100.00,3443.44944303,N,12111.49206420,W,2,10,1.1,5.964,M,-37.474,M,5.0,0135*69
$PYRTM,2024,123.834028016204,14.943675426343
$GNHDT,322.674,T*2D
$PYRTM,2024,123.834033747118,14.943681157269
$GNGGA,200100.50,3443.44987291,N,12111.49256977,W,2,10,1.1,6.479,M,-37.474,M,5.4,0135*65
$PYRTM,2024,123.834033747118,14.943681157269
$GNHDT,322.762,T*2B
$PYRTM,2024,123.834039591204,14.943687001331
$GNGGA,200101.00,3443.45030428,N,12111.49309093,W,2,10,1.1,7.061,M,-37.474,M,6.0,0135*62
$PYRTM,2024,123.834039591204,14.943687001331
$GNHDT,323.425,T*2A
$PYRTM,2024,123.834045322720,14.943692732859
$GNGGA,200101.50,3443.45085423,N,12111.49363620,W,2,10,1.1,7.388,M,-37.474,M,6.4,0135*60
$PYRTM,2024,123.834045322720,14.943692732859
$GNHDT,323.046,T*2B
$PYRTM,2024,123.834051163958,14.943698574097
$GNGGA,200102.00,3443.45157448,N,12111.49420948,W,2,10,1.1,7.304,M,-37.474,M,7.0,0135*65
$PYRTM,2024,123.834051163958,14.943698574097
$GNHDT,322.531,T*2F
$PYRTM,2024,123.834056895903,14.943704306042
$GNGGA,200102.50,3443.45237563,N,12111.49477131,W,2,10,1.1,6.862,M,-37.474,M,7.4,0135*67
$PYRTM,2024,123.834056895903,14.943704306042
$GNHDT,322.963,T*24
$PYRTM,2024,123.834062739248,14.943710149387
$GNGGA,200103.00,3443.45314790,N,12111.49529079,W,2,10,1.1,6.357,M,-37.474,M,7.0,0135*63
$PYRTM,2024,123.834062739248,14.943710149387
$GNHDT,322.744,T*2F
$PYRTM,2024,123.834068472859,14.943715883009
$GNGGA,200103.50,3443.45381819,N,12111.49578248,W,2,10,1.1,6.033,M,-37.474,M,7.4,0135*65
$PYRTM,2024,123.834068472859,14.943715883009
$GNHDT,322.439,T*26
$PYRTM,2024,123.834074314595,14.943721724734
$GNGGA,200104.00,3443.45436231,N,12111.49624668,W,2,10,1.1,6.045,M,-37.474,M,7.0,0135*65
$PYRTM,2024,123.834074314595,14.943721724734
$GNHDT,322.099,T*28
$PYRTM,2024,123.834080046678,14.943727456817
$GNGGA,200104.50,3443.45482898,N,12111.49671328,W,2,10,1.1,6.360,M,-37.474,M,7.4,0135*67
$PYRTM,2024,123.834080046678,14.943727456817
$GNHDT,322.482,T*26
$PYRTM,2024,123.834085888160,14.943733298299
$GNGGA,200105.00,3443.45529595,N,12111.49721578,W,2,10,1.1,6.775,M,-37.474,M,4.0,0135*63
$PYRTM,2024,123.834085888160,14.943733298299
$GNHDT,322.196,T*26
$PYRTM,2024,123.834091620880,14.943739031019
$GNGGA,200105.50,3443.45582714,N,12111.49772430,W,2,10,1.1,7.083,M,-37.474,M,4.4,0135*6C
$PYRTM,2024,123.834091620880,14.943739031019
$GNHDT,322.332,T*2A
$PYRTM,2024,123.834097462986,14.943744873125
$GNGGA,200106.00,3443.45644979,N,12111.49820980,W,2,10,1.1,7.198,M,-37.474,M,5.0,0135*66
$PYRTM,2024,123.834097462986,14.943744873125
$GNHDT,322.954,T*20
$PYRTM,2024,123.834103201042,14.943750611192
$GNGGA,200106.50,3443.45711962,N,12111.49867736,W,2,10,1.1,7.103,M,-37.474,M,5.4,0135*6E
$PYRTM,2024,123.834103201042,14.943750611192
$GNHDT,322.358,T*26
$PYRTM,2024,123.834109035185,14.943756445336
$GNGGA,200107.00,3443.45782155,N,12111.49913239,W,2,10,1.1,6.814,M,-37.474,M,6.0,0135*6D
$PYRTM,2024,123.834109035185,14.943756445336
$GNHDT,322.671,T*28
$PYRTM,2024,123.834114765579,14.943762175729
$GNGGA,200107.50,3443.45851589,N,12111.49959759,W,2,10,1.1,6.463,M,-37.474,M,6.4,0135*69
$PYRTM,2024,123.834114765579,14.943762175729
$GNHDT,322.817,T*26
$PYRTM,2024,123.834120609456,14.943768019595
$GNGGA,200108.00,3443.45917891,N,12111.50010801,W,2,10,1.1,6.163,M,-37.474,M,7.0,0135*6A
$PYRTM,2024,123.834120609456,14.943768019595
$GNHDT,322.638,T*25
$PYRTM,2024,123.834126342847,14.943773752986
$GNGGA,200108.50,3443.45976285,N,12111.50063824,W,2,10,1.1,6.105,M,-37.474,M,7.4,0135*60
$PYRTM,2024,123.834126342847,14.943773752986
$GNHDT,321.957,T*20
$PYRTM,2024,123.834132184444,14.943779594583
$GNGGA,200109.00,3443.46026309,N,12111.50115889,W,2,10,1.1,6.332,M,-37.474,M,7.0,0135*6B
$PYRTM,2024,123.834132184444,14.943779594583
$GNHDT,321.763,T*29
$PYRTM,2024,123.834137916771,14.943785326910
$GNGGA,200109.50,3443.46073800,N,12111.50165731,W,2,10,1.1,6.728,M,-37.474,M,7.4,0135*6C
$PYRTM,2024,123.834137916771,14.943785326910
$GNHDT,322.272,T*2F
$PYRTM,2024,123.834143755903,14.943791166042
$GNGGA,200110.00,3443.46122199,N,12111.50217051,W,2,10,1.1,7.098,M,-37.474,M,7.0,0135*63
$PYRTM,2024,123.834143755903,14.943791166042
$GNHDT,322.430,T*2F
$PYRTM,2024,123.834149497905,14.943796908044
$GNGGA,200110.50,3443.46178104,N,12111.50268160,W,2,10,1.1,7.268,M,-37.474,M,7.4,0135*6F
$PYRTM,2024,123.834149497905,14.943796908044
$GNHDT,322.999,T*21
$PYRTM,2024,123.834155332905,14.943802743044
$GNGGA,200111.00,3443.46242626,N,12111.50321167,W,2,10,1.1,7.103,M,-37.474,M,4.0,0135*64
$PYRTM,2024,123.834155332905,14.943802743044
$GNHDT,322.897,T*2E
$PYRTM,2024,123.834161065289,14.943808475428
$GNGGA,200111.50,3443.46313609,N,12111.50373877,W,2,10,1.1,6.664,M,-37.473,M,4.4,0135*62
$PYRTM,2024,123.834161065289,14.943808475428
$GNHDT,323.147,T*2B
$PYRTM,2024,123.834166910787,14.943814320926
$GNGGA,200112.00,3443.46385969,N,12111.50426182,W,2,10,1.1,6.123,M,-37.473,M,5.0,0135*67
$PYRTM,2024,123.834166910787,14.943814320926
$GNHDT,323.348,T*26
$PYRTM,2024,123.834172646424,14.943820056562
$GNGGA,200112.50,3443.46456456,N,12111.50477138,W,2,10,1.1,5.698,M,-37.473,M,5.4,0135*6F
$PYRTM,2024,123.834172646424,14.943820056562
$GNHDT,323.263,T*2E
$PYRTM,2024,123.834178477720,14.943825887870
$GNGGA,200113.00,3443.46520690,N,12111.50523524,W,2,10,1.1,5.644,M,-37.473,M,6.0,0135*6C
$PYRTM,2024,123.834178477720,14.943825887870
$GNHDT,323.417,T*2B
$PYRTM,2024,123.834184210567,14.943831620706
$GNGGA,200113.50,3443.46578381,N,12111.50567641,W,2,10,1.1,5.983,M,-37.473,M,6.4,0135*61
$PYRTM,2024,123.834184210567,14.943831620706
$GNHDT,323.490,T*24
$PYRTM,2024,123.834190058692,14.943837468831
$GNGGA,200114.00,3443.46631382,N,12111.50614131,W,2,10,1.1,6.593,M,-37.473,M,7.0,0135*62
$PYRTM,2024,123.834190058692,14.943837468831
$GNHDT,323.306,T*2C
$PYRTM,2024,123.834195793727,14.943843203866
$GNGGA,200114.50,3443.46683008,N,12111.50665881,W,2,10,1.1,7.208,M,-37.473,M,7.4,0135*6B
$PYRTM,2024,123.834195793727,14.943843203866
$GNHDT,323.399,T*2A
$PYRTM,2024,123.834201626782,14.943849036921
$GNGGA,200115.00,3443.46738597,N,12111.50723029,W,2,10,1.1,7.631,M,-37.473,M,7.0,0135*6E
$PYRTM,2024,123.834201626782,14.943849036921
$GNHDT,323.987,T*2F
$PYRTM,2024,123.834207359699,14.943854769850
$GNGGA,200115.50,3443.46800835,N,12111.50782119,W,2,10,1.1,7.704,M,-37.473,M,7.4,0135*60
$PYRTM,2024,123.834207359699,14.943854769850
$GNHDT,323.708,T*26
$PYRTM,2024,123.834213200000,14.943860610139
$GNGGA,200116.00,3443.46866705,N,12111.50837030,W,2,10,1.1,7.482,M,-37.473,M,7.0,0135*68
$PYRTM,2024,123.834213200000,14.943860610139
$GNHDT,323.791,T*26
$PYRTM,2024,123.834218940868,14.943866351007
$GNGGA,200116.50,3443.46934346,N,12111.50885138,W,2,10,1.1,7.199,M,-37.473,M,7.4,0135*63
$PYRTM,2024,123.834218940868,14.943866351007
$GNHDT,324.394,T*20
$PYRTM,2024,123.834224775694,14.943872185833
$GNGGA,200117.00,3443.47000994,N,12111.50926247,W,2,10,1.1,6.881,M,-37.473,M,4.0,0135*68
$PYRTM,2024,123.834224775694,14.943872185833
$GNHDT,324.526,T*2F
$PYRTM,2024,123.834230513102,14.943877923241
$GNGGA,200117.50,3443.47067294,N,12111.50962898,W,2,10,1.1,6.599,M,-37.473,M,4.4,0135*6F
$PYRTM,2024,123.834230513102,14.943877923241
$GNHDT,324.593,T*21
$PYRTM,2024,123.834236352708,14.943883762847
$GNGGA,200118.00,3443.47134928,N,12111.51001408,W,2,10,1.1,6.346,M,-37.473,M,5.0,0135*67
$PYRTM,2024,123.834236352708,14.943883762847
$GNHDT,324.736,T*2C
$PYRTM,2024,123.834242080961,14.943889491100
$GNGGA,200118.50,3443.47205022,N,12111.51051467,W,2,10,1.1,6.084,M,-37.473,M,5.4,0135*65
$PYRTM,2024,123.834242080961,14.943889491100
$GNHDT,324.851,T*22
$PYRTM,2024,123.834247924525,14.943895334664
$GNGGA,200119.00,3443.47274328,N,12111.51115508,W,2,10,1.1,5.869,M,-37.473,M,6.0,0135*68
$PYRTM,2024,123.834247924525,14.943895334664
$GNHDT,324.837,T*22
$PYRTM,2024,123.834253659745,14.943901069884
$GNGGA,200119.50,3443.47339006,N,12111.51184916,W,2,10,1.1,5.805,M,-37.473,M,6.4,0135*6F
$PYRTM,2024,123.834253659745,14.943901069884
$GNHDT,324.367,T*2C
$PYRTM,2024,123.834259501528,14.943906911667
$GNGGA,200120.00,3443.47398299,N,12111.51248429,W,2,10,1.1,6.005,M,-37.473,M,7.0,0135*63
$PYRTM,2024,123.834259501528,14.943906911667
$GNHDT,324.968,T*29
$PYRTM,2024,123.834265240058,14.943912650197
$GNGGA,200120.50,3443.47454004,N,12111.51297579,W,2,10,1.1,6.398,M,-37.473,M,7.4,0135*62
$PYRTM,2024,123.834265240058,14.943912650197
$GNHDT,325.271,T*2B
$PYRTM,2024,123.834271074421,14.943918484560
$GNGGA,200121.00,3443.47511459,N,12111.51333993,W,2,10,1.1,6.948,M,-37.473,M,7.0,0135*6E
$PYRTM,2024,123.834271074421,14.943918484560
$GNHDT,325.979,T*28
$PYRTM,2024,123.834276808137,14.943924218275
$GNGGA,200121.50,3443.47576905,N,12111.51362733,W,2,10,1.1,7.387,M,-37.473,M,7.4,0135*62
$PYRTM,2024,123.834276808137,14.943924218275
$GNHDT,326.512,T*2A
$PYRTM,2024,123.834282645938,14.943930056088
$GNGGA,200122.00,3443.47652921,N,12111.51393035,W,2,10,1.1,7.522,M,-37.473,M,7.0,0135*65
$PYRTM,2024,123.834282645938,14.943930056088
$GNHDT,326.617,T*2C
$PYRTM,2024,123.834288377431,14.943935787569
$GNGGA,200122.50,3443.47734215,N,12111.51429655,W,2,10,1.1,7.354,M,-37.473,M,7.4,0135*68
$PYRTM,2024,123.834288377431,14.943935787569
$GNHDT,326.250,T*2B
$PYRTM,2024,123.834294222025,14.943941632164
$GNGGA,200123.00,3443.47809210,N,12111.51473211,W,2,10,1.1,6.999,M,-37.473,M,4.0,0135*6E
$PYRTM,2024,123.834294222025,14.943941632164
$GNHDT,326.124,T*2B
$PYRTM,2024,123.834299959294,14.943947369433
$GNGGA,200123.50,3443.47873267,N,12111.51523087,W,2,10,1.1,6.707,M,-37.473,M,4.4,0135*62
$PYRTM,2024,123.834299959294,14.943947369433
$GNHDT,325.930,T*25
$PYRTM,2024,123.834305794606,14.943953204745
$GNGGA,200124.00,3443.47923225,N,12111.51576702,W,2,10,1.1,6.620,M,-37.473,M,5.0,0135*69
$PYRTM,2024,123.834305794606,14.943953204745
$GNHDT,325.771,T*2E
$PYRTM,2024,123.834311527326,14.943958937465
$GNGGA,200124.50,3443.47968837,N,12111.51631185,W,2,10,1.1,6.652,M,-37.473,M,5.4,0135*62
$PYRTM,2024,123.834311527326,14.943958937465
$GNHDT,325.829,T*2C
$PYRTM,2024,123.834317366887,14.943964777037
$GNGGA,200125.00,3443.48016919,N,12111.51684975,W,2,10,1.1,6.708,M,-37.473,M,6.0,0135*64
$PYRTM,2024,123.834317366887,14.943964777037
$GNHDT,325.678,T*26
$PYRTM,2024,123.834323099421,14.943970509560
$GNGGA,200125.50,3443.48078853,N,12111.51735762,W,2,10,1.1,6.536,M,-37.473,M,6.4,0135*6E
$PYRTM,2024,123.834323099421,14.943970509560
$GNHDT,325.300,T*2C
$PYRTM,2024,123.834328942176,14.943976352315
$GNGGA,200126.00,3443.48158323,N,12111.51782131,W,2,10,1.1,6.086,M,-37.473,M,7.0,0135*60
$PYRTM,2024,123.834328942176,14.943976352315
$GNHDT,325.593,T*20
$PYRTM,2024,123.834334674618,14.943982084757
$GNGGA,200126.50,3443.48245783,N,12111.51825629,W,2,10,1.1,5.528,M,-37.473,M,7.4,0135*6E
$PYRTM,2024,123.834334674618,14.943982084757
$GNHDT,325.118,T*27
$PYRTM,2024,123.834340519109,14.943987929248
$GNGGA,200127.00,3443.48333392,N,12111.51862761,W,2,10,1.1,5.186,M,-37.473,M,7.0,0135*64
$PYRTM,2024,123.834340519109,14.943987929248
$GNHDT,324.800,T*26
$PYRTM,2024,123.834346252338,14.943993662477
$GNGGA,200127.50,3443.48402518,N,12111.51898730,W,2,10,1.1,5.424,M,-37.473,M,7.4,0135*68
$PYRTM,2024,123.834346252338,14.943993662477
$GNHDT,324.474,T*29
$PYRTM,2024,123.834352093831,14.943999503981
$GNGGA,200128.00,3443.48455233,N,12111.51934008,W,2,10,1.1,6.117,M,-37.473,M,7.0,0135*67
$PYRTM,2024,123.834352093831,14.943999503981
$GNHDT,324.669,T*27
$PYRTM,2024,123.834357827315,14.944005237454
$GNGGA,200128.50,3443.48496893,N,12111.51973688,W,2,10,1.1,7.069,M,-37.473,M,7.4,0135*6D
$PYRTM,2024,123.834357827315,14.944005237454
$GNHDT,324.058,T*23
$PYRTM,2024,123.834363664722,14.944011074861
$GNGGA,200129.00,3443.48539272,N,12111.52021972,W,2,10,1.1,7.865,M,-37.473,M,4.0,0135*6C
$PYRTM,2024,123.834363664722,14.944011074861
$GNHDT,323.920,T*22
$PYRTM,2024,123.834369396157,14.944016806296
$GNGGA,200129.50,3443.48590776,N,12111.52079400,W,2,10,1.1,8.228,M,-37.473,M,4.4,0135*66
$PYRTM,2024,123.834369396157,14.944016806296
$GNHDT,323.542,T*2A
$PYRTM,2024,123.834375244722,14.944022654873
$GNGGA,200130.00,3443.48654799,N,12111.52142222,W,2,10,1.1,7.975,M,-37.473,M,5.0,0135*67
$PYRTM,2024,123.834375244722,14.944022654873
$GNHDT,323.441,T*28
$PYRTM,2024,123.834380982025,14.944028392164
$GNGGA,200130.50,3443.48724734,N,12111.52201268,W,2,10,1.1,7.209,M,-37.473,M,5.4,0135*6D
$PYRTM,2024,123.834380982025,14.944028392164
$GNHDT,323.123,T*29
$PYRTM,2024,123.834386820336,14.944034230475
$GNGGA,200131.00,3443.48796977,N,12111.52249950,W,2,10,1.1,6.270,M,-37.473,M,6.0,0135*6D
$PYRTM,2024,123.834386820336,14.944034230475
$GNHDT,322.962,T*25
$PYRTM,2024,123.834392551887,14.944039962025
$GNGGA,200131.50,3443.48862241,N,12111.52288700,W,2,10,1.1,5.519,M,-37.473,M,6.4,0135*6B
$PYRTM,2024,123.834392551887,14.944039962025
$GNHDT,323.128,T*22
$PYRTM,2024,123.834398390660,14.944045800799
$GNGGA,200132.00,3443.48919278,N,12111.52321266,W,2,10,1.1,5.220,M,-37.473,M,7.0,0135*65
$PYRTM,2024,123.834398390660,14.944045800799
$GNHDT,323.084,T*25
$PYRTM,2024,123.834404126563,14.944051536701
$GNGGA,200132.50,3443.48969422,N,12111.52352761,W,2,10,1.1,5.454,M,-37.473,M,7.4,0135*69
$PYRTM,2024,123.834404126563,14.944051536701
$GNHDT,322.960,T*27
$PYRTM,2024,123.834409965868,14.944057376007
$GNGGA,200133.00,3443.49018116,N,12111.52384486,W,2,10,1.1,6.014,M,-37.473,M,7.0,0135*67
$PYRTM,2024,123.834409965868,14.944057376007
$GNHDT,323.662,T*2B
$PYRTM,2024,123.834415694664,14.944063104803
$GNGGA,200133.50,3443.49072264,N,12111.52420326,W,2,10,1.1,6.592,M,-37.473,M,7.4,0135*63
$PYRTM,2024,123.834415694664,14.944063104803
$GNHDT,322.666,T*2E
$PYRTM,2024,123.834421536088,14.944068946227
$GNGGA,200134.00,3443.49135285,N,12111.52460778,W,2,10,1.1,7.020,M,-37.473,M,7.0,0135*6E
$PYRTM,2024,123.834421536088,14.944068946227
$GNHDT,322.847,T*23
$PYRTM,2024,123.834427270509,14.944074680648
$GNGGA,200134.50,3443.49203492,N,12111.52509162,W,2,10,1.1,7.186,M,-37.473,M,7.4,0135*67
$PYRTM,2024,123.834427270509,14.944074680648
$GNHDT,322.427,T*29
$PYRTM,2024,123.834433111377,14.944080521516
$GNGGA,200135.00,3443.49271330,N,12111.52562834,W,2,10,1.1,7.194,M,-37.473,M,4.0,0135*6A
$PYRTM,2024,123.834433111377,14.944080521516
$GNHDT,322.594,T*20
$PYRTM,2024,123.834438845891,14.944086256030
$GNGGA,200135.50,3443.49332723,N,12111.52616180,W,2,10,1.1,7.097,M,-37.473,M,4.4,0135*6F
$PYRTM,2024,123.834438845891,14.944086256030
$GNHDT,322.718,T*26
$PYRTM,2024,123.834444684190,14.944092094329
$GNGGA,200136.00,3443.49387682,N,12111.52665686,W,2,10,1.1,6.954,M,-37.473,M,5.0,0135*6A
$PYRTM,2024,123.834444684190,14.944092094329
$GNHDT,322.248,T*26
$PYRTM,2024,123.834450417662,14.944097827801
$GNGGA,200136.50,3443.49440223,N,12111.52711124,W,2,10,1.1,6.811,M,-37.473,M,5.4,0135*65
$PYRTM,2024,123.834450417662,14.944097827801
$GNHDT,322.478,T*23
$PYRTM,2024,123.834456257940,14.944103668090
$GNGGA,200137.00,3443.49494622,N,12111.52752381,W,2,10,1.1,6.682,M,-37.473,M,6.0,0135*64
$PYRTM,2024,123.834456257940,14.944103668090
$GNHDT,322.429,T*27
$PYRTM,2024,123.834461995729,14.944109405868
$GNGGA,200137.50,3443.49551360,N,12111.52793837,W,2,10,1.1,6.576,M,-37.473,M,6.4,0135*6D
$PYRTM,2024,123.834461995729,14.944109405868
$GNHDT,322.083,T*23
$PYRTM,2024,123.834467833530,14.944115243669
$GNGGA,200138.00,3443.49611797,N,12111.52834627,W,2,10,1.1,6.457,M,-37.473,M,7.0,0135*66
$PYRTM,2024,123.834467833530,14.944115243669
$GNHDT,321.927,T*27
$PYRTM,2024,123.834473568542,14.944120978681
$GNGGA,200138.50,3443.49673360,N,12111.52878273,W,2,10,1.1,6.307,M,-37.473,M,7.4,0135*60
$PYRTM,2024,123.834473568542,14.944120978681
$GNHDT,322.032,T*29
$PYRTM,2024,123.834479405613,14.944126815764
$GNGGA,200139.00,3443.49737422,N,12111.52923718,W,2,10,1.1,6.133,M,-37.473,M,7.0,0135*62
$PYRTM,2024,123.834479405613,14.944126815764
$GNHDT,322.490,T*25
$PYRTM,2024,123.834485138426,14.944132548576
$GNGGA,200139.50,3443.49801989,N,12111.52971148,W,2,10,1.1,5.998,M,-37.473,M,7.4,0135*6B
$PYRTM,2024,123.834485138426,14.944132548576
$GNHDT,322.514,T*28
$PYRTM,2024,123.834490981539,14.944138391678
$GNGGA,200140.00,3443.49866533,N,12111.53017232,W,2,10,1.1,5.980,M,-37.473,M,7.0,0135*67
$PYRTM,2024,123.834490981539,14.944138391678
$GNHDT,322.864,T*22
$PYRTM,2024,123.834496712014,14.944144122153
$GNGGA,200140.50,3443.49929634,N,12111.53061663,W,2,10,1.1,6.109,M,-37.473,M,7.4,0135*63
$PYRTM,2024,123.834496712014,14.944144122153
$GNHDT,322.737,T*2B
$PYRTM,2024,123.834502555637,14.944149965775
$GNGGA,200141.00,3443.49992205,N,12111.53104359,W,2,10,1.1,6.371,M,-37.473,M,4.0,0135*65
$PYRTM,2024,123.834502555637,14.944149965775
$GNHDT,322.426,T*28
$PYRTM,2024,123.834508286875,14.944155697014
$GNGGA,200141.50,3443.50052472,N,12111.53149327,W,2,10,1.1,6.690,M,-37.473,M,4.4,0135*65
$PYRTM,2024,123.834508286875,14.944155697014
$GNHDT,322.612,T*2D
$PYRTM,2024,123.834514131701,14.944161541840
$GNGGA,200142.00,3443.50110519,N,12111.53197038,W,2,10,1.1,6.987,M,-37.473,M,5.0,0135*6A
$PYRTM,2024,123.834514131701,14.944161541840
$GNHDT,322.478,T*23
$PYRTM,2024,123.834519861343,14.944167271481
$GNGGA,200142.50,3443.50167193,N,12111.53248906,W,2,10,1.1,7.164,M,-37.473,M,5.4,0135*6C
$PYRTM,2024,123.834519861343,14.944167271481
$GNHDT,322.792,T*24
$PYRTM,2024,123.834525702755,14.944173112894
$GNGGA,200143.00,3443.50225197,N,12111.53299322,W,2,10,1.1,7.155,M,-37.473,M,6.0,0135*6C
$PYRTM,2024,123.834525702755,14.944173112894
$GNHDT,322.940,T*25
$PYRTM,2024,123.834531436192,14.944178846331
$GNGGA,200143.50,3443.50285015,N,12111.53346484,W,2,10,1.1,7.024,M,-37.473,M,6.4,0135*63
$PYRTM,2024,123.834531436192,14.944178846331
$GNHDT,323.203,T*28
$PYRTM,2024,123.834537281782,14.944184691921
$GNGGA,200144.00,3443.50346502,N,12111.53391907,W,2,10,1.1,6.745,M,-37.473,M,7.0,0135*64
$PYRTM,2024,123.834537281782,14.944184691921
$GNHDT,323.112,T*2B
$PYRTM,2024,123.834543009005,14.944190419144
$GNGGA,200144.50,3443.50409542,N,12111.53439681,W,2,10,1.1,6.388,M,-37.473,M,7.4,0135*6C
$PYRTM,2024,123.834543009005,14.944190419144
$GNHDT,323.174,T*2B
$PYRTM,2024,123.834548851609,14.944196261759
$GNGGA,200145.00,3443.50472866,N,12111.53491541,W,2,10,1.1,6.004,M,-37.473,M,7.0,0135*61
$PYRTM,2024,123.834548851609,14.944196261759
$GNHDT,323.475,T*2F
$PYRTM,2024,123.834554583993,14.944201994132
$GNGGA,200145.50,3443.50535940,N,12111.53544564,W,2,10,1.1,5.729,M,-37.473,M,7.4,0135*62
$PYRTM,2024,123.834554583993,14.944201994132
$GNHDT,323.405,T*28
$PYRTM,2024,123.834560423507,14.944207833646
$GNGGA,200146.00,3443.50598054,N,12111.53595840,W,2,10,1.1,5.676,M,-37.473,M,7.0,0135*67
$PYRTM,2024,123.834560423507,14.944207833646
$GNHDT,323.384,T*26
$PYRTM,2024,123.834566162060,14.944213572199
$GNGGA,200146.50,3443.50659734,N,12111.53642686,W,2,10,1.1,5.878,M,-37.473,M,7.4,0135*64
$PYRTM,2024,123.834566162060,14.944213572199
$GNHDT,323.762,T*2A
$PYRTM,2024,123.834572000451,14.944219410590
$GNGGA,200147.00,3443.50720546,N,12111.53686187,W,2,10,1.1,6.272,M,-37.473,M,4.0,0135*62
$PYRTM,2024,123.834572000451,14.944219410590
$GNHDT,323.583,T*27
$PYRTM,2024,123.834577730324,14.944225140463
$GNGGA,200147.50,3443.50781370,N,12111.53727778,W,2,10,1.1,6.735,M,-37.473,M,4.4,0135*61
$PYRTM,2024,123.834577730324,14.944225140463
$GNHDT,323.731,T*2C
$PYRTM,2024,123.834583571771,14.944230981910
$GNGGA,200148.00,3443.50843939,N,12111.53769958,W,2,10,1.1,7.085,M,-37.473,M,5.0,0135*63
$PYRTM,2024,123.834583571771,14.944230981910
$GNHDT,323.971,T*26
$PYRTM,2024,123.834589306007,14.944236716146
$GNGGA,200148.50,3443.50910167,N,12111.53816547,W,2,10,1.1,7.132,M,-37.473,M,5.4,0135*6E
$PYRTM,2024,123.834589306007,14.944236716146
$GNHDT,324.423,T*2B
$PYRTM,2024,123.834595153900,14.944242564039
$GNGGA,200149.00,3443.50980333,N,12111.53867649,W,2,10,1.1,6.846,M,-37.473,M,6.0,0135*67
$PYRTM,2024,123.834595153900,14.944242564039
$GNHDT,324.998,T*26
$PYRTM,2024,123.834600887569,14.944248297708
$GNGGA,200149.50,3443.51050543,N,12111.53920877,W,2,10,1.1,6.523,M,-37.473,M,6.4,0135*6D
$PYRTM,2024,123.834600887569,14.944248297708
$GNHDT,324.604,T*2C
$PYRTM,2024,123.834606723333,14.944254133484
$GNGGA,200150.00,3443.51115755,N,12111.53973745,W,2,10,1.1,6.265,M,-37.473,M,7.0,0135*6D
$PYRTM,2024,123.834606723333,14.944254133484
$GNHDT,324.016,T*29
$PYRTM,2024,123.834612465220,14.944259875359
$GNGGA,200150.50,3443.51174585,N,12111.54023735,W,2,10,1.1,6.216,M,-37.473,M,7.4,0135*6C
$PYRTM,2024,123.834612465220,14.944259875359
$GNHDT,324.302,T*2F
$PYRTM,2024,123.834618295926,14.944265706065
$GNGGA,200151.00,3443.51228435,N,12111.54071423,W,2,10,1.1,6.381,M,-37.473,M,7.0,0135*60
$PYRTM,2024,123.834618295926,14.944265706065
$GNHDT,323.728,T*24
$PYRTM,2024,123.834624027894,14.944271438044
$GNGGA,200151.50,3443.51282355,N,12111.54118890,W,2,10,1.1,6.583,M,-37.473,M,7.4,0135*6E
$PYRTM,2024,123.834624027894,14.944271438044
$GNHDT,323.806,T*27
$PYRTM,2024,123.834629873519,14.944277283657
$GNGGA,200152.00,3443.51342288,N,12111.54171141,W,2,10,1.1,6.643,M,-37.473,M,7.0,0135*65
$PYRTM,2024,123.834629873519,14.944277283657
$GNHDT,323.813,T*23
$PYRTM,2024,123.834635611806,14.944283021944
$GNGGA,200152.50,3443.51409373,N,12111.54227249,W,2,10,1.1,6.513,M,-37.473,M,7.4,0135*64
$PYRTM,2024,123.834635611806,14.944283021944
$GNHDT,323.646,T*2D
$PYRTM,2024,123.834641444468,14.944288854606
$GNGGA,200153.00,3443.51479697,N,12111.54283221,W,2,10,1.1,6.272,M,-37.473,M,4.0,0135*6F
$PYRTM,2024,123.834641444468,14.944288854606
$GNHDT,323.903,T*23
$PYRTM,2024,123.834647178495,14.944294588634
$GNGGA,200153.50,3443.51551869,N,12111.54333903,W,2,10,1.1,6.012,M,-37.473,M,4.4,0135*6F
$PYRTM,2024,123.834647178495,14.944294588634
$GNHDT,323.818,T*28
$PYRTM,2024,123.834653015081,14.944300425231
$GNGGA,200154.00,3443.51621304,N,12111.54378549,W,2,10,1.1,5.906,M,-37.473,M,5.0,0135*6E
$PYRTM,2024,123.834653015081,14.944300425231
$GNHDT,324.024,T*28
$PYRTM,2024,123.834658751829,14.944306161968
$GNGGA,200154.50,3443.51686362,N,12111.54418544,W,2,10,1.1,6.068,M,-37.473,M,5.4,0135*6C
$PYRTM,2024,123.834658751829,14.944306161968
$GNHDT,324.199,T*2F
$PYRTM,2024,123.834664597674,14.944312007812
$GNGGA,200155.00,3443.51745601,N,12111.54459722,W,2,10,1.1,6.432,M,-37.473,M,6.0,0135*6D
$PYRTM,2024,123.834664597674,14.944312007812
$GNHDT,323.941,T*25
$PYRTM,2024,123.834670333414,14.944317743553
$GNGGA,200155.50,3443.51804298,N,12111.54503224,W,2,10,1.1,6.874,M,-37.473,M,6.4,0135*61
$PYRTM,2024,123.834670333414,14.944317743553
$GNHDT,324.200,T*2C
$PYRTM,2024,123.834676173993,14.944323584132
$GNGGA,200156.00,3443.51863872,N,12111.54552285,W,2,10,1.1,7.196,M,-37.473,M,7.0,0135*66
$PYRTM,2024,123.834676173993,14.944323584132
$GNHDT,324.296,T*23
$PYRTM,2024,123.834681903738,14.944329313877
$GNGGA,200156.50,3443.51926978,N,12111.54605457,W,2,10,1.1,7.304,M,-37.473,M,7.4,0135*6D
$PYRTM,2024,123.834681903738,14.944329313877
$GNHDT,324.565,T*28
$PYRTM,2024,123.834687740278,14.944335150417
$GNGGA,200157.00,3443.51991487,N,12111.54665176,W,2,10,1.1,7.141,M,-37.473,M,7.0,0135*6F
$PYRTM,2024,123.834687740278,14.944335150417
$GNHDT,324.490,T*23
$PYRTM,2024,123.834693475775,14.944340885914
$GNGGA,200157.50,3443.52058172,N,12111.54727427,W,2,10,1.1,6.799,M,-37.473,M,7.4,0135*6A
$PYRTM,2024,123.834693475775,14.944340885914
$GNHDT,324.224,T*2A
$PYRTM,2024,123.834699311319,14.944346721458
$GNGGA,200158.00,3443.52126095,N,12111.54789958,W,2,10,1.1,6.347,M,-37.473,M,7.0,0135*62
$PYRTM,2024,123.834699311319,14.944346721458
$GNHDT,323.987,T*2F
$PYRTM,2024,123.834705050787,14.944352460926
$GNGGA,200158.50,3443.52192280,N,12111.54848174,W,2,10,1.1,5.997,M,-37.473,M,7.4,0135*6A
$PYRTM,2024,123.834705050787,14.944352460926
$GNHDT,323.354,T*2B
$PYRTM,2024,123.834710887072,14.944358297211
$GNGGA,200159.00,3443.52253711,N,12111.54900992,W,2,10,1.1,5.898,M,-37.473,M,4.0,0135*69
$PYRTM,2024,123.834710887072,14.944358297211
$GNHDT,323.153,T*2E
$PYRTM,2024,123.834716623484,14.944364033623
$GNGGA,200159.50,3443.52314166,N,12111.54949894,W,2,10,1.1,6.016,M,-37.473,M,4.4,0135*6B
$PYRTM,2024,123.834716623484,14.944364033623
$GNHDT,323.772,T*2B
$PYRTM,2024,123.834722467164,14.944369877303
$GNGGA,200200.00,3443.52376639,N,12111.54993351,W,2,10,1.1,6.242,M,-37.473,M,5.0,0135*6B
$PYRTM,2024,123.834722467164,14.944369877303
$GNHDT,323.766,T*2E
$PYRTM,2024,123.834728197708,14.944375607847
$GNGGA,200200.50,3443.52445864,N,12111.55034105,W,2,10,1.1,6.441,M,-37.473,M,5.4,0135*68
$PYRTM,2024,123.834728197708,14.944375607847
$GNHDT,323.991,T*28
$PYRTM,2024,123.834734034549,14.944381444688
$GNGGA,200201.00,3443.52520922,N,12111.55075612,W,2,10,1.1,6.544,M,-37.473,M,6.0,0135*6A
$PYRTM,2024,123.834734034549,14.944381444688
$GNHDT,324.100,T*2F
$PYRTM,2024,123.834739767928,14.944387178067
$GNGGA,200201.50,3443.52597040,N,12111.55120273,W,2,10,1.1,6.556,M,-37.473,M,6.4,0135*6B
$PYRTM,2024,123.834739767928,14.944387178067
$GNHDT,324.233,T*2C
$PYRTM,2024,123.834745613137,14.944393023275
$GNGGA,200202.00,3443.52669003,N,12111.55167036,W,2,10,1.1,6.589,M,-37.473,M,7.0,0135*6F
$PYRTM,2024,123.834745613137,14.944393023275
$GNHDT,324.380,T*25
$PYRTM,2024,123.834751343171,14.944398753310
$GNGGA,200202.50,3443.52734714,N,12111.55217659,W,2,10,1.1,6.661,M,-37.473,M,7.4,0135*68
$PYRTM,2024,123.834751343171,14.944398753310
$GNHDT,324.358,T*20
$PYRTM,2024,123.834757184699,14.944404594838
$GNGGA,200203.00,3443.52794247,N,12111.55273785,W,2,10,1.1,6.733,M,-37.473,M,7.0,0135*65
$PYRTM,2024,123.834757184699,14.944404594838
$GNHDT,324.316,T*2A
$PYRTM,2024,123.834762919722,14.944410329861
$GNGGA,200203.50,3443.52851552,N,12111.55335627,W,2,10,1.1,6.785,M,-37.473,M,7.4,0135*66
$PYRTM,2024,123.834762919722,14.944410329861
$GNHDT,324.025,T*29
$PYRTM,2024,123.834768757257,14.944416167396
$GNGGA,200204.00,3443.52909481,N,12111.55398877,W,2,10,1.1,6.689,M,-37.473,M,7.0,0135*62
$PYRTM,2024,123.834768757257,14.944416167396
$GNHDT,323.604,T*2B
$PYRTM,2024,123.834774493681,14.944421903819
$GNGGA,200204.50,3443.52972205,N,12111.55458461,W,2,10,1.1,6.513,M,-37.473,M,7.4,0135*65
$PYRTM,2024,123.834774493681,14.944421903819
$GNHDT,323.417,T*2B
$PYRTM,2024,123.834780334340,14.944427744479
$GNGGA,200205.00,3443.53039712,N,12111.55512794,W,2,10,1.1,6.249,M,-37.473,M,4.0,0135*6C
$PYRTM,2024,123.834780334340,14.944427744479
$GNHDT,323.282,T*21
$PYRTM,2024,123.834786067049,14.944433477187
$GNGGA,200205.50,3443.53112092,N,12111.55562018,W,2,10,1.1,5.969,M,-37.473,M,4.4,0135*64
$PYRTM,2024,123.834786067049,14.944433477187
$GNHDT,323.439,T*27
$PYRTM,2024,123.834791908125,14.944439318264
$GNGGA,200206.00,3443.53187595,N,12111.55604911,W,2,10,1.1,5.715,M,-37.473,M,5.0,0135*6F
$PYRTM,2024,123.834791908125,14.944439318264
$GNHDT,323.822,T*21
$PYRTM,2024,123.834797638773,14.944445048912
$GNGGA,200206.50,3443.53263797,N,12111.55639937,W,2,10,1.1,5.647,M,-37.473,M,5.4,0135*6B
$PYRTM,2024,123.834797638773,14.944445048912
$GNHDT,324.501,T*2A
$PYRTM,2024,123.834803484769,14.944450894919
$GNGGA,200207.00,3443.53336269,N,12111.55673302,W,2,10,1.1,5.838,M,-37.473,M,6.0,0135*69
$PYRTM,2024,123.834803484769,14.944450894919
$GNHDT,324.653,T*2E
$PYRTM,2024,123.834809218889,14.944456629039
$GNGGA,200207.50,3443.53404886,N,12111.55712121,W,2,10,1.1,6.196,M,-37.473,M,6.4,0135*6E
$PYRTM,2024,123.834809218889,14.944456629039
$GNHDT,324.410,T*2B
$PYRTM,2024,123.834815058148,14.944462468287
$GNGGA,200208.00,3443.53468530,N,12111.55763311,W,2,10,1.1,6.603,M,-37.473,M,7.0,0135*67
$PYRTM,2024,123.834815058148,14.944462468287
$GNHDT,324.046,T*2C
$PYRTM,2024,123.834820793056,14.944468203206
$GNGGA,200208.50,3443.53528753,N,12111.55828322,W,2,10,1.1,6.911,M,-37.473,M,7.4,0135*68
$PYRTM,2024,123.834820793056,14.944468203206
$GNHDT,323.841,T*24
$PYRTM,2024,123.834826631412,14.944474041551
$GNGGA,200209.00,3443.53586248,N,12111.55901591,W,2,10,1.1,7.052,M,-37.473,M,7.0,0135*68
$PYRTM,2024,123.834826631412,14.944474041551
$GNHDT,323.811,T*21
$PYRTM,2024,123.834832361991,14.944479772130
$GNGGA,200209.50,3443.53643915,N,12111.55972534,W,2,10,1.1,7.010,M,-37.473,M,7.4,0135*6D
$PYRTM,2024,123.834832361991,14.944479772130
$GNHDT,324.174,T*2C
$PYRTM,2024,123.834838203993,14.944485614132
$GNGGA,200210.00,3443.53706931,N,12111.56035591,W,2,10,1.1,6.799,M,-37.473,M,7.0,0135*63
$PYRTM,2024,123.834838203993,14.944485614132
$GNHDT,324.021,T*2D
$PYRTM,2024,123.834843935197,14.944491345336
$GNGGA,200210.50,3443.53778663,N,12111.56086449,W,2,10,1.1,6.469,M,-37.473,M,7.4,0135*63
$PYRTM,2024,123.834843935197,14.944491345336
$GNHDT,323.973,T*24
$PYRTM,2024,123.834849777060,14.944497187199
$GNGGA,200211.00,3443.53856859,N,12111.56129227,W,2,10,1.1,6.082,M,-37.473,M,4.0,0135*6F
$PYRTM,2024,123.834849777060,14.944497187199
$GNHDT,323.601,T*2E
$PYRTM,2024,123.834855510683,14.944502920822
$GNGGA,200211.50,3443.53938059,N,12111.56170345,W,2,10,1.1,5.748,M,-37.473,M,4.4,0135*64
$PYRTM,2024,123.834855510683,14.944502920822
$GNHDT,323.407,T*2A
$PYRTM,2024,123.834861353113,14.944508763252
$GNGGA,200212.00,3443.54017091,N,12111.56216476,W,2,10,1.1,5.534,M,-37.473,M,5.0,0135*6D
$PYRTM,2024,123.834861353113,14.944508763252
$GNHDT,322.912,T*22
$PYRTM,2024,123.834867085463,14.944514495602
$GNGGA,200212.50,3443.54090458,N,12111.56270163,W,2,10,1.1,5.556,M,-37.473,M,5.4,0135*67
$PYRTM,2024,123.834867085463,14.944514495602
$GNHDT,322.521,T*2E
$PYRTM,2024,123.834872924676,14.944520334826
$GNGGA,200213.00,3443.54156931,N,12111.56328188,W,2,10,1.1,5.837,M,-37.473,M,6.0,0135*6E
$PYRTM,2024,123.834872924676,14.944520334826
$GNHDT,322.580,T*25
$PYRTM,2024,123.834878657072,14.944526067211
$GNGGA,200213.50,3443.54219284,N,12111.56385945,W,2,10,1.1,6.323,M,-37.473,M,6.4,0135*61
$PYRTM,2024,123.834878657072,14.944526067211
$GNHDT,322.909,T*28
$PYRTM,2024,123.834884502940,14.944531913079
$GNGGA,200214.00,3443.54279316,N,12111.56441937,W,2,10,1.1,6.898,M,-37.473,M,7.0,0135*6B
$PYRTM,2024,123.834884502940,14.944531913079
$GNHDT,322.613,T*2C
$PYRTM,2024,123.834890243530,14.944537653669
$GNGGA,200214.50,3443.54341567,N,12111.56495358,W,2,10,1.1,7.416,M,-37.473,M,7.4,0135*61
$PYRTM,2024,123.834890243530,14.944537653669
$GNHDT,324.150,T*2A
$PYRTM,2024,123.834896073715,14.944543483854
$GNGGA,200215.00,3443.54408501,N,12111.56546639,W,2,10,1.1,7.711,M,-37.473,M,7.0,0135*62
$PYRTM,2024,123.834896073715,14.944543483854
$GNHDT,323.962,T*24
$PYRTM,2024,123.834901809931,14.944549220069
$GNGGA,200215.50,3443.54480669,N,12111.56596465,W,2,10,1.1,7.623,M,-37.473,M,7.4,0135*68
$PYRTM,2024,123.834901809931,14.944549220069
$GNHDT,323.870,T*26
$PYRTM,2024,123.834907649387,14.944555059525
$GNGGA,200216.00,3443.54557992,N,12111.56648194,W,2,10,1.1,7.145,M,-37.473,M,7.0,0135*66
$PYRTM,2024,123.834907649387,14.944555059525
$GNHDT,323.856,T*22
$PYRTM,2024,123.834913386898,14.944560797037
$GNGGA,200216.50,3443.54640141,N,12111.56702217,W,2,10,1.1,6.367,M,-37.473,M,7.4,0135*60
$PYRTM,2024,123.834913386898,14.944560797037
$GNHDT,323.443,T*2A
$PYRTM,2024,123.834919220961,14.944566631100
$GNGGA,200217.00,3443.54722743,N,12111.56754254,W,2,10,1.1,5.588,M,-37.472,M,4.0,0135*63
$PYRTM,2024,123.834919220961,14.944566631100
$GNHDT,323.611,T*2F
$PYRTM,2024,123.834924954757,14.944572364896
$GNGGA,200217.50,3443.54799532,N,12111.56803414,W,2,10,1.1,5.124,M,-37.472,M,4.4,0135*6B
$PYRTM,2024,123.834924954757,14.944572364896
$GNHDT,323.532,T*2D
$PYRTM,2024,123.834930799317,14.944578209456
$GNGGA,200218.00,3443.54867061,N,12111.56849902,W,2,10,1.1,5.204,M,-37.472,M,5.0,0135*6C
$PYRTM,2024,123.834930799317,14.944578209456
$GNHDT,324.211,T*2C
$PYRTM,2024,123.834936532269,14.944583942407
$GNGGA,200218.50,3443.54924893,N,12111.56899093,W,2,10,1.1,5.659,M,-37.472,M,5.4,0135*6E
$PYRTM,2024,123.834936532269,14.944583942407
$GNHDT,323.614,T*2A
$PYRTM,2024,123.834942372894,14.944589783032
$GNGGA,200219.00,3443.54979845,N,12111.56952414,W,2,10,1.1,6.353,M,-37.472,M,6.0,0135*6F
$PYRTM,2024,123.834942372894,14.944589783032
$GNHDT,323.744,T*2E
$PYRTM,2024,123.834948102106,14.944595512245
$GNGGA,200219.50,3443.55035793,N,12111.57012896,W,2,10,1.1,6.940,M,-37.472,M,6.4,0135*68
$PYRTM,2024,123.834948102106,14.944595512245
$GNHDT,323.295,T*27
$PYRTM,2024,123.834953945359,14.944601355498
$GNGGA,200220.00,3443.55096986,N,12111.57076792,W,2,10,1.1,7.282,M,-37.472,M,7.0,0135*6C
$PYRTM,2024,123.834953945359,14.944601355498
$GNHDT,323.360,T*2C
$PYRTM,2024,123.834959683669,14.944607093819
$GNGGA,200220.50,3443.55164335,N,12111.57138284,W,2,10,1.1,7.302,M,-37.472,M,7.4,0135*63
$PYRTM,2024,123.834959683669,14.944607093819
$GNHDT,323.453,T*2B
$PYRTM,2024,123.834965522812,14.944612932963
$GNGGA,200221.00,3443.55238777,N,12111.57192985,W,2,10,1.1,6.955,M,-37.472,M,7.0,0135*68
$PYRTM,2024,123.834965522812,14.944612932963
$GNHDT,324.023,T*2F
$PYRTM,2024,123.834971251470,14.944618661609
$GNGGA,200221.50,3443.55318879,N,12111.57238637,W,2,10,1.1,6.349,M,-37.472,M,7.4,0135*69
$PYRTM,2024,123.834971251470,14.944618661609
$GNHDT,324.113,T*2D
$PYRTM,2024,123.834977092234,14.944624502373
$GNGGA,200222.00,3443.55401514,N,12111.57278754,W,2,10,1.1,5.644,M,-37.472,M,7.0,0135*69
$PYRTM,2024,123.834977092234,14.944624502373
$GNHDT,324.016,T*29
$PYRTM,2024,123.834982829109,14.944630239248
$GNGGA,200222.50,3443.55480502,N,12111.57319675,W,2,10,1.1,5.144,M,-37.472,M,7.4,0135*65
$PYRTM,2024,123.834982829109,14.944630239248
$GNHDT,324.326,T*29
$PYRTM,2024,123.834988670405,14.944636080544
$GNGGA,200223.00,3443.55547941,N,12111.57363127,W,2,10,1.1,5.086,M,-37.472,M,4.0,0135*65
$PYRTM,2024,123.834988670405,14.944636080544
$GNHDT,324.010,T*2F
$PYRTM,2024,123.834994404097,14.944641814236
$GNGGA,200223.50,3443.55600001,N,12111.57410704,W,2,10,1.1,5.528,M,-37.472,M,4.4,0135*6C
$PYRTM,2024,123.834994404097,14.944641814236
$GNHDT,323.817,T*27
$PYRTM,2024,123.835000249016,14.944647659155
$GNGGA,200224.00,3443.55640828,N,12111.57463849,W,2,10,1.1,6.269,M,-37.472,M,5.0,0135*6F
$PYRTM,2024,123.835000249016,14.944647659155
$GNHDT,323.486,T*23
$PYRTM,2024,123.835005975035,14.944653385162
$GNGGA,200224.50,3443.55680687,N,12111.57523913,W,2,10,1.1,6.894,M,-37.472,M,5.4,0135*6A
$PYRTM,2024,123.835005975035,14.944653385162
$GNHDT,323.587,T*23
$PYRTM,2024,123.835011812546,14.944659222685
$GNGGA,200225.00,3443.55734312,N,12111.57591649,W,2,10,1.1,7.127,M,-37.472,M,6.0,0135*67
$PYRTM,2024,123.835011812546,14.944659222685
$GNHDT,322.975,T*23
$PYRTM,2024,123.835017546759,14.944664956898
$GNGGA,200225.50,3443.55803912,N,12111.57662743,W,2,10,1.1,6.879,M,-37.472,M,6.4,0135*60
$PYRTM,2024,123.835017546759,14.944664956898
$GNHDT,322.567,T*2C
$PYRTM,2024,123.835023394664,14.944670804803
$GNGGA,200226.00,3443.55881826,N,12111.57723934,W,2,10,1.1,6.400,M,-37.472,M,7.0,0135*67
$PYRTM,2024,123.835023394664,14.944670804803
$GNHDT,322.730,T*2C
$PYRTM,2024,123.835029127442,14.944676537593
$GNGGA,200226.50,3443.55956174,N,12111.57770413,W,2,10,1.1,5.915,M,-37.472,M,7.4,0135*67
$PYRTM,2024,123.835029127442,14.944676537593
$GNHDT,323.101,T*29
$PYRTM,2024,123.835034961227,14.944682371366
$GNGGA,200227.00,3443.56023711,N,12111.57800978,W,2,10,1.1,5.707,M,-37.472,M,7.0,0135*6F
$PYRTM,2024,123.835034961227,14.944682371366
$GNHDT,323.488,T*2D
$PYRTM,2024,123.835040698738,14.944688108877
$GNGGA,200227.50,3443.56083683,N,12111.57820148,W,2,10,1.1,5.844,M,-37.472,M,7.4,0135*6F
$PYRTM,2024,123.835040698738,14.944688108877
$GNHDT,323.454,T*2C
$PYRTM,2024,123.835046537500,14.944693947639
$GNGGA,200228.00,3443.56139190,N,12111.57841048,W,2,10,1.1,6.223,M,-37.472,M,7.0,0135*6A
$PYRTM,2024,123.835046537500,14.944693947639
$GNHDT,324.304,T*29
$PYRTM,2024,123.835052269039,14.944699679178
$GNGGA,200228.50,3443.56197446,N,12111.57874186,W,2,10,1.1,6.548,M,-37.472,M,7.4,0135*6E
$PYRTM,2024,123.835052269039,14.944699679178
$GNHDT,324.315,T*29
$PYRTM,2024,123.835058109363,14.944705519502
