$PYRTM,2024,126.601857758507,17.711505168646
$GNGGA,142640.50,3401.18741138,N,11930.72233317,W,2,12,0.9,9.185,M,-37.326,M,7.4,0131*63
$PYRTM,2024,126.601857758507,17.711505168646
$GNHDT,195.268,T*2A
$PYRTM,2024,126.601863591597,17.711511001736
$GNGGA,142641.00,3401.18634304,N,11930.72271977,W,2,12,0.9,9.075,M,-37.326,M,7.0,0131*69
$PYRTM,2024,126.601863591597,17.711511001736
$GNHDT,195.118,T*2E
$PYRTM,2024,126.601869329861,17.711516740000
$GNGGA,142641.50,3401.18528956,N,11930.72310397,W,2,12,0.9,8.965,M,-37.326,M,7.4,0131*60
$PYRTM,2024,126.601869329861,17.711516740000
$GNHDT,194.755,T*20
$PYRTM,2024,126.601875167083,17.711522577222
$GNGGA,142642.00,3401.18425564,N,11930.72347314,W,2,12,0.9,8.910,M,-37.326,M,4.0,0131*6B
$PYRTM,2024,126.601875167083,17.711522577222
$GNHDT,194.668,T*2F
$PYRTM,2024,126.601880896053,17.711528306192
$GNGGA,142642.50,3401.18323296,N,11930.72382935,W,2,12,0.9,8.937,M,-37.326,M,4.4,0131*64
$PYRTM,2024,126.601880896053,17.711528306192
$GNHDT,194.751,T*24
$PYRTM,2024,126.601886741574,17.711534151725
$GNGGA,142643.00,3401.18220254,N,11930.72418242,W,2,12,0.9,9.005,M,-37.326,M,5.0,0131*6F
$PYRTM,2024,126.601886741574,17.711534151725
$GNHDT,194.793,T*2A
$PYRTM,2024,126.601892470440,17.711539880579
$GNGGA,142643.50,3401.18115189,N,11930.72453109,W,2,12,0.9,9.051,M,-37.326,M,5.4,0131*6A
$PYRTM,2024,126.601892470440,17.711539880579
$GNHDT,194.637,T*25
$PYRTM,2024,126.601898320521,17.711545730660
$GNGGA,142644.00,3401.18007658,N,11930.72488586,W,2,12,0.9,9.048,M,-37.326,M,6.0,0131*6B
$PYRTM,2024,126.601898320521,17.711545730660
$GNHDT,194.648,T*2D
$PYRTM,2024,126.601904046308,17.711551456447
$GNGGA,142644.50,3401.17899743,N,11930.72524818,W,2,12,0.9,9.013,M,-37.326,M,6.4,0131*62
$PYRTM,2024,126.601904046308,17.711551456447
$GNHDT,194.465,T*20
$PYRTM,2024,126.601909889722,17.711557299861
$GNGGA,142645.00,3401.17792791,N,11930.72560342,W,2,12,0.9,8.987,M,-37.327,M,7.0,0131*68
$PYRTM,2024,126.601909889722,17.711557299861
$GNHDT,194.427,T*26
$PYRTM,2024,126.601915622743,17.711563032894
$GNGGA,142645.50,3401.17686867,N,11930.72595108,W,2,12,0.9,9.012,M,-37.327,M,7.4,0131*69
$PYRTM,2024,126.601915622743,17.711563032894
$GNHDT,194.437,T*27
$PYRTM,2024,126.601921460718,17.711568870856
$GNGGA,142646.00,3401.17580898,N,11930.72630523,W,2,12,0.9,9.054,M,-37.327,M,7.0,0131*6D
$PYRTM,2024,126.601921460718,17.711568870856
$GNHDT,194.254,T*24
$PYRTM,2024,126.601927201655,17.711574611806
$GNGGA,142646.50,3401.17473400,N,11930.72667276,W,2,12,0.9,9.061,M,-37.327,M,7.4,0131*6F
$PYRTM,2024,126.601927201655,17.711574611806
$GNHDT,194.526,T*26
$PYRTM,2024,126.601933036319,17.711580446458
$GNGGA,142647.00,3401.17364505,N,11930.72704140,W,2,12,0.9,9.028,M,-37.327,M,7.0,0131*65
$PYRTM,2024,126.601933036319,17.711580446458
$GNHDT,194.289,T*24
$PYRTM,2024,126.601938777419,17.711586187558
$GNGGA,142647.50,3401.17255987,N,11930.72739110,W,2,12,0.9,8.986,M,-37.327,M,7.4,0131*66
$PYRTM,2024,126.601938777419,17.711586187558
$GNHDT,194.432,T*22
$PYRTM,2024,126.601944612975,17.711592023113
$GNGGA,142648.00,3401.17148396,N,11930.72771960,W,2,12,0.9,8.959,M,-37.327,M,4.0,0131*6F
$PYRTM,2024,126.601944612975,17.711592023113
$GNHDT,194.312,T*27
$PYRTM,2024,126.601950344491,17.711597754630
$GNGGA,142648.50,3401.17041977,N,11930.72805490,W,2,12,0.9,8.934,M,-37.327,M,4.4,0131*66
$PYRTM,2024,126.601950344491,17.711597754630
$GNHDT,194.394,T*29
$PYRTM,2024,126.601956183299,17.711603593437
$GNGGA,142649.00,3401.16934993,N,11930.72839279,W,2,12,0.9,8.900,M,-37.327,M,5.0,0131*6E
$PYRTM,2024,126.601956183299,17.711603593437
$GNHDT,194.670,T*26
$PYRTM,2024,126.601961918183,17.711609328333
$GNGGA,142649.50,3401.16827329,N,11930.72873129,W,2,12,0.9,8.861,M,-37.327,M,5.4,0131*69
$PYRTM,2024,126.601961918183,17.711609328333
$GNHDT,194.398,T*25
$PYRTM,2024,126.601967760752,17.711615170891
$GNGGA,142650.00,3401.16719992,N,11930.72906985,W,2,12,0.9,8.833,M,-37.327,M,6.0,0131*61
$PYRTM,2024,126.601967760752,17.711615170891
$GNHDT,194.280,T*2D
$PYRTM,2024,126.601973499560,17.711620909699
$GNGGA,142650.50,3401.16613744,N,11930.72940769,W,2,12,0.9,8.840,M,-37.327,M,6.4,0131*64
$PYRTM,2024,126.601973499560,17.711620909699
$GNHDT,194.203,T*26
$PYRTM,2024,126.601979332743,17.711626742882
$GNGGA,142651.00,3401.16508971,N,11930.72975008,W,2,12,0.9,8.875,M,-37.327,M,7.0,0131*64
$PYRTM,2024,126.601979332743,17.711626742882
$GNHDT,194.053,T*21
$PYRTM,2024,126.601985063681,17.711632473819
$GNGGA,142651.50,3401.16404984,N,11930.73009320,W,2,12,0.9,8.926,M,-37.327,M,7.4,0131*6F
$PYRTM,2024,126.601985063681,17.711632473819
$GNHDT,193.886,T*26
$PYRTM,2024,126.601990906748,17.711638316887
$GNGGA,142652.00,3401.16301511,N,11930.73044439,W,2,12,0.9,8.975,M,-37.327,M,7.0,0131*6F
$PYRTM,2024,126.601990906748,17.711638316887
$GNHDT,193.826,T*2C
$PYRTM,2024,126.601996643831,17.711644053970
$GNGGA,142652.50,3401.16197999,N,11930.73078635,W,2,12,0.9,9.008,M,-37.328,M,7.4,0131*63
$PYRTM,2024,126.601996643831,17.711644053970
$GNHDT,193.780,T*2F
$PYRTM,2024,126.602002486053,17.711649896204
$GNGGA,142653.00,3401.16094267,N,11930.73112780,W,2,12,0.9,9.012,M,-37.328,M,7.0,0131*62
$PYRTM,2024,126.602002486053,17.711649896204
$GNHDT,193.670,T*21
$PYRTM,2024,126.602008217373,17.711655627512
$GNGGA,142653.50,3401.15990008,N,11930.73146541,W,2,12,0.9,8.993,M,-37.328,M,7.4,0131*69
$PYRTM,2024,126.602008217373,17.711655627512
$GNHDT,193.547,T*26
$PYRTM,2024,126.602014057072,17.711661467211
$GNGGA,142654.00,3401.15885394,N,11930.73180643,W,2,12,0.9,8.953,M,-37.328,M,4.0,0131*68
$PYRTM,2024,126.602014057072,17.711661467211
$GNHDT,193.547,T*26
$PYRTM,2024,126.602019786238,17.711667196377
$GNGGA,142654.50,3401.15780851,N,11930.73214327,W,2,12,0.9,8.904,M,-37.328,M,4.4,0131*6A
$PYRTM,2024,126.602019786238,17.711667196377
$GNHDT,193.676,T*27
$PYRTM,2024,126.602025628252,17.711673038403
$GNGGA,142655.00,3401.15676312,N,11930.73248249,W,2,12,0.9,8.863,M,-37.328,M,5.0,0131*6F
$PYRTM,2024,126.602025628252,17.711673038403
$GNHDT,193.760,T*21
$PYRTM,2024,126.602031365718,17.711678775856
$GNGGA,142655.50,3401.15572092,N,11930.73282272,W,2,12,0.9,8.852,M,-37.328,M,5.4,0131*6E
$PYRTM,2024,126.602031365718,17.711678775856
$GNHDT,194.036,T*22
$PYRTM,2024,126.602037203692,17.711684613843
$GNGGA,142656.00,3401.15468052,N,11930.73317115,W,2,12,0.9,8.854,M,-37.328,M,6.0,0131*60
$PYRTM,2024,126.602037203692,17.711684613843
$GNHDT,194.100,T*26
$PYRTM,2024,126.602042936944,17.711690347083
$GNGGA,142656.50,3401.15364473,N,11930.73352497,W,2,12,0.9,8.895,M,-37.328,M,6.4,0131*6E
$PYRTM,2024,126.602042936944,17.711690347083
$GNHDT,194.425,T*24
$PYRTM,2024,126.602048777049,17.711696187187
$GNGGA,142657.00,3401.15260212,N,11930.73387722,W,2,12,0.9,8.944,M,-37.328,M,7.0,0131*63
$PYRTM,2024,126.602048777049,17.711696187187
$GNHDT,194.475,T*21
$PYRTM,2024,126.602054508681,17.711701918819
$GNGGA,142657.50,3401.15154546,N,11930.73422366,W,2,12,0.9,8.990,M,-37.328,M,7.4,0131*65
$PYRTM,2024,126.602054508681,17.711701918819
$GNHDT,194.678,T*2E
$PYRTM,2024,126.602060349444,17.711707759583
$GNGGA,142658.00,3401.15047077,N,11930.73456517,W,2,12,0.9,8.985,M,-37.328,M,7.0,0131*68
$PYRTM,2024,126.602060349444,17.711707759583
$GNHDT,194.558,T*2F
$PYRTM,2024,126.602066082419,17.711713492558
$GNGGA,142658.50,3401.14938744,N,11930.73490002,W,2,12,0.9,8.945,M,-37.328,M,7.4,0131*69
$PYRTM,2024,126.602066082419,17.711713492558
$GNHDT,194.589,T*23
$PYRTM,2024,126.602071922928,17.711719333067
$GNGGA,142659.00,3401.14830307,N,11930.73523587,W,2,12,0.9,8.871,M,-37.328,M,7.0,0131*64
$PYRTM,2024,126.602071922928,17.711719333067
$GNHDT,194.848,T*23
$PYRTM,2024,126.602077660336,17.711725070475
$GNGGA,142659.50,3401.14722364,N,11930.73557286,W,2,12,0.9,8.798,M,-37.328,M,7.4,0131*61
$PYRTM,2024,126.602077660336,17.711725070475
$GNHDT,194.803,T*2C
$PYRTM,2024,126.602083496134,17.711730906285
$GNGGA,142700.00,3401.14615819,N,11930.73592791,W,2,12,0.9,8.739,M,-37.329,M,4.0,0131*6A
$PYRTM,2024,126.602083496134,17.711730906285
$GNHDT,194.949,T*23
$PYRTM,2024,126.602089230579,17.711736640718
$GNGGA,142700.50,3401.14510188,N,11930.73629630,W,2,12,0.9,8.727,M,-37.329,M,4.4,0131*6A
$PYRTM,2024,126.602089230579,17.711736640718
$GNHDT,194.944,T*2E
$PYRTM,2024,126.602095070000,17.711742480139
$GNGGA,142701.00,3401.14405250,N,11930.73667538,W,2,12,0.9,8.750,M,-37.329,M,5.0,0131*69
$PYRTM,2024,126.602095070000,17.711742480139
$GNHDT,194.875,T*2D
$PYRTM,2024,126.602100808102,17.711748218241
$GNGGA,142701.50,3401.14300345,N,11930.73705243,W,2,12,0.9,8.803,M,-37.329,M,5.4,0131*68
$PYRTM,2024,126.602100808102,17.711748218241
$GNHDT,194.841,T*2A
$PYRTM,2024,126.602106651053,17.711754061192
$GNGGA,142702.00,3401.14195976,N,11930.73742252,W,2,12,0.9,8.868,M,-37.329,M,6.0,0131*63
$PYRTM,2024,126.602106651053,17.711754061192
$GNHDT,194.856,T*2C
$PYRTM,2024,126.602112381053,17.711759791192
$GNGGA,142702.50,3401.14090767,N,11930.73776214,W,2,12,0.9,8.924,M,-37.329,M,6.4,0131*64
$PYRTM,2024,126.602112381053,17.711759791192
$GNHDT,194.612,T*22
$PYRTM,2024,126.602118219954,17.711765630093
$GNGGA,142703.00,3401.13985930,N,11930.73809346,W,2,12,0.9,8.963,M,-37.329,M,7.0,0131*61
$PYRTM,2024,126.602118219954,17.711765630093
$GNHDT,194.549,T*2F
$PYRTM,2024,126.602123956968,17.711771367118
$GNGGA,142703.50,3401.13879676,N,11930.73842463,W,2,12,0.9,8.936,M,-37.329,M,7.4,0131*60
$PYRTM,2024,126.602123956968,17.711771367118
$GNHDT,194.323,T*25
$PYRTM,2024,126.602129796400,17.711777206539
$GNGGA,142704.00,3401.13772581,N,11930.73876442,W,2,12,0.9,8.836,M,-37.329,M,7.0,0131*6C
$PYRTM,2024,126.602129796400,17.711777206539
$GNHDT,194.198,T*27
$PYRTM,2024,126.602135532801,17.711782942951
$GNGGA,142704.50,3401.13665967,N,11930.73911989,W,2,12,0.9,8.720,M,-37.329,M,7.4,0131*6C
$PYRTM,2024,126.602135532801,17.711782942951
$GNHDT,194.280,T*2D
$PYRTM,2024,126.602141366644,17.711788776782
$GNGGA,142705.00,3401.13561107,N,11930.73949112,W,2,12,0.9,8.620,M,-37.329,M,7.0,0131*63
$PYRTM,2024,126.602141366644,17.711788776782
$GNHDT,194.212,T*26
$PYRTM,2024,126.602147101007,17.711794511157
$GNGGA,142705.50,3401.13458018,N,11930.73985280,W,2,12,0.9,8.586,M,-37.329,M,7.4,0131*61
$PYRTM,2024,126.602147101007,17.711794511157
$GNHDT,194.426,T*27
$PYRTM,2024,126.602152941956,17.711800352095
$GNGGA,142706.00,3401.13356308,N,11930.74020276,W,2,12,0.9,8.655,M,-37.329,M,4.0,0131*6E
$PYRTM,2024,126.602152941956,17.711800352095
$GNHDT,194.469,T*2C
$PYRTM,2024,126.602158673241,17.711806083380
$GNGGA,142706.50,3401.13255119,N,11930.74053762,W,2,12,0.9,8.801,M,-37.329,M,4.4,0131*64
$PYRTM,2024,126.602158673241,17.711806083380
$GNHDT,194.543,T*25
$PYRTM,2024,126.602164514398,17.711811924537
$GNGGA,142707.00,3401.13152205,N,11930.74086303,W,2,12,0.9,8.938,M,-37.329,M,5.0,0131*6F
$PYRTM,2024,126.602164514398,17.711811924537
$GNHDT,194.487,T*2C
$PYRTM,2024,126.602170248970,17.711817659109
$GNGGA,142707.50,3401.13047074,N,11930.74120239,W,2,12,0.9,9.005,M,-37.330,M,5.4,0131*64
$PYRTM,2024,126.602170248970,17.711817659109
$GNHDT,194.694,T*2C
$PYRTM,2024,126.602176088646,17.711823498785
$GNGGA,142708.00,3401.12939645,N,11930.74155362,W,2,12,0.9,8.967,M,-37.330,M,6.0,0131*6D
$PYRTM,2024,126.602176088646,17.711823498785
$GNHDT,194.689,T*20
$PYRTM,2024,126.602181822002,17.711829232141
$GNGGA,142708.50,3401.12832300,N,11930.74191105,W,2,12,0.9,8.875,M,-37.330,M,6.4,0131*6B
$PYRTM,2024,126.602181822002,17.711829232141
$GNHDT,194.703,T*23
$PYRTM,2024,126.602187666586,17.711835076725
$GNGGA,142709.00,3401.12726177,N,11930.74225747,W,2,12,0.9,8.783,M,-37.330,M,7.0,0131*68
$PYRTM,2024,126.602187666586,17.711835076725
$GNHDT,194.823,T*2E
$PYRTM,2024,126.602193397361,17.711840807500
$GNGGA,142709.50,3401.12621861,N,11930.74259287,W,2,12,0.9,8.743,M,-37.330,M,7.4,0131*6F
$PYRTM,2024,126.602193397361,17.711840807500
$GNHDT,194.712,T*23
$PYRTM,2024,126.602199236944,17.711846647095
$GNGGA,142710.00,3401.12517789,N,11930.74292522,W,2,12,0.9,8.737,M,-37.330,M,7.0,0131*65
$PYRTM,2024,126.602199236944,17.711846647095
$GNHDT,194.675,T*23
$PYRTM,2024,126.602204982431,17.711852392569
$GNGGA,142710.50,3401.12413255,N,11930.74326210,W,2,12,0.9,8.762,M,-37.330,M,7.4,0131*6D
$PYRTM,2024,126.602204982431,17.711852392569
$GNHDT,194.866,T*2F
$PYRTM,2024,126.602210810937,17.711858221088
$GNGGA,142711.00,3401.12307849,N,11930.74360975,W,2,12,0.9,8.766,M,-37.330,M,7.0,0131*66
$PYRTM,2024,126.602210810937,17.711858221088
$GNHDT,194.643,T*26
$PYRTM,2024,126.602216544398,17.711863954537
$GNGGA,142711.50,3401.12201888,N,11930.74397477,W,2,12,0.9,8.753,M,-37.330,M,7.4,0131*6C
$PYRTM,2024,126.602216544398,17.711863954537
$GNHDT,194.708,T*28
$PYRTM,2024,126.602222386887,17.711869797025
$GNGGA,142712.00,3401.12096556,N,11930.74435039,W,2,12,0.9,8.737,M,-37.330,M,4.0,0131*6C
$PYRTM,2024,126.602222386887,17.711869797025
$GNHDT,194.882,T*25
$PYRTM,2024,126.602228120359,17.711875530509
$GNGGA,142712.50,3401.11992154,N,11930.74470141,W,2,12,0.9,8.775,M,-37.330,M,4.4,0131*6C
$PYRTM,2024,126.602228120359,17.711875530509
$GNHDT,194.589,T*23
$PYRTM,2024,126.602233959572,17.711881369711
$GNGGA,142713.00,3401.11888523,N,11930.74502974,W,2,12,0.9,8.856,M,-37.330,M,5.0,0131*67
$PYRTM,2024,126.602233959572,17.711881369711
$GNHDT,194.567,T*23
$PYRTM,2024,126.602239697303,17.711887107454
$GNGGA,142713.50,3401.11783819,N,11930.74534856,W,2,12,0.9,8.914,M,-37.330,M,5.4,0131*65
$PYRTM,2024,126.602239697303,17.711887107454
$GNHDT,194.463,T*26
$PYRTM,2024,126.602245532986,17.711892943125
$GNGGA,142714.00,3401.11677798,N,11930.74568934,W,2,12,0.9,8.898,M,-37.330,M,6.0,0131*65
$PYRTM,2024,126.602245532986,17.711892943125
$GNHDT,194.708,T*28
$PYRTM,2024,126.602251270567,17.711898680706
$GNGGA,142714.50,3401.11571675,N,11930.74604698,W,2,12,0.9,8.830,M,-37.330,M,6.4,0131*61
$PYRTM,2024,126.602251270567,17.711898680706
$GNHDT,194.595,T*2E
$PYRTM,2024,126.602257108646,17.711904518785
$GNGGA,142715.00,3401.11466290,N,11930.74640419,W,2,12,0.9,8.760,M,-37.331,M,7.0,0131*68
$PYRTM,2024,126.602257108646,17.711904518785
$GNHDT,194.616,T*26
$PYRTM,2024,126.602262840891,17.711910251030
$GNGGA,142715.50,3401.11362518,N,11930.74674680,W,2,12,0.9,8.726,M,-37.331,M,7.4,0131*6A
$PYRTM,2024,126.602262840891,17.711910251030
$GNHDT,194.599,T*22
$PYRTM,2024,126.602268683194,17.711916093333
$GNGGA,142716.00,3401.11260385,N,11930.74708223,W,2,12,0.9,8.755,M,-37.331,M,7.0,0131*6A
$PYRTM,2024,126.602268683194,17.711916093333
$GNHDT,194.473,T*27
$PYRTM,2024,126.602274421192,17.711921831331
$GNGGA,142716.50,3401.11158570,N,11930.74742150,W,2,12,0.9,8.810,M,-37.331,M,7.4,0131*68
$PYRTM,2024,126.602274421192,17.711921831331
$GNHDT,194.696,T*2E
$PYRTM,2024,126.602280255266,17.711927665405
$GNGGA,142717.00,3401.11055238,N,11930.74777892,W,2,12,0.9,8.833,M,-37.331,M,7.0,0131*6F
$PYRTM,2024,126.602280255266,17.711927665405
$GNHDT,194.825,T*28
$PYRTM,2024,126.602285989016,17.711933399155
$GNGGA,142717.50,3401.10951026,N,11930.74815386,W,2,12,0.9,8.815,M,-37.331,M,7.4,0131*6E
$PYRTM,2024,126.602285989016,17.711933399155
$GNHDT,194.664,T*23
$PYRTM,2024,126.602291831551,17.711939241690
$GNGGA,142718.00,3401.10845654,N,11930.74852140,W,2,12,0.9,8.744,M,-37.331,M,4.0,0131*64
$PYRTM,2024,126.602291831551,17.711939241690
$GNHDT,194.625,T*26
$PYRTM,2024,126.602297566806,17.711944976956
$GNGGA,142718.50,3401.10740149,N,11930.74885879,W,2,12,0.9,8.668,M,-37.331,M,4.4,0131*62
$PYRTM,2024,126.602297566806,17.711944976956
$GNHDT,194.597,T*2C
$PYRTM,2024,126.602303403275,17.711950813414
$GNGGA,142719.00,3401.10635568,N,11930.74917106,W,2,12,0.9,8.629,M,-37.331,M,5.0,0131*69
$PYRTM,2024,126.602303403275,17.711950813414
$GNHDT,194.536,T*27
$PYRTM,2024,126.602309136979,17.711956547118
$GNGGA,142719.50,3401.10531251,N,11930.74946777,W,2,12,0.9,8.638,M,-37.331,M,5.4,0131*66
$PYRTM,2024,126.602309136979,17.711956547118
$GNHDT,194.580,T*2A
$PYRTM,2024,126.602314980995,17.711962391134
$GNGGA,142720.00,3401.10426804,N,11930.74977946,W,2,12,0.9,8.656,M,-37.331,M,6.0,0131*65
$PYRTM,2024,126.602314980995,17.711962391134
$GNHDT,194.635,T*27
$PYRTM,2024,126.602320716134,17.711968126273
$GNGGA,142720.50,3401.10322039,N,11930.75012592,W,2,12,0.9,8.656,M,-37.331,M,6.4,0131*6F
$PYRTM,2024,126.602320716134,17.711968126273
$GNHDT,194.498,T*22
$PYRTM,2024,126.602326552118,17.711973962257
$GNGGA,142721.00,3401.10217502,N,11930.75050609,W,2,12,0.9,8.652,M,-37.331,M,7.0,0131*67
$PYRTM,2024,126.602326552118,17.711973962257
$GNHDT,194.498,T*22
$PYRTM,2024,126.602332286875,17.711979697014
$GNGGA,142721.50,3401.10113262,N,11930.75090446,W,2,12,0.9,8.651,M,-37.331,M,7.4,0131*66
$PYRTM,2024,126.602332286875,17.711979697014
$GNHDT,194.552,T*25
$PYRTM,2024,126.602338133310,17.711985543449
$GNGGA,142722.00,3401.10008227,N,11930.75130234,W,2,12,0.9,8.641,M,-37.331,M,7.0,0131*67
$PYRTM,2024,126.602338133310,17.711985543449
$GNHDT,194.294,T*28
$PYRTM,2024,126.602343863947,17.711991274097
$GNGGA,142722.50,3401.09903236,N,11930.75169420,W,2,12,0.9,8.648,M,-37.332,M,7.4,0131*69
$PYRTM,2024,126.602343863947,17.711991274097
$GNHDT,194.453,T*25
$PYRTM,2024,126.602349702176,17.711997112315
$GNGGA,142723.00,3401.09797970,N,11930.75205981,W,2,12,0.9,8.698,M,-37.332,M,7.0,0131*61
$PYRTM,2024,126.602349702176,17.711997112315
$GNHDT,194.261,T*22
$PYRTM,2024,126.602355436794,17.712002846933
$GNGGA,142723.50,3401.09692326,N,11930.75238416,W,2,12,0.9,8.788,M,-37.332,M,7.4,0131*60
$PYRTM,2024,126.602355436794,17.712002846933
$GNHDT,194.163,T*23
$PYRTM,2024,126.602361273519,17.712008683657
$GNGGA,142724.00,3401.09586926,N,11930.75267806,W,2,12,0.9,8.917,M,-37.332,M,4.0,0131*66
$PYRTM,2024,126.602361273519,17.712008683657
$GNHDT,194.324,T*22
$PYRTM,2024,126.602367011435,17.712014421574
$GNGGA,142724.50,3401.09482592,N,11930.75297541,W,2,12,0.9,9.047,M,-37.332,M,4.4,0131*6D
$PYRTM,2024,126.602367011435,17.712014421574
$GNHDT,194.407,T*24
$PYRTM,2024,126.602372847025,17.712020257164
$GNGGA,142725.00,3401.09378573,N,11930.75330106,W,2,12,0.9,9.139,M,-37.332,M,5.0,0131*62
$PYRTM,2024,126.602372847025,17.712020257164
$GNHDT,194.503,T*21
$PYRTM,2024,126.602378589213,17.712025999352
$GNGGA,142725.50,3401.09274136,N,11930.75366247,W,2,12,0.9,9.154,M,-37.332,M,5.4,0131*65
$PYRTM,2024,126.602378589213,17.712025999352
$GNHDT,194.551,T*26
$PYRTM,2024,126.602384424444,17.712031834583
$GNGGA,142726.00,3401.09169223,N,11930.75405311,W,2,12,0.9,9.075,M,-37.332,M,6.0,0131*6E
$PYRTM,2024,126.602384424444,17.712031834583
$GNHDT,194.616,T*26
$PYRTM,2024,126.602390161829,17.712037571979
$GNGGA,142726.50,3401.09065825,N,11930.75446302,W,2,12,0.9,8.952,M,-37.332,M,6.4,0131*66
$PYRTM,2024,126.602390161829,17.712037571979
$GNHDT,194.654,T*20
$PYRTM,2024,126.602395995949,17.712043406100
$GNGGA,142727.00,3401.08963767,N,11930.75486812,W,2,12,0.9,8.823,M,-37.332,M,7.0,0131*61
$PYRTM,2024,126.602395995949,17.712043406100
$GNHDT,194.793,T*2A
$PYRTM,2024,126.602401730394,17.712049140544
$GNGGA,142727.50,3401.08861455,N,11930.75524861,W,2,12,0.9,8.722,M,-37.332,M,7.4,0131*62
$PYRTM,2024,126.602401730394,17.712049140544
$GNHDT,194.787,T*2F
$PYRTM,2024,126.602407572546,17.712054982685
$GNGGA,142728.00,3401.08759283,N,11930.75559964,W,2,12,0.9,8.685,M,-37.332,M,7.0,0131*67
$PYRTM,2024,126.602407572546,17.712054982685
$GNHDT,194.850,T*2A
$PYRTM,2024,126.602413305694,17.712060715833
$GNGGA,142728.50,3401.08657195,N,11930.75592813,W,2,12,0.9,8.737,M,-37.332,M,7.4,0131*63
$PYRTM,2024,126.602413305694,17.712060715833
$GNHDT,194.919,T*26
$PYRTM,2024,126.602419144340,17.712066554479
$GNGGA,142729.00,3401.08554681,N,11930.75622466,W,2,12,0.9,8.830,M,-37.332,M,7.0,0131*6F
$PYRTM,2024,126.602419144340,17.712066554479
$GNHDT,194.710,T*21
$PYRTM,2024,126.602424883125,17.712072293264
$GNGGA,142729.50,3401.08450711,N,11930.75651722,W,2,12,0.9,8.911,M,-37.332,M,7.4,0131*66
$PYRTM,2024,126.602424883125,17.712072293264
$GNHDT,194.747,T*23
$PYRTM,2024,126.602430722766,17.712078132905
$GNGGA,142730.00,3401.08344702,N,11930.75683093,W,2,12,0.9,8.919,M,-37.332,M,4.0,0131*66
$PYRTM,2024,126.602430722766,17.712078132905
$GNHDT,194.815,T*2B
$PYRTM,2024,126.602436453507,17.712083863646
$GNGGA,142730.50,3401.08238752,N,11930.75719256,W,2,12,0.9,8.860,M,-37.332,M,4.4,0131*6E
$PYRTM,2024,126.602436453507,17.712083863646
$GNHDT,194.978,T*21
$PYRTM,2024,126.602442294792,17.712089704931
$GNGGA,142731.00,3401.08133968,N,11930.75758931,W,2,12,0.9,8.765,M,-37.332,M,5.0,0131*65
$PYRTM,2024,126.602442294792,17.712089704931
$GNHDT,195.002,T*24
$PYRTM,2024,126.602448026921,17.712095437072
$GNGGA,142731.50,3401.08031264,N,11930.75799943,W,2,12,0.9,8.679,M,-37.332,M,5.4,0131*64
$PYRTM,2024,126.602448026921,17.712095437072
$GNHDT,194.843,T*28
$PYRTM,2024,126.602453866725,17.712101276875
$GNGGA,142732.00,3401.07929887,N,11930.75840748,W,2,12,0.9,8.637,M,-37.332,M,6.0,0131*69
$PYRTM,2024,126.602453866725,17.712101276875
$GNHDT,194.783,T*2B
$PYRTM,2024,126.602459605370,17.712107015509
$GNGGA,142732.50,3401.07827244,N,11930.75878934,W,2,12,0.9,8.629,M,-37.333,M,6.4,0131*62
$PYRTM,2024,126.602459605370,17.712107015509
$GNHDT,194.939,T*24
$PYRTM,2024,126.602465442060,17.712112852199
$GNGGA,142733.00,3401.07722645,N,11930.75914805,W,2,12,0.9,8.620,M,-37.333,M,7.0,0131*6D
$PYRTM,2024,126.602465442060,17.712112852199
$GNHDT,195.132,T*26
$PYRTM,2024,126.602471174005,17.712118584155
$GNGGA,142733.50,3401.07616915,N,11930.75951632,W,2,12,0.9,8.604,M,-37.333,M,7.4,0131*6D
$PYRTM,2024,126.602471174005,17.712118584155
$GNHDT,195.351,T*21
$PYRTM,2024,126.602477021181,17.712124431319
$GNGGA,142734.00,3401.07511325,N,11930.75989393,W,2,12,0.9,8.590,M,-37.333,M,7.0,0131*63
$PYRTM,2024,126.602477021181,17.712124431319
$GNHDT,195.498,T*23
$PYRTM,2024,126.602482751713,17.712130161852
$GNGGA,142734.50,3401.07406173,N,11930.76026027,W,2,12,0.9,8.645,M,-37.333,M,7.4,0131*6C
$PYRTM,2024,126.602482751713,17.712130161852
$GNHDT,195.514,T*26
$PYRTM,2024,126.602488594838,17.712136004988
$GNGGA,142735.00,3401.07301525,N,11930.76061047,W,2,12,0.9,8.765,M,-37.333,M,7.0,0131*6D
$PYRTM,2024,126.602488594838,17.712136004988
$GNHDT,195.454,T*23
$PYRTM,2024,126.602494322627,17.712141732766
$GNGGA,142735.50,3401.07197092,N,11930.76096570,W,2,12,0.9,8.917,M,-37.333,M,7.4,0131*6A
$PYRTM,2024,126.602494322627,17.712141732766
$GNHDT,195.564,T*21
$PYRTM,2024,126.602500170359,17.712147580509
$GNGGA,142736.00,3401.07092492,N,11930.76134537,W,2,12,0.9,9.019,M,-37.333,M,4.0,0131*67
$PYRTM,2024,126.602500170359,17.712147580509
$GNHDT,195.720,T*23
$PYRTM,2024,126.602505897164,17.712153307303
$GNGGA,142736.50,3401.06986544,N,11930.76175327,W,2,12,0.9,9.040,M,-37.333,M,4.4,0131*6F
$PYRTM,2024,126.602505897164,17.712153307303
$GNHDT,195.572,T*26
$PYRTM,2024,126.602511740255,17.712159150394
$GNGGA,142737.00,3401.06880023,N,11930.76217449,W,2,12,0.9,8.959,M,-37.333,M,5.0,0131*65
$PYRTM,2024,126.602511740255,17.712159150394
$GNHDT,195.518,T*2A
$PYRTM,2024,126.602517481204,17.712164891343
$GNGGA,142737.50,3401.06774185,N,11930.76258901,W,2,12,0.9,8.852,M,-37.333,M,5.4,0131*6D
$PYRTM,2024,126.602517481204,17.712164891343
$GNHDT,195.625,T*27
$PYRTM,2024,126.602523312350,17.712170722488
$GNGGA,142738.00,3401.06670127,N,11930.76298021,W,2,12,0.9,8.765,M,-37.333,M,6.0,0131*61
$PYRTM,2024,126.602523312350,17.712170722488
$GNHDT,195.576,T*22
$PYRTM,2024,126.602529044190,17.712176454329
$GNGGA,142738.50,3401.06567395,N,11930.76335109,W,2,12,0.9,8.727,M,-37.333,M,6.4,0131*65
$PYRTM,2024,126.602529044190,17.712176454329
$GNHDT,195.521,T*20
$PYRTM,2024,126.602534887789,17.712182297928
$GNGGA,142739.00,3401.06464873,N,11930.76371630,W,2,12,0.9,8.723,M,-37.333,M,7.0,0131*6C
$PYRTM,2024,126.602534887789,17.712182297928
$GNHDT,195.575,T*21
$PYRTM,2024,126.602540618322,17.712188028461
$GNGGA,142739.50,3401.06361302,N,11930.76409434,W,2,12,0.9,8.714,M,-37.333,M,7.4,0131*68
$PYRTM,2024,126.602540618322,17.712188028461
$GNHDT,195.312,T*26
$PYRTM,2024,126.602546460220,17.712193870359
$GNGGA,142740.00,3401.06257748,N,11930.76448402,W,2,12,0.9,8.706,M,-37.334,M,7.0,0131*6D
$PYRTM,2024,126.602546460220,17.712193870359
$GNHDT,195.442,T*24
$PYRTM,2024,126.602552196400,17.712199606539
$GNGGA,142740.50,3401.06155558,N,11930.76487651,W,2,12,0.9,8.709,M,-37.334,M,7.4,0131*66
$PYRTM,2024,126.602552196400,17.712199606539
$GNHDT,195.578,T*2C
$PYRTM,2024,126.602558035266,17.712205445405
$GNGGA,142741.00,3401.06054503,N,11930.76527952,W,2,12,0.9,8.720,M,-37.334,M,7.0,0131*64
$PYRTM,2024,126.602558035266,17.712205445405
$GNHDT,195.493,T*28
$PYRTM,2024,126.602563774803,17.712211184942
$GNGGA,142741.50,3401.05953503,N,11930.76568906,W,2,12,0.9,8.711,M,-37.334,M,7.4,0131*60
$PYRTM,2024,126.602563774803,17.712211184942
$GNHDT,195.412,T*21
$PYRTM,2024,126.602569616296,17.712217026435
$GNGGA,142742.00,3401.05851179,N,11930.76609639,W,2,12,0.9,8.675,M,-37.334,M,4.0,0131*6F
$PYRTM,2024,126.602569616296,17.712217026435
$GNHDT,195.456,T*21
$PYRTM,2024,126.602575343206,17.712222753345
$GNGGA,142742.50,3401.05748302,N,11930.76649490,W,2,12,0.9,8.625,M,-37.334,M,4.4,0131*67
$PYRTM,2024,126.602575343206,17.712222753345
$GNHDT,195.295,T*28
$PYRTM,2024,126.602581182049,17.712228592188
$GNGGA,142743.00,3401.05645528,N,11930.76687778,W,2,12,0.9,8.592,M,-37.334,M,5.0,0131*6C
$PYRTM,2024,126.602581182049,17.712228592188
$GNHDT,195.132,T*26
$PYRTM,2024,126.602586915613,17.712234325752
$GNGGA,142743.50,3401.05542598,N,11930.76725512,W,2,12,0.9,8.565,M,-37.334,M,5.4,0131*6D
$PYRTM,2024,126.602586915613,17.712234325752
$GNHDT,195.018,T*2F
$PYRTM,2024,126.602592758102,17.712240168241
$GNGGA,142744.00,3401.05439078,N,11930.76763556,W,2,12,0.9,8.556,M,-37.334,M,6.0,0131*6C
$PYRTM,2024,126.602592758102,17.712240168241
$GNHDT,195.059,T*2A
$PYRTM,2024,126.602598489583,17.712245899722
$GNGGA,142744.50,3401.05334823,N,11930.76802070,W,2,12,0.9,8.549,M,-37.334,M,6.4,0131*66
$PYRTM,2024,126.602598489583,17.712245899722
$GNHDT,194.944,T*2E
$PYRTM,2024,126.602604329479,17.712251739618
$GNGGA,142745.00,3401.05229630,N,11930.76841325,W,2,12,0.9,8.538,M,-37.334,M,7.0,0131*64
$PYRTM,2024,126.602604329479,17.712251739618
$GNHDT,194.946,T*2C
$PYRTM,2024,126.602610063021,17.712257473160
$GNGGA,142745.50,3401.05124347,N,11930.76881676,W,2,12,0.9,8.529,M,-37.334,M,7.4,0131*61
$PYRTM,2024,126.602610063021,17.712257473160
$GNHDT,194.938,T*25
$PYRTM,2024,126.602615905799,17.712263315938
$GNGGA,142746.00,3401.05019152,N,11930.76922697,W,2,12,0.9,8.534,M,-37.334,M,7.0,0131*61
$PYRTM,2024,126.602615905799,17.712263315938
$GNHDT,194.846,T*2D
$PYRTM,2024,126.602621637674,17.712269047812
$GNGGA,142746.50,3401.04914679,N,11930.76963979,W,2,12,0.9,8.572,M,-37.334,M,7.4,0131*63
$PYRTM,2024,126.602621637674,17.712269047812
$GNHDT,194.827,T*2A
$PYRTM,2024,126.602627480799,17.712274890938
$GNGGA,142747.00,3401.04810203,N,11930.77004695,W,2,12,0.9,8.643,M,-37.334,M,7.0,0131*6A
$PYRTM,2024,126.602627480799,17.712274890938
$GNHDT,194.839,T*25
$PYRTM,2024,126.602633215880,17.712280626019
$GNGGA,142747.50,3401.04705045,N,11930.77044282,W,2,12,0.9,8.719,M,-37.334,M,7.4,0131*68
$PYRTM,2024,126.602633215880,17.712280626019
$GNHDT,194.770,T*27
$PYRTM,2024,126.602639054167,17.712286464306
$GNGGA,142748.00,3401.04598655,N,11930.77082231,W,2,12,0.9,8.772,M,-37.335,M,4.0,0131*6A
$PYRTM,2024,126.602639054167,17.712286464306
$GNHDT,194.657,T*23
$PYRTM,2024,126.602644788380,17.712292198519
$GNGGA,142748.50,3401.04491712,N,11930.77118897,W,2,12,0.9,8.788,M,-37.335,M,4.4,0131*60
$PYRTM,2024,126.602644788380,17.712292198519
$GNHDT,194.427,T*26
$PYRTM,2024,126.602650625475,17.712298035613
$GNGGA,142749.00,3401.04384345,N,11930.77155174,W,2,12,0.9,8.767,M,-37.335,M,5.0,0131*68
$PYRTM,2024,126.602650625475,17.712298035613
$GNHDT,194.242,T*23
$PYRTM,2024,126.602656365278,17.712303775417
$GNGGA,142749.50,3401.04277028,N,11930.77192531,W,2,12,0.9,8.691,M,-37.335,M,5.4,0131*6A
$PYRTM,2024,126.602656365278,17.712303775417
$GNHDT,194.460,T*25
$PYRTM,2024,126.602662205266,17.712309615405
$GNGGA,142750.00,3401.04169881,N,11930.77232073,W,2,12,0.9,8.584,M,-37.335,M,6.0,0131*6A
$PYRTM,2024,126.602662205266,17.712309615405
$GNHDT,194.478,T*2C
$PYRTM,2024,126.602667940822,17.712315350972
$GNGGA,142750.50,3401.04064184,N,11930.77273486,W,2,12,0.9,8.485,M,-37.335,M,6.4,0131*60
$PYRTM,2024,126.602667940822,17.712315350972
$GNHDT,194.421,T*20
$PYRTM,2024,126.602673786319,17.712321196458
$GNGGA,142751.00,3401.03959603,N,11930.77315686,W,2,12,0.9,8.420,M,-37.335,M,7.0,0131*65
$PYRTM,2024,126.602673786319,17.712321196458
$GNHDT,194.658,T*2C
$PYRTM,2024,126.602679510440,17.712326920579
$GNGGA,142751.50,3401.03855966,N,11930.77356455,W,2,12,0.9,8.419,M,-37.335,M,7.4,0131*64
$PYRTM,2024,126.602679510440,17.712326920579
$GNHDT,194.365,T*27
$PYRTM,2024,126.602685350880,17.712332761019
$GNGGA,142752.00,3401.03752862,N,11930.77394164,W,2,12,0.9,8.480,M,-37.335,M,7.0,0131*62
$PYRTM,2024,126.602685350880,17.712332761019
$GNHDT,194.132,T*27
$PYRTM,2024,126.602691090324,17.712338500463
$GNGGA,142752.50,3401.03649480,N,11930.77429420,W,2,12,0.9,8.587,M,-37.335,M,7.4,0131*6A
$PYRTM,2024,126.602691090324,17.712338500463
$GNHDT,194.024,T*21
$PYRTM,2024,126.602696924329,17.712344334468
$GNGGA,142753.00,3401.03544077,N,11930.77463201,W,2,12,0.9,8.647,M,-37.335,M,7.0,0131*6C
$PYRTM,2024,126.602696924329,17.712344334468
$GNHDT,193.897,T*26
$PYRTM,2024,126.602702659051,17.712350069190
$GNGGA,142753.50,3401.03436385,N,11930.77497248,W,2,12,0.9,8.628,M,-37.335,M,7.4,0131*68
$PYRTM,2024,126.602702659051,17.712350069190
$GNHDT,193.950,T*2C
$PYRTM,2024,126.602708499479,17.712355909618
$GNGGA,142754.00,3401.03327447,N,11930.77532579,W,2,12,0.9,8.496,M,-37.335,M,4.0,0131*6F
$PYRTM,2024,126.602708499479,17.712355909618
$GNHDT,193.898,T*29
$PYRTM,2024,126.602714233750,17.712361643889
$GNGGA,142754.50,3401.03220107,N,11930.77570878,W,2,12,0.9,8.340,M,-37.335,M,4.4,0131*6F
$PYRTM,2024,126.602714233750,17.712361643889
$GNHDT,193.733,T*27
$PYRTM,2024,126.602720072535,17.712367482685
$GNGGA,142755.00,3401.03115223,N,11930.77611448,W,2,12,0.9,8.232,M,-37.335,M,5.0,0131*61
$PYRTM,2024,126.602720072535,17.712367482685
$GNHDT,193.717,T*21
$PYRTM,2024,126.602725811678,17.712373221817
$GNGGA,142755.50,3401.03012901,N,11930.77652299,W,2,12,0.9,8.224,M,-37.336,M,5.4,0131*64
$PYRTM,2024,126.602725811678,17.712373221817
$GNHDT,193.973,T*2D
$PYRTM,2024,126.602731644560,17.712379054711
$GNGGA,142756.00,3401.02911596,N,11930.77692312,W,2,12,0.9,8.319,M,-37.336,M,6.0,0131*6D
$PYRTM,2024,126.602731644560,17.712379054711
$GNHDT,193.997,T*27
$PYRTM,2024,126.602737384514,17.712384794653
$GNGGA,142756.50,3401.02808921,N,11930.77729423,W,2,12,0.9,8.453,M,-37.336,M,6.4,0131*68
$PYRTM,2024,126.602737384514,17.712384794653
$GNHDT,193.711,T*27
$PYRTM,2024,126.602743223831,17.712390633981
$GNGGA,142757.00,3401.02704030,N,11930.77765056,W,2,12,0.9,8.567,M,-37.336,M,7.0,0131*6B
$PYRTM,2024,126.602743223831,17.712390633981
$GNHDT,193.590,T*2C
$PYRTM,2024,126.602748951100,17.712396361238
$GNGGA,142757.50,3401.02597876,N,11930.77800809,W,2,12,0.9,8.615,M,-37.336,M,7.4,0131*60
$PYRTM,2024,126.602748951100,17.712396361238
$GNHDT,194.099,T*27
$PYRTM,2024,126.602754794155,17.712402204294
$GNGGA,142758.00,3401.02491173,N,11930.77837084,W,2,12,0.9,8.593,M,-37.336,M,7.0,0131*61
$PYRTM,2024,126.602754794155,17.712402204294
$GNHDT,194.278,T*2A
$PYRTM,2024,126.602760535231,17.712407945370
$GNGGA,142758.50,3401.02384618,N,11930.77874434,W,2,12,0.9,8.523,M,-37.336,M,7.4,0131*6A
$PYRTM,2024,126.602760535231,17.712407945370
$GNHDT,194.541,T*27
$PYRTM,2024,126.602766368785,17.712413778924
$GNGGA,142759.00,3401.02278216,N,11930.77912363,W,2,12,0.9,8.424,M,-37.336,M,7.0,0131*60
$PYRTM,2024,126.602766368785,17.712413778924
$GNHDT,194.744,T*20
$PYRTM,2024,126.602772102060,17.712419512199
$GNGGA,142759.50,3401.02172745,N,11930.77951059,W,2,12,0.9,8.361,M,-37.336,M,7.4,0131*60
$PYRTM,2024,126.602772102060,17.712419512199
$GNHDT,194.675,T*23
$PYRTM,2024,126.602777951505,17.712425361644
$GNGGA,142800.00,3401.02068533,N,11930.77990343,W,2,12,0.9,8.349,M,-37.336,M,4.0,0131*67
$PYRTM,2024,126.602777951505,17.712425361644
$GNHDT,194.526,T*26
$PYRTM,2024,126.602783675949,17.712431086100
$GNGGA,142800.50,3401.01964873,N,11930.78030445,W,2,12,0.9,8.408,M,-37.336,M,4.4,0131*66
$PYRTM,2024,126.602783675949,17.712431086100
$GNHDT,194.883,T*24
$PYRTM,2024,126.602789520532,17.712436930671
$GNGGA,142801.00,3401.01860746,N,11930.78070174,W,2,12,0.9,8.497,M,-37.336,M,5.0,0131*6E
$PYRTM,2024,126.602789520532,17.712436930671
$GNHDT,195.238,T*2F
$PYRTM,2024,126.602795250208,17.712442660347
$GNGGA,142801.50,3401.01755215,N,11930.78109542,W,2,12,0.9,8.563,M,-37.336,M,5.4,0131*61
$PYRTM,2024,126.602795250208,17.712442660347
$GNHDT,194.982,T*24
$PYRTM,2024,126.602801088472,17.712448498623
$GNGGA,142802.00,3401.01648256,N,11930.78148699,W,2,12,0.9,8.568,M,-37.336,M,6.0,0131*61
$PYRTM,2024,126.602801088472,17.712448498623
$GNHDT,194.983,T*25
$PYRTM,2024,126.602806828009,17.712454238160
$GNGGA,142802.50,3401.01540394,N,11930.78187947,W,2,12,0.9,8.508,M,-37.336,M,6.4,0131*6D
$PYRTM,2024,126.602806828009,17.712454238160
$GNHDT,194.989,T*2F
$PYRTM,2024,126.602812666528,17.712460076667
$GNGGA,142803.00,3401.01431979,N,11930.78226430,W,2,12,0.9,8.410,M,-37.337,M,7.0,0131*6E
$PYRTM,2024,126.602812666528,17.712460076667
$GNHDT,194.928,T*24
$PYRTM,2024,126.602818400775,17.712465810914
$GNGGA,142803.50,3401.01323888,N,11930.78264657,W,2,12,0.9,8.322,M,-37.337,M,7.4,0131*67
$PYRTM,2024,126.602818400775,17.712465810914
$GNHDT,195.111,T*27
$PYRTM,2024,126.602824238403,17.712471648542
$GNGGA,142804.00,3401.01217516,N,11930.78302895,W,2,12,0.9,8.298,M,-37.337,M,7.0,0131*6C
$PYRTM,2024,126.602824238403,17.712471648542
$GNHDT,194.987,T*21
$PYRTM,2024,126.602829973148,17.712477383287
$GNGGA,142804.50,3401.01112782,N,11930.78341122,W,2,12,0.9,8.343,M,-37.337,M,7.4,0131*61
$PYRTM,2024,126.602829973148,17.712477383287
$GNHDT,194.883,T*24
$PYRTM,2024,126.602835810150,17.712483220289
$GNGGA,142805.00,3401.01008436,N,11930.78379096,W,2,12,0.9,8.435,M,-37.337,M,7.0,0131*64
$PYRTM,2024,126.602835810150,17.712483220289
$GNHDT,194.898,T*2E
$PYRTM,2024,126.602841549549,17.712488959688
$GNGGA,142805.50,3401.00903372,N,11930.78418471,W,2,12,0.9,8.495,M,-37.337,M,7.4,0131*66
$PYRTM,2024,126.602841549549,17.712488959688
$GNHDT,194.770,T*27
$PYRTM,2024,126.602847387373,17.712494797512
$GNGGA,142806.00,3401.00797368,N,11930.78459714,W,2,12,0.9,8.518,M,-37.337,M,4.0,0131*6E
$PYRTM,2024,126.602847387373,17.712494797512
$GNHDT,195.109,T*2E
$PYRTM,2024,126.602853119514,17.712500529664
$GNGGA,142806.50,3401.00692726,N,11930.78503349,W,2,12,0.9,8.520,M,-37.337,M,4.4,0131*6C
$PYRTM,2024,126.602853119514,17.712500529664
$GNHDT,195.497,T*2C
$PYRTM,2024,126.602858962118,17.712506372257
$GNGGA,142807.00,3401.00589288,N,11930.78546851,W,2,12,0.9,8.535,M,-37.337,M,5.0,0131*62
$PYRTM,2024,126.602858962118,17.712506372257
$GNHDT,195.746,T*23
$PYRTM,2024,126.602864699769,17.712512109907
$GNGGA,142807.50,3401.00486823,N,11930.78589245,W,2,12,0.9,8.570,M,-37.337,M,5.4,0131*6B
$PYRTM,2024,126.602864699769,17.712512109907
$GNHDT,195.798,T*20
$PYRTM,2024,126.602870536678,17.712517946817
$GNGGA,142808.00,3401.00385832,N,11930.78631327,W,2,12,0.9,8.642,M,-37.337,M,6.0,0131*65
$PYRTM,2024,126.602870536678,17.712517946817
$GNHDT,195.941,T*2A
$PYRTM,2024,126.602876272176,17.712523682315
$GNGGA,142808.50,3401.00286049,N,11930.78673208,W,2,12,0.9,8.746,M,-37.337,M,6.4,0131*6D
$PYRTM,2024,126.602876272176,17.712523682315
$GNHDT,196.339,T*2C
$PYRTM,2024,126.602882113252,17.712529523391
$GNGGA,142809.00,3401.00186498,N,11930.78715148,W,2,12,0.9,8.855,M,-37.337,M,7.0,0131*6C
$PYRTM,2024,126.602882113252,17.712529523391
$GNHDT,196.880,T*25
$PYRTM,2024,126.602887842847,17.712535252986
$GNGGA,142809.50,3401.00085453,N,11930.78757388,W,2,12,0.9,8.909,M,-37.337,M,7.4,0131*68
$PYRTM,2024,126.602887842847,17.712535252986
$GNHDT,197.075,T*26
$PYRTM,2024,126.602893681991,17.712541092130
$GNGGA,142810.00,3400.99983041,N,11930.78800726,W,2,12,0.9,8.889,M,-37.337,M,7.0,0131*6C
$PYRTM,2024,126.602893681991,17.712541092130
$GNHDT,197.538,T*2A
$PYRTM,2024,126.602899415313,17.712546825463
$GNGGA,142810.50,3400.99880839,N,11930.78844658,W,2,12,0.9,8.819,M,-37.338,M,7.4,0131*66
$PYRTM,2024,126.602899415313,17.712546825463
$GNHDT,197.887,T*23
$PYRTM,2024,126.602905256748,17.712552666887
$GNGGA,142811.00,3400.99778491,N,11930.78889030,W,2,12,0.9,8.716,M,-37.338,M,7.0,0131*69
$PYRTM,2024,126.602905256748,17.712552666887
$GNHDT,198.285,T*24
$PYRTM,2024,126.602910993646,17.712558403785
$GNGGA,142811.50,3400.99675633,N,11930.78934627,W,2,12,0.9,8.592,M,-37.338,M,7.4,0131*67
$PYRTM,2024,126.602910993646,17.712558403785
$GNHDT,198.658,T*20
$PYRTM,2024,126.602916834606,17.712564244745
$GNGGA,142812.00,3400.99571675,N,11930.78980376,W,2,12,0.9,8.466,M,-37.338,M,4.0,0131*67
$PYRTM,2024,126.602916834606,17.712564244745
$GNHDT,198.777,T*2C
$PYRTM,2024,126.602922571308,17.712569981447
$GNGGA,142812.50,3400.99467599,N,11930.79027136,W,2,12,0.9,8.365,M,-37.338,M,4.4,0131*66
$PYRTM,2024,126.602922571308,17.712569981447
$GNHDT,199.029,T*21
$PYRTM,2024,126.602928407662,17.712575817812
$GNGGA,142813.00,3400.99363978,N,11930.79074354,W,2,12,0.9,8.334,M,-37.338,M,5.0,0131*63
$PYRTM,2024,126.602928407662,17.712575817812
$GNHDT,199.184,T*27
$PYRTM,2024,126.602934142778,17.712581552928
$GNGGA,142813.50,3400.99260181,N,11930.79120311,W,2,12,0.9,8.359,M,-37.338,M,5.4,0131*64
$PYRTM,2024,126.602934142778,17.712581552928
$GNHDT,199.647,T*2F
$PYRTM,2024,126.602939984352,17.712587394491
$GNGGA,142814.00,3400.99156308,N,11930.79166339,W,2,12,0.9,8.435,M,-37.338,M,6.0,0131*61
$PYRTM,2024,126.602939984352,17.712587394491
$GNHDT,199.663,T*29
$PYRTM,2024,126.602945716644,17.712593126782
$GNGGA,142814.50,3400.99052384,N,11930.79213945,W,2,12,0.9,8.513,M,-37.338,M,6.4,0131*64
$PYRTM,2024,126.602945716644,17.712593126782
$GNHDT,200.298,T*2A
$PYRTM,2024,126.602951554757,17.712598964896
$GNGGA,142815.00,3400.98946740,N,11930.79261353,W,2,12,0.9,8.551,M,-37.338,M,7.0,0131*6A
$PYRTM,2024,126.602951554757,17.712598964896
$GNHDT,200.468,T*23
$PYRTM,2024,126.602957284792,17.712604694931
$GNGGA,142815.50,3400.98841653,N,11930.79310916,W,2,12,0.9,8.540,M,-37.338,M,7.4,0131*62
$PYRTM,2024,126.602957284792,17.712604694931
$GNHDT,200.667,T*2E
$PYRTM,2024,126.602963125891,17.712610536030
$GNGGA,142816.00,3400.98738004,N,11930.79363561,W,2,12,0.9,8.489,M,-37.338,M,7.0,0131*69
$PYRTM,2024,126.602963125891,17.712610536030
$GNHDT,201.068,T*26
$PYRTM,2024,126.602968861539,17.712616271678
$GNGGA,142816.50,3400.98635055,N,11930.79416100,W,2,12,0.9,8.421,M,-37.338,M,7.4,0131*64
$PYRTM,2024,126.602968861539,17.712616271678
$GNHDT,201.439,T*26
$PYRTM,2024,126.602974701238,17.712622111377
$GNGGA,142817.00,3400.98533624,N,11930.79468592,W,2,12,0.9,8.376,M,-37.338,M,7.0,0131*62
$PYRTM,2024,126.602974701238,17.712622111377
$GNHDT,201.621,T*2D
$PYRTM,2024,126.602980445405,17.712627855544
$GNGGA,142817.50,3400.98433878,N,11930.79520970,W,2,12,0.9,8.391,M,-37.338,M,7.4,0131*61
$PYRTM,2024,126.602980445405,17.712627855544
$GNHDT,201.791,T*27
$PYRTM,2024,126.602986278576,17.712633688715
$GNGGA,142818.00,3400.98334660,N,11930.79573590,W,2,12,0.9,8.444,M,-37.339,M,4.0,0131*61
$PYRTM,2024,126.602986278576,17.712633688715
$GNHDT,202.058,T*26
$PYRTM,2024,126.602992009248,17.712639419387
$GNGGA,142818.50,3400.98235377,N,11930.79626420,W,2,12,0.9,8.520,M,-37.339,M,4.4,0131*69
$PYRTM,2024,126.602992009248,17.712639419387
$GNHDT,202.425,T*28
$PYRTM,2024,126.602997852986,17.712645263125
$GNGGA,142819.00,3400.98134879,N,11930.79680325,W,2,12,0.9,8.578,M,-37.339,M,5.0,0131*6C
$PYRTM,2024,126.602997852986,17.712645263125
$GNHDT,202.703,T*2F
$PYRTM,2024,126.603003586806,17.712650996944
$GNGGA,142819.50,3400.98034550,N,11930.79736181,W,2,12,0.9,8.613,M,-37.339,M,5.4,0131*64
$PYRTM,2024,126.603003586806,17.712650996944
$GNHDT,202.983,T*29
$PYRTM,2024,126.603009425116,17.712656835255
$GNGGA,142820.00,3400.97934425,N,11930.79791955,W,2,12,0.9,8.628,M,-37.339,M,6.0,0131*6D
$PYRTM,2024,126.603009425116,17.712656835255
$GNHDT,202.979,T*2C
$PYRTM,2024,126.603015169074,17.712662579213
$GNGGA,142820.50,3400.97835016,N,11930.79847645,W,2,12,0.9,8.641,M,-37.339,M,6.4,0131*6D
$PYRTM,2024,126.603015169074,17.712662579213
$GNHDT,203.485,T*23
$PYRTM,2024,126.603021000648,17.712668410787
$GNGGA,142821.00,3400.97736513,N,11930.79902623,W,2,12,0.9,8.664,M,-37.339,M,7.0,0131*67
$PYRTM,2024,126.603021000648,17.712668410787
$GNHDT,203.583,T*24
$PYRTM,2024,126.603026729699,17.712674139838
$GNGGA,142821.50,3400.97638715,N,11930.79956631,W,2,12,0.9,8.732,M,-37.339,M,7.4,0131*6D
$PYRTM,2024,126.603026729699,17.712674139838
$GNHDT,203.790,T*24
$PYRTM,2024,126.603032573785,17.712679983924
$GNGGA,142822.00,3400.97540522,N,11930.80011516,W,2,12,0.9,8.775,M,-37.339,M,7.0,0131*6C
$PYRTM,2024,126.603032573785,17.712679983924
$GNHDT,203.784,T*21
$PYRTM,2024,126.603038310394,17.712685720532
$GNGGA,142822.50,3400.97440405,N,11930.80069560,W,2,12,0.9,8.747,M,-37.339,M,7.4,0131*67
$PYRTM,2024,126.603038310394,17.712685720532
$GNHDT,204.014,T*28
$PYRTM,2024,126.603044147928,17.712691558067
$GNGGA,142823.00,3400.97338688,N,11930.80130465,W,2,12,0.9,8.611,M,-37.339,M,7.0,0131*63
$PYRTM,2024,126.603044147928,17.712691558067
$GNHDT,204.186,T*22
$PYRTM,2024,126.603049892153,17.712697302303
$GNGGA,142823.50,3400.97237977,N,11930.80191958,W,2,12,0.9,8.471,M,-37.339,M,7.4,0131*6F
$PYRTM,2024,126.603049892153,17.712697302303
$GNHDT,204.291,T*27
$PYRTM,2024,126.603055723299,17.712703133438
$GNGGA,142824.00,3400.97139654,N,11930.80252414,W,2,12,0.9,8.399,M,-37.339,M,4.0,0131*61
$PYRTM,2024,126.603055723299,17.712703133438
$GNHDT,204.349,T*23
$PYRTM,2024,126.603061457164,17.712708867303
$GNGGA,142824.50,3400.97042417,N,11930.80311840,W,2,12,0.9,8.417,M,-37.339,M,4.4,0131*62
$PYRTM,2024,126.603061457164,17.712708867303
$GNHDT,204.293,T*25
$PYRTM,2024,126.603067293611,17.712714703750
$GNGGA,142825.00,3400.96944295,N,11930.80371010,W,2,12,0.9,8.473,M,-37.339,M,5.0,0131*68
$PYRTM,2024,126.603067293611,17.712714703750
$GNHDT,204.161,T*2B
$PYRTM,2024,126.603073058715,17.712720468866
$GNGGA,142825.50,3400.96844152,N,11930.80430699,W,2,12,0.9,8.503,M,-37.339,M,5.4,0131*63
$PYRTM,2024,126.603073058715,17.712720468866
$GNHDT,204.149,T*21
$PYRTM,2024,126.603078872350,17.712726282488
$GNGGA,142826.00,3400.96741766,N,11930.80491735,W,2,12,0.9,8.491,M,-37.340,M,6.0,0131*61
$PYRTM,2024,126.603078872350,17.712726282488
$GNHDT,204.265,T*2C
$PYRTM,2024,126.603084601794,17.712732011933
$GNGGA,142826.50,3400.96638638,N,11930.80553141,W,2,12,0.9,8.437,M,-37.340,M,6.4,0131*63
$PYRTM,2024,126.603084601794,17.712732011933
$GNHDT,204.423,T*28
$PYRTM,2024,126.603090442350,17.712737852488
$GNGGA,142827.00,3400.96536871,N,11930.80614249,W,2,12,0.9,8.395,M,-37.340,M,7.0,0131*68
$PYRTM,2024,126.603090442350,17.712737852488
$GNHDT,204.227,T*2A
$PYRTM,2024,126.603096179653,17.712743589803
$GNGGA,142827.50,3400.96438032,N,11930.80674513,W,2,12,0.9,8.434,M,-37.340,M,7.4,0131*6B
$PYRTM,2024,126.603096179653,17.712743589803
$GNHDT,204.241,T*2A
$PYRTM,2024,126.603102021759,17.712749431898
$GNGGA,142828.00,3400.96341375,N,11930.80734158,W,2,12,0.9,8.526,M,-37.340,M,7.0,0131*60
$PYRTM,2024,126.603102021759,17.712749431898
$GNHDT,204.196,T*23
$PYRTM,2024,126.603107751736,17.712755161875
$GNGGA,142828.50,3400.96245560,N,11930.80794684,W,2,12,0.9,8.639,M,-37.340,M,7.4,0131*67
$PYRTM,2024,126.603107751736,17.712755161875
$GNHDT,204.047,T*2E
$PYRTM,2024,126.603113591840,17.712761001979
$GNGGA,142829.00,3400.96148855,N,11930.80857377,W,2,12,0.9,8.697,M,-37.340,M,7.0,0131*6F
$PYRTM,2024,126.603113591840,17.712761001979
$GNHDT,204.101,T*2D
$PYRTM,2024,126.603119322650,17.712766732789
$GNGGA,142829.50,3400.96050397,N,11930.80921293,W,2,12,0.9,8.671,M,-37.340,M,7.4,0131*60
$PYRTM,2024,126.603119322650,17.712766732789
$GNHDT,204.187,T*23
$PYRTM,2024,126.603125170417,17.712772580556
$GNGGA,142830.00,3400.95950787,N,11930.80986303,W,2,12,0.9,8.547,M,-37.340,M,4.0,0131*66
$PYRTM,2024,126.603125170417,17.712772580556
$GNHDT,204.129,T*27
$PYRTM,2024,126.603130896979,17.712778307130
$GNGGA,142830.50,3400.95851622,N,11930.81051500,W,2,12,0.9,8.412,M,-37.340,M,4.4,0131*6F
$PYRTM,2024,126.603130896979,17.712778307130
$GNHDT,204.215,T*2B
$PYRTM,2024,126.603136739734,17.712784149873
$GNGGA,142831.00,3400.95752843,N,11930.81113897,W,2,12,0.9,8.329,M,-37.340,M,5.0,0131*60
$PYRTM,2024,126.603136739734,17.712784149873
$GNHDT,204.067,T*2C
$PYRTM,2024,126.603142472917,17.712789883067
$GNGGA,142831.50,3400.95654953,N,11930.81173651,W,2,12,0.9,8.327,M,-37.340,M,5.4,0131*6A
$PYRTM,2024,126.603142472917,17.712789883067
$GNHDT,203.978,T*2C
$PYRTM,2024,126.603148316829,17.712795726979
$GNGGA,142832.00,3400.95557816,N,11930.81231986,W,2,12,0.9,8.420,M,-37.340,M,6.0,0131*6B
$PYRTM,2024,126.603148316829,17.712795726979
$GNHDT,204.057,T*2F
$PYRTM,2024,126.603154050417,17.712801460567
$GNGGA,142832.50,3400.95460338,N,11930.81291013,W,2,12,0.9,8.546,M,-37.340,M,6.4,0131*66
$PYRTM,2024,126.603154050417,17.712801460567
$GNHDT,204.079,T*23
$PYRTM,2024,126.603159887905,17.712807298252
$GNGGA,142833.00,3400.95360912,N,11930.81351482,W,2,12,0.9,8.626,M,-37.340,M,7.0,0131*66
$PYRTM,2024,126.603159887905,17.712807298252
$GNHDT,204.116,T*2B
$PYRTM,2024,126.603165621840,17.712813031979
$GNGGA,142833.50,3400.95260588,N,11930.81415115,W,2,12,0.9,8.629,M,-37.340,M,7.4,0131*6A
$PYRTM,2024,126.603165621840,17.712813031979
$GNHDT,204.014,T*28
$PYRTM,2024,126.603171464653,17.712818874792
$GNGGA,142834.00,3400.95159583,N,11930.81479849,W,2,12,0.9,8.569,M,-37.341,M,7.0,0131*62
$PYRTM,2024,126.603171464653,17.712818874792
$GNHDT,203.800,T*22
$PYRTM,2024,126.603177197558,17.712824607708
$GNGGA,142834.50,3400.95058421,N,11930.81543308,W,2,12,0.9,8.493,M,-37.341,M,7.4,0131*68
$PYRTM,2024,126.603177197558,17.712824607708
$GNHDT,203.772,T*28
$PYRTM,2024,126.603183034271,17.712830444410
$GNGGA,142835.00,3400.94957270,N,11930.81604369,W,2,12,0.9,8.450,M,-37.341,M,7.0,0131*65
$PYRTM,2024,126.603183034271,17.712830444410
$GNHDT,203.535,T*29
$PYRTM,2024,126.603188771100,17.712836181250
$GNGGA,142835.50,3400.94856586,N,11930.81664799,W,2,12,0.9,8.453,M,-37.341,M,7.4,0131*64
$PYRTM,2024,126.603188771100,17.712836181250
$GNHDT,203.527,T*2A
$PYRTM,2024,126.603194609491,17.712842019641
$GNGGA,142836.00,3400.94756302,N,11930.81727397,W,2,12,0.9,8.483,M,-37.341,M,4.0,0131*61
$PYRTM,2024,126.603194609491,17.712842019641
$GNHDT,203.525,T*28
$PYRTM,2024,126.603200345440,17.712847755579
$GNGGA,142836.50,3400.94655482,N,11930.81792124,W,2,12,0.9,8.488,M,-37.341,M,4.4,0131*62
$PYRTM,2024,126.603200345440,17.712847755579
$GNHDT,203.575,T*2D
$PYRTM,2024,126.603206181157,17.712853591296
$GNGGA,142837.00,3400.94555781,N,11930.81861776,W,2,12,0.9,8.461,M,-37.341,M,5.0,0131*65
$PYRTM,2024,126.603206181157,17.712853591296
$GNHDT,203.549,T*22
$PYRTM,2024,126.603211921181,17.712859331331
$GNGGA,142837.50,3400.94455674,N,11930.81927162,W,2,12,0.9,8.460,M,-37.341,M,5.4,0131*6F
$PYRTM,2024,126.603211921181,17.712859331331
$GNHDT,203.645,T*2D
$PYRTM,2024,126.603217763657,17.712865173796
$GNGGA,142838.00,3400.94358332,N,11930.81994005,W,2,12,0.9,8.480,M,-37.341,M,6.0,0131*69
$PYRTM,2024,126.603217763657,17.712865173796
$GNHDT,203.570,T*28
$PYRTM,2024,126.603223490058,17.712870900197
$GNGGA,142838.50,3400.94260977,N,11930.82059242,W,2,12,0.9,8.512,M,-37.341,M,6.4,0131*69
$PYRTM,2024,126.603223490058,17.712870900197
$GNHDT,203.503,T*2C
$PYRTM,2024,126.603229332037,17.712876742176
$GNGGA,142839.00,3400.94164470,N,11930.82126348,W,2,12,0.9,8.555,M,-37.341,M,7.0,0131*64
$PYRTM,2024,126.603229332037,17.712876742176
$GNHDT,203.310,T*28
$PYRTM,2024,126.603235068970,17.712882479120
$GNGGA,142839.50,3400.94066864,N,11930.82191374,W,2,12,0.9,8.590,M,-37.341,M,7.4,0131*65
$PYRTM,2024,126.603235068970,17.712882479120
$GNHDT,203.725,T*2A
$PYRTM,2024,126.603240907616,17.712888317755
$GNGGA,142840.00,3400.93968105,N,11930.82255090,W,2,12,0.9,8.587,M,-37.341,M,7.0,0131*60
$PYRTM,2024,126.603240907616,17.712888317755
$GNHDT,204.310,T*2F
$PYRTM,2024,126.603246642917,17.712894053056
$GNGGA,142840.50,3400.93867812,N,11930.82316440,W,2,12,0.9,8.536,M,-37.341,M,7.4,0131*65
$PYRTM,2024,126.603246642917,17.712894053056
$GNHDT,203.722,T*2D
$PYRTM,2024,126.603252481366,17.712899891505
$GNGGA,142841.00,3400.93767512,N,11930.82377772,W,2,12,0.9,8.443,M,-37.341,M,7.0,0131*61
$PYRTM,2024,126.603252481366,17.712899891505
$GNHDT,203.794,T*20
$PYRTM,2024,126.603258212176,17.712905622315
$GNGGA,142841.50,3400.93667665,N,11930.82437788,W,2,12,0.9,8.355,M,-37.341,M,7.4,0131*64
$PYRTM,2024,126.603258212176,17.712905622315
$GNHDT,203.891,T*2A
$PYRTM,2024,126.603264065278,17.712911475417
$GNGGA,142842.00,3400.93568276,N,11930.82497486,W,2,12,0.9,8.286,M,-37.342,M,4.0,0131*64
$PYRTM,2024,126.603264065278,17.712911475417
$GNHDT,204.104,T*28
$PYRTM,2024,126.603269788634,17.712917198773
$GNGGA,142842.50,3400.93470707,N,11930.82559082,W,2,12,0.9,8.261,M,-37.342,M,4.4,0131*64
$PYRTM,2024,126.603269788634,17.712917198773
$GNHDT,204.334,T*29
$PYRTM,2024,126.603275627940,17.712923038079
$GNGGA,142843.00,3400.93374827,N,11930.82622152,W,2,12,0.9,8.288,M,-37.342,M,5.0,0131*6F
$PYRTM,2024,126.603275627940,17.712923038079
$GNHDT,204.445,T*28
$PYRTM,2024,126.603281360278,17.712928770428
$GNGGA,142843.50,3400.93278401,N,11930.82685390,W,2,12,0.9,8.338,M,-37.342,M,5.4,0131*60
$PYRTM,2024,126.603281360278,17.712928770428
$GNHDT,204.543,T*2F
$PYRTM,2024,126.603287207164,17.712934617315
$GNGGA,142844.00,3400.93179938,N,11930.82749037,W,2,12,0.9,8.362,M,-37.342,M,6.0,0131*60
$PYRTM,2024,126.603287207164,17.712934617315
$GNHDT,204.639,T*21
$PYRTM,2024,126.603292942894,17.712940353032
$GNGGA,142844.50,3400.93081122,N,11930.82815236,W,2,12,0.9,8.359,M,-37.342,M,6.4,0131*69
$PYRTM,2024,126.603292942894,17.712940353032
$GNHDT,204.935,T*22
$PYRTM,2024,126.603298777975,17.712946188113
$GNGGA,142845.00,3400.92979989,N,11930.82879192,W,2,12,0.9,8.319,M,-37.342,M,7.0,0131*6D
$PYRTM,2024,126.603298777975,17.712946188113
$GNHDT,205.208,T*26
$PYRTM,2024,126.603304511782,17.712951921921
$GNGGA,142845.50,3400.92880251,N,11930.82944560,W,2,12,0.9,8.293,M,-37.342,M,7.4,0131*60
$PYRTM,2024,126.603304511782,17.712951921921
$GNHDT,205.121,T*2E
$PYRTM,2024,126.603310350301,17.712957760440
$GNGGA,142846.00,3400.92783591,N,11930.83012136,W,2,12,0.9,8.347,M,-37.342,M,7.0,0131*61
$PYRTM,2024,126.603310350301,17.712957760440
$GNHDT,205.359,T*23
$PYRTM,2024,126.603316087500,17.712963497650
$GNGGA,142846.50,3400.92686847,N,11930.83077709,W,2,12,0.9,8.444,M,-37.342,M,7.4,0131*6F
$PYRTM,2024,126.603316087500,17.712963497650
$GNHDT,205.428,T*22
$PYRTM,2024,126.603321928449,17.712969338588
$GNGGA,142847.00,3400.92590020,N,11930.83141181,W,2,12,0.9,8.593,M,-37.342,M,7.0,0131*6B
$PYRTM,2024,126.603321928449,17.712969338588
$GNHDT,205.565,T*2A
$PYRTM,2024,126.603327660093,17.712975070231
$GNGGA,142847.50,3400.92490965,N,11930.83202624,W,2,12,0.9,8.706,M,-37.342,M,7.4,0131*61
$PYRTM,2024,126.603327660093,17.712975070231
$GNHDT,205.507,T*2E
$PYRTM,2024,126.603333503704,17.712980913843
$GNGGA,142848.00,3400.92389716,N,11930.83263485,W,2,12,0.9,8.750,M,-37.342,M,4.0,0131*64
$PYRTM,2024,126.603333503704,17.712980913843
$GNHDT,205.502,T*2B
$PYRTM,2024,126.603339230440,17.712986640579
$GNGGA,142848.50,3400.92289085,N,11930.83328455,W,2,12,0.9,8.720,M,-37.342,M,4.4,0131*6D
$PYRTM,2024,126.603339230440,17.712986640579
$GNHDT,205.586,T*27
$PYRTM,2024,126.603345073206,17.712992483345
$GNGGA,142849.00,3400.92190173,N,11930.83396474,W,2,12,0.9,8.658,M,-37.342,M,5.0,0131*67
$PYRTM,2024,126.603345073206,17.712992483345
$GNHDT,205.478,T*27
$PYRTM,2024,126.603350807118,17.712998217257
$GNGGA,142849.50,3400.92092073,N,11930.83465231,W,2,12,0.9,8.575,M,-37.342,M,5.4,0131*64
$PYRTM,2024,126.603350807118,17.712998217257
$GNHDT,205.579,T*27
$PYRTM,2024,126.603356648808,17.713004058947
$GNGGA,142850.00,3400.91994545,N,11930.83534107,W,2,12,0.9,8.511,M,-37.343,M,6.0,0131*62
$PYRTM,2024,126.603356648808,17.713004058947
$GNHDT,205.519,T*21
$PYRTM,2024,126.603362387998,17.713009798137
$GNGGA,142850.50,3400.91896782,N,11930.83601982,W,2,12,0.9,8.457,M,-37.343,M,6.4,0131*6A
$PYRTM,2024,126.603362387998,17.713009798137
$GNHDT,205.452,T*2F
$PYRTM,2024,126.603368221493,17.713015631632
$GNGGA,142851.00,3400.91796933,N,11930.83666548,W,2,12,0.9,8.436,M,-37.343,M,7.0,0131*6C
$PYRTM,2024,126.603368221493,17.713015631632
$GNHDT,205.498,T*29
$PYRTM,2024,126.603373952442,17.713021362581
$GNGGA,142851.50,3400.91698753,N,11930.83733295,W,2,12,0.9,8.471,M,-37.343,M,7.4,0131*6F
$PYRTM,2024,126.603373952442,17.713021362581
$GNHDT,205.770,T*2C
$PYRTM,2024,126.603379793866,17.713027204005
$GNGGA,142852.00,3400.91600333,N,11930.83799307,W,2,12,0.9,8.558,M,-37.343,M,7.0,0131*6E
$PYRTM,2024,126.603379793866,17.713027204005
$GNHDT,205.774,T*28
$PYRTM,2024,126.603385530683,17.713032940822
$GNGGA,142852.50,3400.91501236,N,11930.83864375,W,2,12,0.9,8.662,M,-37.343,M,7.4,0131*6B
$PYRTM,2024,126.603385530683,17.713032940822
$GNHDT,205.699,T*2A
$PYRTM,2024,126.603391369641,17.713038779780
$GNGGA,142853.00,3400.91401478,N,11930.83928845,W,2,12,0.9,8.781,M,-37.343,M,7.0,0131*6B
$PYRTM,2024,126.603391369641,17.713038779780
$GNHDT,205.717,T*2D
$PYRTM,2024,126.603397103403,17.713044513553
$GNGGA,142853.50,3400.91300974,N,11930.83994178,W,2,12,0.9,8.854,M,-37.343,M,7.4,0131*6A
$PYRTM,2024,126.603397103403,17.713044513553
$GNHDT,205.794,T*26
$PYRTM,2024,126.603402946319,17.713050356458
$GNGGA,142854.00,3400.91200242,N,11930.84062228,W,2,12,0.9,8.884,M,-37.343,M,4.0,0131*6C
$PYRTM,2024,126.603402946319,17.713050356458
$GNHDT,205.735,T*2D
$PYRTM,2024,126.603408675220,17.713056085359
$GNGGA,142854.50,3400.91099563,N,11930.84131495,W,2,12,0.9,8.854,M,-37.343,M,4.4,0131*61
$PYRTM,2024,126.603408675220,17.713056085359
$GNHDT,206.020,T*2D
$PYRTM,2024,126.603414514479,17.713061924618
$GNGGA,142855.00,3400.91000157,N,11930.84201652,W,2,12,0.9,8.835,M,-37.343,M,5.0,0131*6D
$PYRTM,2024,126.603414514479,17.713061924618
$GNHDT,206.001,T*2E
$PYRTM,2024,126.603420253264,17.713067663414
$GNGGA,142855.50,3400.90901573,N,11930.84270268,W,2,12,0.9,8.831,M,-37.343,M,5.4,0131*68
$PYRTM,2024,126.603420253264,17.713067663414
$GNHDT,205.830,T*27
$PYRTM,2024,126.603426093090,17.713073503229
$GNGGA,142856.00,3400.90803699,N,11930.84337760,W,2,12,0.9,8.871,M,-37.343,M,6.0,0131*66
$PYRTM,2024,126.603426093090,17.713073503229
$GNHDT,205.766,T*2B
$PYRTM,2024,126.603431826979,17.713079237118
$GNGGA,142856.50,3400.90705436,N,11930.84404011,W,2,12,0.9,8.922,M,-37.343,M,6.4,0131*68
$PYRTM,2024,126.603431826979,17.713079237118
$GNHDT,205.753,T*2D
$PYRTM,2024,126.603437663715,17.713085073854
$GNGGA,142857.00,3400.90605837,N,11930.84470160,W,2,12,0.9,8.959,M,-37.343,M,7.0,0131*6D
$PYRTM,2024,126.603437663715,17.713085073854
$GNHDT,205.811,T*24
$PYRTM,2024,126.603443398148,17.713090808287
$GNGGA,142857.50,3400.90506993,N,11930.84538463,W,2,12,0.9,8.985,M,-37.343,M,7.4,0131*69
$PYRTM,2024,126.603443398148,17.713090808287
$GNHDT,205.758,T*26
$PYRTM,2024,126.603449239618,17.713096649757
$GNGGA,142858.00,3400.90408126,N,11930.84607986,W,2,12,0.9,8.999,M,-37.344,M,7.0,0131*6D
$PYRTM,2024,126.603449239618,17.713096649757
$GNHDT,205.791,T*23
$PYRTM,2024,126.603454974606,17.713102384745
$GNGGA,142858.50,3400.90309274,N,11930.84676211,W,2,12,0.9,9.007,M,-37.344,M,7.4,0131*62
$PYRTM,2024,126.603454974606,17.713102384745
$GNHDT,205.964,T*27
$PYRTM,2024,126.603460814676,17.713108224815
$GNGGA,142859.00,3400.90211670,N,11930.84742911,W,2,12,0.9,9.045,M,-37.344,M,7.0,0131*61
$PYRTM,2024,126.603460814676,17.713108224815
$GNHDT,205.856,T*27
$PYRTM,2024,126.603466549803,17.713113959942
$GNGGA,142859.50,3400.90114774,N,11930.84808667,W,2,12,0.9,9.113,M,-37.344,M,7.4,0131*6E
$PYRTM,2024,126.603466549803,17.713113959942
$GNHDT,205.797,T*25
$PYRTM,2024,126.603472391597,17.713119801736
$GNGGA,142900.00,3400.90017904,N,11930.84875620,W,2,12,0.9,9.171,M,-37.344,M,4.0,0131*67
$PYRTM,2024,126.603472391597,17.713119801736
$GNHDT,205.762,T*2F
$PYRTM,2024,126.603478118669,17.713125528808
$GNGGA,142900.50,3400.89920208,N,11930.84945310,W,2,12,0.9,9.177,M,-37.344,M,4.4,0131*66
$PYRTM,2024,126.603478118669,17.713125528808
$GNHDT,205.828,T*2E
$PYRTM,2024,126.603483959132,17.713131369282
$GNGGA,142901.00,3400.89822821,N,11930.85017267,W,2,12,0.9,9.134,M,-37.344,M,5.0,0131*6C
$PYRTM,2024,126.603483959132,17.713131369282
$GNHDT,205.862,T*20
$PYRTM,2024,126.603489699155,17.713137109306
$GNGGA,142901.50,3400.89725991,N,11930.85088365,W,2,12,0.9,9.092,M,-37.344,M,5.4,0131*67
$PYRTM,2024,126.603489699155,17.713137109306
$GNHDT,205.752,T*2C
$PYRTM,2024,126.603495536285,17.713142946424
$GNGGA,142902.00,3400.89628932,N,11930.85157719,W,2,12,0.9,9.036,M,-37.344,M,6.0,0131*61
$PYRTM,2024,126.603495536285,17.713142946424
$GNHDT,205.555,T*29
$PYRTM,2024,126.603501267292,17.713148677431
$GNGGA,142902.50,3400.89530591,N,11930.85224697,W,2,12,0.9,8.990,M,-37.344,M,6.4,0131*6B
$PYRTM,2024,126.603501267292,17.713148677431
$GNHDT,205.440,T*2C
$PYRTM,2024,126.603507111088,17.713154521227
$GNGGA,142903.00,3400.89429898,N,11930.85290280,W,2,12,0.9,8.918,M,-37.344,M,7.0,0131*6A
$PYRTM,2024,126.603507111088,17.713154521227
$GNHDT,205.413,T*2A
$PYRTM,2024,126.603512850243,17.713160260382
$GNGGA,142903.50,3400.89328883,N,11930.85356422,W,2,12,0.9,8.859,M,-37.344,M,7.4,0131*66
$PYRTM,2024,126.603512850243,17.713160260382
$GNHDT,205.468,T*26
$PYRTM,2024,126.603518686227,17.713166096366
$GNGGA,142904.00,3400.89229557,N,11930.85424786,W,2,12,0.9,8.830,M,-37.344,M,7.0,0131*64
$PYRTM,2024,126.603518686227,17.713166096366
$GNHDT,205.359,T*23
$PYRTM,2024,126.603524418993,17.713171829132
$GNGGA,142904.50,3400.89130160,N,11930.85492032,W,2,12,0.9,8.822,M,-37.344,M,7.4,0131*68
$PYRTM,2024,126.603524418993,17.713171829132
$GNHDT,205.232,T*2F
$PYRTM,2024,126.603530258449,17.713177668588
$GNGGA,142905.00,3400.89030290,N,11930.85557963,W,2,12,0.9,8.828,M,-37.344,M,7.0,0131*6A
$PYRTM,2024,126.603530258449,17.713177668588
$GNHDT,205.234,T*29
$PYRTM,2024,126.603535993750,17.713183403900
$GNGGA,142905.50,3400.88930147,N,11930.85623943,W,2,12,0.9,8.860,M,-37.344,M,7.4,0131*64
$PYRTM,2024,126.603535993750,17.713183403900
$GNHDT,205.094,T*21
$PYRTM,2024,126.603541830995,17.713189241146
$GNGGA,142906.00,3400.88828533,N,11930.85689050,W,2,12,0.9,8.865,M,-37.344,M,4.0,0131*64
$PYRTM,2024,126.603541830995,17.713189241146
$GNHDT,204.933,T*24
$PYRTM,2024,126.603547563762,17.713194973900
$GNGGA,142906.50,3400.88727178,N,11930.85755478,W,2,12,0.9,8.844,M,-37.344,M,4.4,0131*63
$PYRTM,2024,126.603547563762,17.713194973900
$GNHDT,205.062,T*28
$PYRTM,2024,126.603553407431,17.713200817569
$GNGGA,142907.00,3400.88625808,N,11930.85822560,W,2,12,0.9,8.789,M,-37.344,M,5.0,0131*66
$PYRTM,2024,126.603553407431,17.713200817569
$GNHDT,205.076,T*2D
$PYRTM,2024,126.603559141875,17.713206552025
$GNGGA,142907.50,3400.88525811,N,11930.85891638,W,2,12,0.9,8.729,M,-37.344,M,5.4,0131*60
$PYRTM,2024,126.603559141875,17.713206552025
$GNHDT,205.173,T*29
$PYRTM,2024,126.603564982604,17.713212392755
$GNGGA,142908.00,3400.88425172,N,11930.85959399,W,2,12,0.9,8.662,M,-37.344,M,6.0,0131*65
$PYRTM,2024,126.603564982604,17.713212392755
$GNHDT,205.205,T*2B
$PYRTM,2024,126.603570712095,17.713218122245
$GNGGA,142908.50,3400.88323743,N,11930.86025297,W,2,12,0.9,8.625,M,-37.345,M,6.4,0131*6D
$PYRTM,2024,126.603570712095,17.713218122245
$GNHDT,205.013,T*2E
$PYRTM,2024,126.603576556030,17.713223966169
$GNGGA,142909.00,3400.88221717,N,11930.86088355,W,2,12,0.9,8.615,M,-37.345,M,7.0,0131*65
$PYRTM,2024,126.603576556030,17.713223966169
$GNHDT,205.005,T*29
$PYRTM,2024,126.603582291019,17.713229701157
