$PYRTM,2024,124.583333548299,15.692980958438
$GNGGA,140000.00,3531.54106059,N,12125.69310550,W,2,13,0.9,7.016,M,-36.242,M,7.0,0135*69
$PYRTM,2024,124.583333548299,15.692980958438
$GNHDT,110.812,T*20
$PYRTM,2024,124.583339275417,15.692986685556
$GNGGA,140000.50,3531.54067778,N,12125.69184616,W,2,13,0.9,7.059,M,-36.242,M,7.4,0135*6F
$PYRTM,2024,124.583339275417,15.692986685556
$GNHDT,110.954,T*23
$PYRTM,2024,124.583345123600,15.692992533738
$GNGGA,140001.00,3531.54031358,N,12125.69058315,W,2,13,0.9,7.142,M,-36.242,M,4.0,0135*64
$PYRTM,2024,124.583345123600,15.692992533738
$GNHDT,111.077,T*2A
$PYRTM,2024,124.583350848623,15.692998258762
$GNGGA,140001.50,3531.53996236,N,12125.68929208,W,2,13,0.9,7.224,M,-36.242,M,4.4,0135*6F
$PYRTM,2024,124.583350848623,15.692998258762
$GNHDT,111.325,T*2E
$PYRTM,2024,124.583356697280,15.693004107419
$GNGGA,140002.00,3531.53962884,N,12125.68795188,W,2,13,0.9,7.276,M,-36.242,M,5.0,0135*61
$PYRTM,2024,124.583356697280,15.693004107419
$GNHDT,111.560,T*29
$PYRTM,2024,124.583362422928,15.693009833067
$GNGGA,140002.50,3531.53930120,N,12125.68658870,W,2,13,0.9,7.304,M,-36.242,M,5.4,0135*6A
$PYRTM,2024,124.583362422928,15.693009833067
$GNHDT,111.933,T*23
$PYRTM,2024,124.583368269884,15.693015680023
$GNGGA,140003.00,3531.53897485,N,12125.68521403,W,2,13,0.9,7.308,M,-36.242,M,6.0,0135*66
$PYRTM,2024,124.583368269884,15.693015680023
$GNHDT,112.139,T*22
$PYRTM,2024,124.583374000127,15.693021410278
$GNGGA,140003.50,3531.53863425,N,12125.68385926,W,2,13,0.9,7.308,M,-36.242,M,6.4,0135*64
$PYRTM,2024,124.583374000127,15.693021410278
$GNHDT,112.219,T*23
$PYRTM,2024,124.583379845139,15.693027255289
$GNGGA,140004.00,3531.53827829,N,12125.68251242,W,2,13,0.9,7.277,M,-36.242,M,7.0,0135*6B
$PYRTM,2024,124.583379845139,15.693027255289
$GNHDT,112.481,T*24
$PYRTM,2024,124.583385572604,15.693032982743
$GNGGA,140004.50,3531.53790647,N,12125.68117775,W,2,13,0.9,7.229,M,-36.242,M,7.4,0135*64
$PYRTM,2024,124.583385572604,15.693032982743
$GNHDT,112.304,T*2E
$PYRTM,2024,124.583391420961,15.693038831100
$GNGGA,140005.00,3531.53752621,N,12125.67984680,W,2,13,0.9,7.139,M,-36.242,M,7.0,0135*6E
$PYRTM,2024,124.583391420961,15.693038831100
$GNHDT,111.668,T*22
$PYRTM,2024,124.583397146030,15.693044556169
$GNGGA,140005.50,3531.53713582,N,12125.67853226,W,2,13,0.9,7.017,M,-36.242,M,7.4,0135*6E
$PYRTM,2024,124.583397146030,15.693044556169
$GNHDT,111.766,T*2D
$PYRTM,2024,124.583402993819,15.693050403958
$GNGGA,140006.00,3531.53673525,N,12125.67723856,W,2,13,0.9,6.889,M,-36.241,M,7.0,0135*6E
$PYRTM,2024,124.583402993819,15.693050403958
$GNHDT,111.259,T*24
$PYRTM,2024,124.583408722292,15.693056132431
$GNGGA,140006.50,3531.53633652,N,12125.67595974,W,2,13,0.9,6.798,M,-36.241,M,7.4,0135*69
$PYRTM,2024,124.583408722292,15.693056132431
$GNHDT,110.790,T*25
$PYRTM,2024,124.583414565590,15.693061975729
$GNGGA,140007.00,3531.53594482,N,12125.67468980,W,2,13,0.9,6.781,M,-36.241,M,4.0,0135*6B
$PYRTM,2024,124.583414565590,15.693061975729
$GNHDT,110.777,T*2C
$PYRTM,2024,124.583420294653,15.693067704792
$GNGGA,140007.50,3531.53557263,N,12125.67341068,W,2,13,0.9,6.861,M,-36.241,M,4.4,0135*6E
$PYRTM,2024,124.583420294653,15.693067704792
$GNHDT,110.867,T*22
$PYRTM,2024,124.583426146065,15.693073556204
$GNGGA,140008.00,3531.53521907,N,12125.67211570,W,2,13,0.9,7.026,M,-36.241,M,5.0,0135*6B
$PYRTM,2024,124.583426146065,15.693073556204
$GNHDT,110.897,T*2D
$PYRTM,2024,124.583431867940,15.693079278090
$GNGGA,140008.50,3531.53486724,N,12125.67081003,W,2,13,0.9,7.230,M,-36.241,M,5.4,0135*66
$PYRTM,2024,124.583431867940,15.693079278090
$GNHDT,111.244,T*28
$PYRTM,2024,124.583437714132,15.693085124271
$GNGGA,140009.00,3531.53450564,N,12125.66950334,W,2,13,0.9,7.430,M,-36.241,M,6.0,0135*6D
$PYRTM,2024,124.583437714132,15.693085124271
$GNHDT,111.552,T*28
$PYRTM,2024,124.583443444387,15.693090854525
$GNGGA,140009.50,3531.53412575,N,12125.66821153,W,2,13,0.9,7.565,M,-36.241,M,6.4,0135*6F
$PYRTM,2024,124.583443444387,15.693090854525
$GNHDT,111.880,T*2A
$PYRTM,2024,124.583449289514,15.693096699653
$GNGGA,140010.00,3531.53372716,N,12125.66693196,W,2,13,0.9,7.598,M,-36.241,M,7.0,0135*6D
$PYRTM,2024,124.583449289514,15.693096699653
$GNHDT,112.325,T*2D
$PYRTM,2024,124.583455018981,15.693102429120
$GNGGA,140010.50,3531.53332406,N,12125.66565934,W,2,13,0.9,7.530,M,-36.241,M,7.4,0135*62
$PYRTM,2024,124.583455018981,15.693102429120
$GNHDT,112.248,T*27
$PYRTM,2024,124.583460863981,15.693108274120
$GNGGA,140011.00,3531.53292330,N,12125.66438709,W,2,13,0.9,7.402,M,-36.241,M,7.0,0135*62
$PYRTM,2024,124.583460863981,15.693108274120
$GNHDT,112.494,T*20
$PYRTM,2024,124.583466590359,15.693114000498
$GNGGA,140011.50,3531.53253961,N,12125.66310530,W,2,13,0.9,7.262,M,-36.241,M,7.4,0135*65
$PYRTM,2024,124.583466590359,15.693114000498
$GNHDT,112.554,T*2D
$PYRTM,2024,124.583472439074,15.693119849225
$GNGGA,140012.00,3531.53216892,N,12125.66181474,W,2,13,0.9,7.089,M,-36.241,M,7.0,0135*67
$PYRTM,2024,124.583472439074,15.693119849225
$GNHDT,112.612,T*2C
$PYRTM,2024,124.583478164491,15.693125574630
$GNGGA,140012.50,3531.53182138,N,12125.66050570,W,2,13,0.9,6.952,M,-36.241,M,7.4,0135*67
$PYRTM,2024,124.583478164491,15.693125574630
$GNHDT,112.276,T*2A
$PYRTM,2024,124.583484013600,15.693131423738
$GNGGA,140013.00,3531.53149878,N,12125.65917636,W,2,13,0.9,6.834,M,-36.241,M,4.0,0135*67
$PYRTM,2024,124.583484013600,15.693131423738
$GNHDT,112.171,T*2E
$PYRTM,2024,124.583489741181,15.693137151319
$GNGGA,140013.50,3531.53119583,N,12125.65783554,W,2,13,0.9,6.763,M,-36.241,M,4.4,0135*63
$PYRTM,2024,124.583489741181,15.693137151319
$GNHDT,112.053,T*2F
$PYRTM,2024,124.583495588137,15.693142998275
$GNGGA,140014.00,3531.53090596,N,12125.65650202,W,2,13,0.9,6.753,M,-36.241,M,5.0,0135*68
$PYRTM,2024,124.583495588137,15.693142998275
$GNHDT,111.905,T*26
$PYRTM,2024,124.583501314954,15.693148725093
$GNGGA,140014.50,3531.53060464,N,12125.65518272,W,2,13,0.9,6.812,M,-36.241,M,5.4,0135*68
$PYRTM,2024,124.583501314954,15.693148725093
$GNHDT,111.341,T*2C
$PYRTM,2024,124.583507159803,15.693154569942
$GNGGA,140015.00,3531.53026908,N,12125.65388484,W,2,13,0.9,6.896,M,-36.240,M,6.0,0135*63
$PYRTM,2024,124.583507159803,15.693154569942
$GNHDT,111.070,T*2D
$PYRTM,2024,124.583512885984,15.693160296123
$GNGGA,140015.50,3531.52988945,N,12125.65262110,W,2,13,0.9,6.994,M,-36.240,M,6.4,0135*69
$PYRTM,2024,124.583512885984,15.693160296123
$GNHDT,111.209,T*21
$PYRTM,2024,124.583518734606,15.693166144745
$GNGGA,140016.00,3531.52947859,N,12125.65137078,W,2,13,0.9,7.103,M,-36.240,M,7.0,0135*6E
$PYRTM,2024,124.583518734606,15.693166144745
$GNHDT,111.158,T*26
$PYRTM,2024,124.583524465405,15.693171875544
$GNGGA,140016.50,3531.52905243,N,12125.65010657,W,2,13,0.9,7.182,M,-36.240,M,7.4,0135*6E
$PYRTM,2024,124.583524465405,15.693171875544
$GNHDT,111.503,T*2C
$PYRTM,2024,124.583530309028,15.693177719167
$GNGGA,140017.00,3531.52863861,N,12125.64881340,W,2,13,0.9,7.214,M,-36.240,M,7.0,0135*6B
$PYRTM,2024,124.583530309028,15.693177719167
$GNHDT,111.530,T*2C
$PYRTM,2024,124.583536035023,15.693183445174
$GNGGA,140017.50,3531.52824218,N,12125.64749754,W,2,13,0.9,7.224,M,-36.240,M,7.4,0135*64
$PYRTM,2024,124.583536035023,15.693183445174
$GNHDT,111.789,T*2C
$PYRTM,2024,124.583541883160,15.693189293299
$GNGGA,140018.00,3531.52786950,N,12125.64615742,W,2,13,0.9,7.209,M,-36.240,M,7.0,0135*6A
$PYRTM,2024,124.583541883160,15.693189293299
$GNHDT,111.885,T*2F
$PYRTM,2024,124.583547608600,15.693195018738
$GNGGA,140018.50,3531.52751439,N,12125.64480787,W,2,13,0.9,7.164,M,-36.240,M,7.4,0135*6C
$PYRTM,2024,124.583547608600,15.693195018738
$GNHDT,111.961,T*24
$PYRTM,2024,124.583553459097,15.693200869236
$GNGGA,140019.00,3531.52717142,N,12125.64345052,W,2,13,0.9,7.114,M,-36.240,M,4.0,0135*62
$PYRTM,2024,124.583553459097,15.693200869236
$GNHDT,111.980,T*2B
$PYRTM,2024,124.583559181713,15.693206591840
$GNGGA,140019.50,3531.52682742,N,12125.64210571,W,2,13,0.9,7.055,M,-36.240,M,4.4,0135*69
$PYRTM,2024,124.583559181713,15.693206591840
$GNHDT,111.835,T*24
$PYRTM,2024,124.583565029560,15.693212439699
$GNGGA,140020.00,3531.52646632,N,12125.64078184,W,2,13,0.9,6.994,M,-36.240,M,5.0,0135*6A
$PYRTM,2024,124.583565029560,15.693212439699
$GNHDT,111.561,T*28
$PYRTM,2024,124.583570759699,15.693218169838
$GNGGA,140020.50,3531.52608846,N,12125.63947871,W,2,13,0.9,6.932,M,-36.240,M,5.4,0135*61
$PYRTM,2024,124.583570759699,15.693218169838
$GNHDT,111.374,T*2A
$PYRTM,2024,124.583576603588,15.693224013738
$GNGGA,140021.00,3531.52569027,N,12125.63819719,W,2,13,0.9,6.852,M,-36.240,M,6.0,0135*65
$PYRTM,2024,124.583576603588,15.693224013738
$GNHDT,111.182,T*21
$PYRTM,2024,124.583582331250,15.693229741389
$GNGGA,140021.50,3531.52528890,N,12125.63692151,W,2,13,0.9,6.745,M,-36.240,M,6.4,0135*6B
$PYRTM,2024,124.583582331250,15.693229741389
$GNHDT,111.044,T*2A
$PYRTM,2024,124.583588179236,15.693235589387
$GNGGA,140022.00,3531.52488212,N,12125.63564895,W,2,13,0.9,6.615,M,-36.240,M,7.0,0135*6C
$PYRTM,2024,124.583588179236,15.693235589387
$GNHDT,111.004,T*2E
$PYRTM,2024,124.583593910069,15.693241320220
$GNGGA,140022.50,3531.52448627,N,12125.63437243,W,2,13,0.9,6.527,M,-36.240,M,7.4,0135*67
$PYRTM,2024,124.583593910069,15.693241320220
$GNHDT,110.810,T*22
$PYRTM,2024,124.583599756285,15.693247166424
$GNGGA,140023.00,3531.52411032,N,12125.63309352,W,2,13,0.9,6.509,M,-36.240,M,7.0,0135*6E
$PYRTM,2024,124.583599756285,15.693247166424
$GNHDT,110.635,T*2B
$PYRTM,2024,124.583605479734,15.693252889873
$GNGGA,140023.50,3531.52376347,N,12125.63180197,W,2,13,0.9,6.578,M,-36.240,M,7.4,0135*66
$PYRTM,2024,124.583605479734,15.693252889873
$GNHDT,110.395,T*24
$PYRTM,2024,124.583611327280,15.693258737419
$GNGGA,140024.00,3531.52344496,N,12125.63050087,W,2,13,0.9,6.735,M,-36.239,M,7.0,0135*63
$PYRTM,2024,124.583611327280,15.693258737419
$GNHDT,110.361,T*2F
$PYRTM,2024,124.583617058981,15.693264469120
$GNGGA,140024.50,3531.52314646,N,12125.62919691,W,2,13,0.9,6.946,M,-36.239,M,7.4,0135*66
$PYRTM,2024,124.583617058981,15.693264469120
$GNHDT,110.318,T*21
$PYRTM,2024,124.583622901007,15.693270311146
$GNGGA,140025.00,3531.52285645,N,12125.62789012,W,2,13,0.9,7.156,M,-36.239,M,4.0,0135*6D
$PYRTM,2024,124.583622901007,15.693270311146
$GNHDT,110.319,T*20
$PYRTM,2024,124.583628633889,15.693276044028
$GNGGA,140025.50,3531.52254913,N,12125.62657549,W,2,13,0.9,7.305,M,-36.239,M,4.4,0135*61
$PYRTM,2024,124.583628633889,15.693276044028
$GNHDT,110.323,T*29
$PYRTM,2024,124.583634474005,15.693281884144
$GNGGA,140026.00,3531.52221934,N,12125.62525023,W,2,13,0.9,7.349,M,-36.239,M,5.0,0135*62
$PYRTM,2024,124.583634474005,15.693281884144
$GNHDT,110.706,T*2A
$PYRTM,2024,124.583640205567,15.693287615706
$GNGGA,140026.50,3531.52185767,N,12125.62391997,W,2,13,0.9,7.287,M,-36.239,M,5.4,0135*6A
$PYRTM,2024,124.583640205567,15.693287615706
$GNHDT,110.640,T*29
$PYRTM,2024,124.583646047384,15.693293457523
$GNGGA,140027.00,3531.52147579,N,12125.62258476,W,2,13,0.9,7.126,M,-36.239,M,6.0,0135*64
$PYRTM,2024,124.583646047384,15.693293457523
$GNHDT,110.802,T*21
$PYRTM,2024,124.583651774225,15.693299184363
$GNGGA,140027.50,3531.52108821,N,12125.62125089,W,2,13,0.9,6.953,M,-36.239,M,6.4,0135*68
$PYRTM,2024,124.583651774225,15.693299184363
$GNHDT,110.736,T*29
$PYRTM,2024,124.583657623102,15.693305033241
$GNGGA,140028.00,3531.52070979,N,12125.61992288,W,2,13,0.9,6.818,M,-36.239,M,7.0,0135*6F
$PYRTM,2024,124.583657623102,15.693305033241
$GNHDT,111.015,T*2E
$PYRTM,2024,124.583663347650,15.693310757789
$GNGGA,140028.50,3531.52035916,N,12125.61860126,W,2,13,0.9,6.749,M,-36.239,M,7.4,0135*66
$PYRTM,2024,124.583663347650,15.693310757789
$GNHDT,111.030,T*29
$PYRTM,2024,124.583669195012,15.693316605150
$GNGGA,140029.00,3531.52002947,N,12125.61728045,W,2,13,0.9,6.760,M,-36.239,M,7.0,0135*6A
$PYRTM,2024,124.583669195012,15.693316605150
$GNHDT,111.078,T*25
$PYRTM,2024,124.583674928356,15.693322338495
$GNGGA,140029.50,3531.51970069,N,12125.61595799,W,2,13,0.9,6.828,M,-36.239,M,7.4,0135*60
$PYRTM,2024,124.583674928356,15.693322338495
$GNHDT,111.389,T*28
$PYRTM,2024,124.583680769514,15.693328179653
$GNGGA,140030.00,3531.51935657,N,12125.61463441,W,2,13,0.9,6.930,M,-36.239,M,7.0,0135*65
$PYRTM,2024,124.583680769514,15.693328179653
$GNHDT,111.176,T*2A
$PYRTM,2024,124.583686500046,15.693333910185
$GNGGA,140030.50,3531.51898944,N,12125.61331032,W,2,13,0.9,7.020,M,-36.239,M,7.4,0135*66
$PYRTM,2024,124.583686500046,15.693333910185
$GNHDT,111.102,T*29
$PYRTM,2024,124.583692344479,15.693339754618
$GNGGA,140031.00,3531.51860768,N,12125.61197504,W,2,13,0.9,7.081,M,-36.238,M,4.0,0135*66
$PYRTM,2024,124.583692344479,15.693339754618
$GNHDT,110.840,T*27
$PYRTM,2024,124.583698072755,15.693345482905
$GNGGA,140031.50,3531.51822060,N,12125.61064261,W,2,13,0.9,7.101,M,-36.238,M,4.4,0135*6E
$PYRTM,2024,124.583698072755,15.693345482905
$GNHDT,110.762,T*28
$PYRTM,2024,124.583703922558,15.693351332697
$GNGGA,140032.00,3531.51784817,N,12125.60930639,W,2,13,0.9,7.106,M,-36.238,M,5.0,0135*61
$PYRTM,2024,124.583703922558,15.693351332697
$GNHDT,110.317,T*2E
$PYRTM,2024,124.583709645579,15.693357055718
$GNGGA,140032.50,3531.51748686,N,12125.60797433,W,2,13,0.9,7.104,M,-36.238,M,5.4,0135*6F
$PYRTM,2024,124.583709645579,15.693357055718
$GNHDT,110.299,T*29
$PYRTM,2024,124.583715493576,15.693362903727
$GNGGA,140033.00,3531.51713841,N,12125.60664154,W,2,13,0.9,7.109,M,-36.238,M,6.0,0135*63
$PYRTM,2024,124.583715493576,15.693362903727
$GNHDT,110.174,T*29
$PYRTM,2024,124.583721225231,15.693368635370
$GNGGA,140033.50,3531.51679262,N,12125.60531026,W,2,13,0.9,7.131,M,-36.238,M,6.4,0135*68
$PYRTM,2024,124.583721225231,15.693368635370
$GNHDT,110.133,T*2A
$PYRTM,2024,124.583727066169,15.693374476308
$GNGGA,140034.00,3531.51646408,N,12125.60397523,W,2,13,0.9,7.161,M,-36.238,M,7.0,0135*66
$PYRTM,2024,124.583727066169,15.693374476308
$GNHDT,109.933,T*2A
$PYRTM,2024,124.583732794363,15.693380204502
$GNGGA,140034.50,3531.51614307,N,12125.60264593,W,2,13,0.9,7.173,M,-36.238,M,7.4,0135*6D
$PYRTM,2024,124.583732794363,15.693380204502
$GNHDT,110.082,T*21
$PYRTM,2024,124.583738641146,15.693386051285
$GNGGA,140035.00,3531.51583062,N,12125.60132019,W,2,13,0.9,7.174,M,-36.238,M,7.0,0135*60
$PYRTM,2024,124.583738641146,15.693386051285
$GNHDT,110.063,T*2E
$PYRTM,2024,124.583744367141,15.693391777280
$GNGGA,140035.50,3531.51551536,N,12125.60000275,W,2,13,0.9,7.114,M,-36.238,M,7.4,0135*64
$PYRTM,2024,124.583744367141,15.693391777280
$GNHDT,110.158,T*27
$PYRTM,2024,124.583750216412,15.693397626551
$GNGGA,140036.00,3531.51520343,N,12125.59869066,W,2,13,0.9,7.015,M,-36.238,M,7.0,0135*69
$PYRTM,2024,124.583750216412,15.693397626551
$GNHDT,110.249,T*24
$PYRTM,2024,124.583755942986,15.693403353137
$GNGGA,140036.50,3531.51488432,N,12125.59739092,W,2,13,0.9,6.898,M,-36.238,M,7.4,0135*67
$PYRTM,2024,124.583755942986,15.693403353137
$GNHDT,110.039,T*21
$PYRTM,2024,124.583761787199,15.693409197338
$GNGGA,140037.00,3531.51455043,N,12125.59610913,W,2,13,0.9,6.779,M,-36.238,M,4.0,0135*6C
$PYRTM,2024,124.583761787199,15.693409197338
$GNHDT,110.303,T*2B
$PYRTM,2024,124.583767518507,15.693414928646
$GNGGA,140037.50,3531.51419550,N,12125.59484329,W,2,13,0.9,6.669,M,-36.238,M,4.4,0135*6E
$PYRTM,2024,124.583767518507,15.693414928646
$GNHDT,110.358,T*25
$PYRTM,2024,124.583773362720,15.693420772870
$GNGGA,140038.00,3531.51382055,N,12125.59358847,W,2,13,0.9,6.584,M,-36.238,M,5.0,0135*61
$PYRTM,2024,124.583773362720,15.693420772870
$GNHDT,110.392,T*23
$PYRTM,2024,124.583779089954,15.693426500093
$GNGGA,140038.50,3531.51343094,N,12125.59233931,W,2,13,0.9,6.520,M,-36.238,M,5.4,0135*62
$PYRTM,2024,124.583779089954,15.693426500093
$GNHDT,110.408,T*27
$PYRTM,2024,124.583784941470,15.693432351609
$GNGGA,140039.00,3531.51303399,N,12125.59109224,W,2,13,0.9,6.488,M,-36.238,M,6.0,0135*6D
$PYRTM,2024,124.583784941470,15.693432351609
$GNHDT,110.593,T*24
$PYRTM,2024,124.583790664595,15.693438074734
$GNGGA,140039.50,3531.51265112,N,12125.58983093,W,2,13,0.9,6.509,M,-36.238,M,6.4,0135*61
$PYRTM,2024,124.583790664595,15.693438074734
$GNHDT,110.848,T*2F
$PYRTM,2024,124.583796512558,15.693443922697
$GNGGA,140040.00,3531.51227975,N,12125.58855117,W,2,13,0.9,6.590,M,-36.237,M,7.0,0135*68
$PYRTM,2024,124.583796512558,15.693443922697
$GNHDT,110.964,T*20
$PYRTM,2024,124.583802241007,15.693449651157
$GNGGA,140040.50,3531.51192256,N,12125.58724715,W,2,13,0.9,6.733,M,-36.237,M,7.4,0135*68
$PYRTM,2024,124.583802241007,15.693449651157
$GNHDT,111.261,T*2F
$PYRTM,2024,124.583808090324,15.693455500463
$GNGGA,140041.00,3531.51157185,N,12125.58591706,W,2,13,0.9,6.929,M,-36.237,M,7.0,0135*67
$PYRTM,2024,124.583808090324,15.693455500463
$GNHDT,111.392,T*22
$PYRTM,2024,124.583813813808,15.693461223947
$GNGGA,140041.50,3531.51123128,N,12125.58456630,W,2,13,0.9,7.131,M,-36.237,M,7.4,0135*6C
$PYRTM,2024,124.583813813808,15.693461223947
$GNHDT,111.827,T*27
$PYRTM,2024,124.583819663785,15.693467073924
$GNGGA,140042.00,3531.51088771,N,12125.58319336,W,2,13,0.9,7.336,M,-36.237,M,7.0,0135*6E
$PYRTM,2024,124.583819663785,15.693467073924
$GNHDT,111.842,T*24
$PYRTM,2024,124.583825395926,15.693472806076
$GNGGA,140042.50,3531.51053246,N,12125.58181501,W,2,13,0.9,7.477,M,-36.237,M,7.4,0135*6B
$PYRTM,2024,124.583825395926,15.693472806076
$GNHDT,111.825,T*25
$PYRTM,2024,124.583831235324,15.693478645463
$GNGGA,140043.00,3531.51015365,N,12125.58042923,W,2,13,0.9,7.537,M,-36.237,M,4.0,0135*6D
$PYRTM,2024,124.583831235324,15.693478645463
$GNHDT,111.584,T*23
$PYRTM,2024,124.583836969502,15.693484379653
$GNGGA,140043.50,3531.50976716,N,12125.57903952,W,2,13,0.9,7.503,M,-36.237,M,4.4,0135*63
$PYRTM,2024,124.583836969502,15.693484379653
$GNHDT,111.387,T*26
$PYRTM,2024,124.583842807697,15.693490217836
$GNGGA,140044.00,3531.50938126,N,12125.57764877,W,2,13,0.9,7.419,M,-36.237,M,5.0,0135*68
$PYRTM,2024,124.583842807697,15.693490217836
$GNHDT,110.887,T*2C
$PYRTM,2024,124.583848539653,15.693495949792
$GNGGA,140044.50,3531.50899513,N,12125.57626836,W,2,13,0.9,7.301,M,-36.237,M,5.4,0135*6D
$PYRTM,2024,124.583848539653,15.693495949792
$GNHDT,111.042,T*2C
$PYRTM,2024,124.583854379815,15.693501789954
$GNGGA,140045.00,3531.50861475,N,12125.57489827,W,2,13,0.9,7.154,M,-36.237,M,6.0,0135*6D
$PYRTM,2024,124.583854379815,15.693501789954
$GNHDT,110.843,T*24
$PYRTM,2024,124.583860108391,15.693507518530
$GNGGA,140045.50,3531.50824445,N,12125.57354512,W,2,13,0.9,7.029,M,-36.237,M,6.4,0135*69
$PYRTM,2024,124.583860108391,15.693507518530
$GNHDT,110.640,T*29
$PYRTM,2024,124.583865955891,15.693513366030
$GNGGA,140046.00,3531.50788611,N,12125.57221331,W,2,13,0.9,6.937,M,-36.237,M,7.0,0135*63
$PYRTM,2024,124.583865955891,15.693513366030
$GNHDT,110.599,T*2E
$PYRTM,2024,124.583871682766,15.693519092905
$GNGGA,140046.50,3531.50753618,N,12125.57090195,W,2,13,0.9,6.889,M,-36.237,M,7.4,0135*6D
$PYRTM,2024,124.583871682766,15.693519092905
$GNHDT,110.533,T*2E
$PYRTM,2024,124.583877531424,15.693524941563
$GNGGA,140047.00,3531.50718305,N,12125.56961337,W,2,13,0.9,6.862,M,-36.237,M,7.0,0135*62
$PYRTM,2024,124.583877531424,15.693524941563
$GNHDT,110.523,T*2F
$PYRTM,2024,124.583883259444,15.693530669583
$GNGGA,140047.50,3531.50682837,N,12125.56833525,W,2,13,0.9,6.834,M,-36.237,M,7.4,0135*6B
$PYRTM,2024,124.583883259444,15.693530669583
$GNHDT,110.643,T*2A
$PYRTM,2024,124.583889101204,15.693536511343
$GNGGA,140048.00,3531.50645803,N,12125.56707101,W,2,13,0.9,6.802,M,-36.237,M,7.0,0135*66
$PYRTM,2024,124.583889101204,15.693536511343
$GNHDT,110.710,T*2D
$PYRTM,2024,124.583894830440,15.693542240579
$GNGGA,140048.50,3531.50608009,N,12125.56582601,W,2,13,0.9,6.783,M,-36.236,M,7.4,0135*63
$PYRTM,2024,124.583894830440,15.693542240579
$GNHDT,110.687,T*22
$PYRTM,2024,124.583900678333,15.693548088472
$GNGGA,140049.00,3531.50569752,N,12125.56460101,W,2,13,0.9,6.782,M,-36.236,M,4.0,0135*66
$PYRTM,2024,124.583900678333,15.693548088472
$GNHDT,111.133,T*2B
$PYRTM,2024,124.583906404317,15.693553814456
$GNGGA,140049.50,3531.50532205,N,12125.56337980,W,2,13,0.9,6.807,M,-36.236,M,4.4,0135*68
$PYRTM,2024,124.583906404317,15.693553814456
$GNHDT,111.256,T*2B
$PYRTM,2024,124.583912253009,15.693559663148
$GNGGA,140050.00,3531.50495695,N,12125.56215128,W,2,13,0.9,6.848,M,-36.236,M,5.0,0135*61
$PYRTM,2024,124.583912253009,15.693559663148
$GNHDT,111.582,T*25
$PYRTM,2024,124.583917981991,15.693565392141
$GNGGA,140050.50,3531.50460451,N,12125.56089821,W,2,13,0.9,6.888,M,-36.236,M,5.4,0135*6B
$PYRTM,2024,124.583917981991,15.693565392141
$GNHDT,111.991,T*2B
$PYRTM,2024,124.583923822766,15.693571232905
$GNGGA,140051.00,3531.50425565,N,12125.55961561,W,2,13,0.9,6.921,M,-36.236,M,6.0,0135*68
$PYRTM,2024,124.583923822766,15.693571232905
$GNHDT,112.389,T*2B
$PYRTM,2024,124.583929553333,15.693576963472
$GNGGA,140051.50,3531.50391029,N,12125.55830435,W,2,13,0.9,6.950,M,-36.236,M,6.4,0135*6F
$PYRTM,2024,124.583929553333,15.693576963472
$GNHDT,112.636,T*2A
$PYRTM,2024,124.583935401215,15.693582811354
$GNGGA,140052.00,3531.50357510,N,12125.55696506,W,2,13,0.9,6.977,M,-36.236,M,7.0,0135*6F
$PYRTM,2024,124.583935401215,15.693582811354
$GNHDT,112.811,T*21
$PYRTM,2024,124.583941126806,15.693588536944
$GNGGA,140052.50,3531.50324208,N,12125.55561074,W,2,13,0.9,7.000,M,-36.236,M,7.4,0135*67
$PYRTM,2024,124.583941126806,15.693588536944
$GNHDT,112.844,T*21
$PYRTM,2024,124.583946976701,15.693594386840
$GNGGA,140053.00,3531.50290425,N,12125.55424444,W,2,13,0.9,7.009,M,-36.236,M,7.0,0135*6E
$PYRTM,2024,124.583946976701,15.693594386840
$GNHDT,112.738,T*25
$PYRTM,2024,124.583952700127,15.693600110266
$GNGGA,140053.50,3531.50255175,N,12125.55287107,W,2,13,0.9,6.991,M,-36.236,M,7.4,0135*62
$PYRTM,2024,124.583952700127,15.693600110266
$GNHDT,112.520,T*2E
$PYRTM,2024,124.583958547801,15.693605957951
$GNGGA,140054.00,3531.50217477,N,12125.55149454,W,2,13,0.9,6.950,M,-36.236,M,7.0,0135*6A
$PYRTM,2024,124.583958547801,15.693605957951
$GNHDT,112.290,T*22
$PYRTM,2024,124.583964276343,15.693611686481
$GNGGA,140054.50,3531.50177645,N,12125.55012293,W,2,13,0.9,6.890,M,-36.236,M,7.4,0135*62
$PYRTM,2024,124.583964276343,15.693611686481
$GNHDT,111.912,T*20
$PYRTM,2024,124.583970119549,15.693617529688
$GNGGA,140055.00,3531.50135989,N,12125.54876101,W,2,13,0.9,6.829,M,-36.236,M,4.0,0135*69
$PYRTM,2024,124.583970119549,15.693617529688
$GNHDT,111.674,T*2F
$PYRTM,2024,124.583975853183,15.693623263322
$GNGGA,140055.50,3531.50093515,N,12125.54741427,W,2,13,0.9,6.786,M,-36.236,M,4.4,0135*6C
$PYRTM,2024,124.583975853183,15.693623263322
$GNHDT,111.086,T*24
$PYRTM,2024,124.583981696979,15.693629107118
$GNGGA,140056.00,3531.50050405,N,12125.54607865,W,2,13,0.9,6.771,M,-36.236,M,5.0,0135*61
$PYRTM,2024,124.583981696979,15.693629107118
$GNHDT,110.879,T*2D
$PYRTM,2024,124.583987429120,15.693634839259
$GNGGA,140056.50,3531.50008193,N,12125.54474484,W,2,13,0.9,6.772,M,-36.236,M,5.4,0135*61
$PYRTM,2024,124.583987429120,15.693634839259
$GNHDT,110.841,T*26
$PYRTM,2024,124.583993267708,15.693640677847
$GNGGA,140057.00,3531.49967690,N,12125.54342020,W,2,13,0.9,6.802,M,-36.236,M,6.0,0135*6E
$PYRTM,2024,124.583993267708,15.693640677847
$GNHDT,110.606,T*2B
$PYRTM,2024,124.583999001470,15.693646411620
$GNGGA,140057.50,3531.49929056,N,12125.54211348,W,2,13,0.9,6.862,M,-36.235,M,6.4,0135*66
$PYRTM,2024,124.583999001470,15.693646411620
$GNHDT,110.409,T*26
$PYRTM,2024,124.584004843657,15.693652253796
$GNGGA,140058.00,3531.49892523,N,12125.54082556,W,2,13,0.9,6.961,M,-36.235,M,7.0,0135*6C
$PYRTM,2024,124.584004843657,15.693652253796
$GNHDT,110.416,T*28
$PYRTM,2024,124.584010573148,15.693657983287
$GNGGA,140058.50,3531.49856858,N,12125.53954781,W,2,13,0.9,7.061,M,-36.235,M,7.4,0135*61
$PYRTM,2024,124.584010573148,15.693657983287
$GNHDT,110.578,T*21
$PYRTM,2024,124.584016422882,15.693663833021
$GNGGA,140059.00,3531.49820355,N,12125.53827976,W,2,13,0.9,7.129,M,-36.235,M,7.0,0135*68
$PYRTM,2024,124.584016422882,15.693663833021
$GNHDT,110.845,T*22
$PYRTM,2024,124.584022147014,15.693669557153
$GNGGA,140059.50,3531.49782926,N,12125.53701247,W,2,13,0.9,7.137,M,-36.235,M,7.4,0135*6D
$PYRTM,2024,124.584022147014,15.693669557153
$GNHDT,111.007,T*2D
$PYRTM,2024,124.584027994664,15.693675404815
$GNGGA,140100.00,3531.49745275,N,12125.53574799,W,2,13,0.9,7.095,M,-36.235,M,7.0,0135*68
$PYRTM,2024,124.584027994664,15.693675404815
$GNHDT,111.354,T*28
$PYRTM,2024,124.584033723449,15.693681133588
$GNGGA,140100.50,3531.49708222,N,12125.53449019,W,2,13,0.9,7.029,M,-36.235,M,7.4,0135*65
$PYRTM,2024,124.584033723449,15.693681133588
$GNHDT,111.829,T*29
$PYRTM,2024,124.584039566736,15.693686976875
$GNGGA,140101.00,3531.49672239,N,12125.53323698,W,2,13,0.9,6.956,M,-36.235,M,4.0,0135*64
$PYRTM,2024,124.584039566736,15.693686976875
$GNHDT,112.417,T*2B
$PYRTM,2024,124.584045294606,15.693692704745
$GNGGA,140101.50,3531.49637039,N,12125.53197718,W,2,13,0.9,6.883,M,-36.235,M,4.4,0135*6B
$PYRTM,2024,124.584045294606,15.693692704745
$GNHDT,112.820,T*23
$PYRTM,2024,124.584051143125,15.693698553264
$GNGGA,140102.00,3531.49602602,N,12125.53069501,W,2,13,0.9,6.811,M,-36.235,M,5.0,0135*61
$PYRTM,2024,124.584051143125,15.693698553264
$GNHDT,113.356,T*28
$PYRTM,2024,124.584056870694,15.693704280833
$GNGGA,140102.50,3531.49568329,N,12125.52939328,W,2,13,0.9,6.730,M,-36.235,M,5.4,0135*6F
$PYRTM,2024,124.584056870694,15.693704280833
$GNHDT,113.912,T*22
$PYRTM,2024,124.584062720139,15.693710130278
$GNGGA,140103.00,3531.49533090,N,12125.52808016,W,2,13,0.9,6.651,M,-36.235,M,6.0,0135*68
$PYRTM,2024,124.584062720139,15.693710130278
$GNHDT,113.809,T*29
$PYRTM,2024,124.584068448380,15.693715858519
$GNGGA,140103.50,3531.49496639,N,12125.52675771,W,2,13,0.9,6.593,M,-36.235,M,6.4,0135*6D
$PYRTM,2024,124.584068448380,15.693715858519
$GNHDT,113.836,T*25
$PYRTM,2024,124.584074287245,15.693721697384
$GNGGA,140104.00,3531.49458583,N,12125.52541896,W,2,13,0.9,6.556,M,-36.235,M,7.0,0135*61
$PYRTM,2024,124.584074287245,15.693721697384
$GNHDT,113.568,T*23
$PYRTM,2024,124.584080018704,15.693727428843
$GNGGA,140104.50,3531.49419970,N,12125.52405585,W,2,13,0.9,6.557,M,-36.234,M,7.4,0135*6B
$PYRTM,2024,124.584080018704,15.693727428843
$GNHDT,112.868,T*2F
$PYRTM,2024,124.584085860324,15.693733270463
$GNGGA,140105.00,3531.49381157,N,12125.52267222,W,2,13,0.9,6.608,M,-36.234,M,7.0,0135*61
$PYRTM,2024,124.584085860324,15.693733270463
$GNHDT,112.402,T*2F
$PYRTM,2024,124.584091590417,15.693739000556
$GNGGA,140105.50,3531.49343267,N,12125.52127854,W,2,13,0.9,6.720,M,-36.234,M,7.4,0135*69
$PYRTM,2024,124.584091590417,15.693739000556
$GNHDT,111.715,T*29
$PYRTM,2024,124.584097435683,15.693744845833
$GNGGA,140106.00,3531.49305688,N,12125.51987892,W,2,13,0.9,6.870,M,-36.234,M,7.0,0135*6D
$PYRTM,2024,124.584097435683,15.693744845833
$GNHDT,111.313,T*2B
$PYRTM,2024,124.584103173773,15.693750583924
$GNGGA,140106.50,3531.49267831,N,12125.51847560,W,2,13,0.9,7.042,M,-36.234,M,7.4,0135*60
$PYRTM,2024,124.584103173773,15.693750583924
$GNHDT,110.875,T*21
$PYRTM,2024,124.584109008507,15.693756418646
$GNGGA,140107.00,3531.49228919,N,12125.51707343,W,2,13,0.9,7.204,M,-36.234,M,4.0,0135*6F
$PYRTM,2024,124.584109008507,15.693756418646
$GNHDT,110.391,T*20
$PYRTM,2024,124.584114739803,15.693762149942
$GNGGA,140107.50,3531.49188822,N,12125.51569033,W,2,13,0.9,7.318,M,-36.234,M,4.4,0135*6C
$PYRTM,2024,124.584114739803,15.693762149942
$GNHDT,109.884,T*27
$PYRTM,2024,124.584120582731,15.693767992870
$GNGGA,140108.00,3531.49147122,N,12125.51433921,W,2,13,0.9,7.388,M,-36.234,M,5.0,0135*64
$PYRTM,2024,124.584120582731,15.693767992870
$GNHDT,109.618,T*2C
$PYRTM,2024,124.584126318414,15.693773728553
$GNGGA,140108.50,3531.49104040,N,12125.51302876,W,2,13,0.9,7.393,M,-36.234,M,5.4,0135*6B
$PYRTM,2024,124.584126318414,15.693773728553
$GNHDT,109.822,T*2B
$PYRTM,2024,124.584132160093,15.693779570231
$GNGGA,140109.00,3531.49060174,N,12125.51175073,W,2,13,0.9,7.333,M,-36.234,M,6.0,0135*68
$PYRTM,2024,124.584132160093,15.693779570231
$GNHDT,110.169,T*25
$PYRTM,2024,124.584137886470,15.693785296609
$GNGGA,140109.50,3531.49016150,N,12125.51049261,W,2,13,0.9,7.189,M,-36.234,M,6.4,0135*62
$PYRTM,2024,124.584137886470,15.693785296609
$GNHDT,110.519,T*26
$PYRTM,2024,124.584143730081,15.693791140220
$GNGGA,140110.00,3531.48973249,N,12125.50924344,W,2,13,0.9,6.974,M,-36.234,M,7.0,0135*64
$PYRTM,2024,124.584143730081,15.693791140220
$GNHDT,111.218,T*21
$PYRTM,2024,124.584149463623,15.693796873762
$GNGGA,140110.50,3531.48932947,N,12125.50800260,W,2,13,0.9,6.748,M,-36.234,M,7.4,0135*64
$PYRTM,2024,124.584149463623,15.693796873762
$GNHDT,111.791,T*25
$PYRTM,2024,124.584155304907,15.693802715046
$GNGGA,140111.00,3531.48895547,N,12125.50676932,W,2,13,0.9,6.556,M,-36.234,M,7.0,0135*6A
$PYRTM,2024,124.584155304907,15.693802715046
$GNHDT,112.409,T*24
$PYRTM,2024,124.584161039699,15.693808449838
$GNGGA,140111.50,3531.48860867,N,12125.50553806,W,2,13,0.9,6.436,M,-36.234,M,7.4,0135*6B
$PYRTM,2024,124.584161039699,15.693808449838
$GNHDT,112.956,T*23
$PYRTM,2024,124.584166880451,15.693814290590
$GNGGA,140112.00,3531.48828045,N,12125.50430064,W,2,13,0.9,6.418,M,-36.234,M,7.0,0135*69
$PYRTM,2024,124.584166880451,15.693814290590
$GNHDT,113.237,T*2E
$PYRTM,2024,124.584172609248,15.693820019387
$GNGGA,140112.50,3531.48796289,N,12125.50304837,W,2,13,0.9,6.471,M,-36.234,M,7.4,0135*61
$PYRTM,2024,124.584172609248,15.693820019387
$GNHDT,113.244,T*2A
$PYRTM,2024,124.584178454722,15.693825864861
$GNGGA,140113.00,3531.48763980,N,12125.50177302,W,2,13,0.9,6.563,M,-36.233,M,4.0,0135*64
$PYRTM,2024,124.584178454722,15.693825864861
$GNHDT,112.994,T*2D
$PYRTM,2024,124.584184193368,15.693831603507
$GNGGA,140113.50,3531.48730320,N,12125.50046985,W,2,13,0.9,6.660,M,-36.233,M,4.4,0135*65
$PYRTM,2024,124.584184193368,15.693831603507
$GNHDT,113.018,T*21
$PYRTM,2024,124.584190025799,15.693837435949
$GNGGA,140114.00,3531.48695289,N,12125.49913931,W,2,13,0.9,6.739,M,-36.233,M,5.0,0135*6D
$PYRTM,2024,124.584190025799,15.693837435949
$GNHDT,112.221,T*28
$PYRTM,2024,124.584195764954,15.693843175093
$GNGGA,140114.50,3531.48658635,N,12125.49779035,W,2,13,0.9,6.800,M,-36.233,M,5.4,0135*64
$PYRTM,2024,124.584195764954,15.693843175093
$GNHDT,111.483,T*25
$PYRTM,2024,124.584201601609,15.693849011748
$GNGGA,140115.00,3531.48620604,N,12125.49642510,W,2,13,0.9,6.846,M,-36.233,M,6.0,0135*63
$PYRTM,2024,124.584201601609,15.693849011748
$GNHDT,110.720,T*2E
$PYRTM,2024,124.584207334352,15.693854744491
$GNGGA,140115.50,3531.48581330,N,12125.49505306,W,2,13,0.9,6.900,M,-36.233,M,6.4,0135*6A
$PYRTM,2024,124.584207334352,15.693854744491
$GNHDT,110.081,T*22
$PYRTM,2024,124.584213177025,15.693860587176
$GNGGA,140116.00,3531.48541465,N,12125.49367315,W,2,13,0.9,6.971,M,-36.233,M,7.0,0135*64
$PYRTM,2024,124.584213177025,15.693860587176
$GNHDT,109.726,T*20
$PYRTM,2024,124.584218905382,15.693866315521
$GNGGA,140116.50,3531.48501363,N,12125.49229243,W,2,13,0.9,7.050,M,-36.233,M,7.4,0135*62
$PYRTM,2024,124.584218905382,15.693866315521
$GNHDT,109.529,T*2D
$PYRTM,2024,124.584224748681,15.693872158819
$GNGGA,140117.00,3531.48461222,N,12125.49091782,W,2,13,0.9,7.135,M,-36.233,M,7.0,0135*6A
$PYRTM,2024,124.584224748681,15.693872158819
$GNHDT,109.369,T*2F
$PYRTM,2024,124.584230480058,15.693877890197
$GNGGA,140117.50,3531.48421652,N,12125.48955821,W,2,13,0.9,7.215,M,-36.233,M,7.4,0135*6B
$PYRTM,2024,124.584230480058,15.693877890197
$GNHDT,109.549,T*2B
$PYRTM,2024,124.584236322986,15.693883733125
$GNGGA,140118.00,3531.48382558,N,12125.48821701,W,2,13,0.9,7.270,M,-36.233,M,7.0,0135*6E
$PYRTM,2024,124.584236322986,15.693883733125
$GNHDT,109.853,T*2D
$PYRTM,2024,124.584242054016,15.693889464167
$GNGGA,140118.50,3531.48344890,N,12125.48689039,W,2,13,0.9,7.292,M,-36.233,M,7.4,0135*60
$PYRTM,2024,124.584242054016,15.693889464167
$GNHDT,110.382,T*22
$PYRTM,2024,124.584247897963,15.693895308102
$GNGGA,140119.00,3531.48309106,N,12125.48557291,W,2,13,0.9,7.265,M,-36.233,M,4.0,0135*64
$PYRTM,2024,124.584247897963,15.693895308102
$GNHDT,111.013,T*28
$PYRTM,2024,124.584253626771,15.693901036910
$GNGGA,140119.50,3531.48274221,N,12125.48425961,W,2,13,0.9,7.203,M,-36.233,M,4.4,0135*68
$PYRTM,2024,124.584253626771,15.693901036910
$GNHDT,111.618,T*25
$PYRTM,2024,124.584259473229,15.693906883368
$GNGGA,140120.00,3531.48239802,N,12125.48295044,W,2,13,0.9,7.111,M,-36.233,M,5.0,0135*63
$PYRTM,2024,124.584259473229,15.693906883368
$GNHDT,112.207,T*2C
$PYRTM,2024,124.584265202743,15.693912612882
$GNGGA,140120.50,3531.48205361,N,12125.48164228,W,2,13,0.9,6.999,M,-36.233,M,5.4,0135*6F
$PYRTM,2024,124.584265202743,15.693912612882
$GNHDT,112.385,T*27
$PYRTM,2024,124.584271044375,15.693918454514
$GNGGA,140121.00,3531.48170334,N,12125.48033728,W,2,13,0.9,6.893,M,-36.233,M,6.0,0135*60
$PYRTM,2024,124.584271044375,15.693918454514
$GNHDT,112.554,T*2D
$PYRTM,2024,124.584276777894,15.693924188044
$GNGGA,140121.50,3531.48134905,N,12125.47904454,W,2,13,0.9,6.808,M,-36.233,M,6.4,0135*61
$PYRTM,2024,124.584276777894,15.693924188044
$GNHDT,112.818,T*28
$PYRTM,2024,124.584282622558,15.693930032697
$GNGGA,140122.00,3531.48098594,N,12125.47776105,W,2,13,0.9,6.759,M,-36.232,M,7.0,0135*61
$PYRTM,2024,124.584282622558,15.693930032697
$GNHDT,112.953,T*26
$PYRTM,2024,124.584288347500,15.693935757639
$GNGGA,140122.50,3531.48062445,N,12125.47648580,W,2,13,0.9,6.734,M,-36.232,M,7.4,0135*66
$PYRTM,2024,124.584288347500,15.693935757639
$GNHDT,112.729,T*25
$PYRTM,2024,124.584294195058,15.693941605197
$GNGGA,140123.00,3531.48025798,N,12125.47521398,W,2,13,0.9,6.725,M,-36.232,M,7.0,0135*65
$PYRTM,2024,124.584294195058,15.693941605197
$GNHDT,112.924,T*26
$PYRTM,2024,124.584299928657,15.693947338796
$GNGGA,140123.50,3531.47989876,N,12125.47393677,W,2,13,0.9,6.713,M,-36.232,M,7.4,0135*65
$PYRTM,2024,124.584299928657,15.693947338796
$GNHDT,112.658,T*22
$PYRTM,2024,124.584305766701,15.693953176840
$GNGGA,140124.00,3531.47954363,N,12125.47265184,W,2,13,0.9,6.671,M,-36.232,M,7.0,0135*6A
$PYRTM,2024,124.584305766701,15.693953176840
$GNHDT,112.444,T*2D
$PYRTM,2024,124.584311497269,15.693958907407
$GNGGA,140124.50,3531.47918355,N,12125.47136100,W,2,13,0.9,6.602,M,-36.232,M,7.4,0135*6B
$PYRTM,2024,124.584311497269,15.693958907407
$GNHDT,112.351,T*2E
$PYRTM,2024,124.584317341065,15.693964751204
$GNGGA,140125.00,3531.47881009,N,12125.47006743,W,2,13,0.9,6.495,M,-36.232,M,4.0,0135*6C
$PYRTM,2024,124.584317341065,15.693964751204
$GNHDT,111.928,T*29
$PYRTM,2024,124.584323070463,15.693970480602
$GNGGA,140125.50,3531.47841978,N,12125.46877051,W,2,13,0.9,6.374,M,-36.232,M,4.4,0135*6D
$PYRTM,2024,124.584323070463,15.693970480602
$GNHDT,111.549,T*22
$PYRTM,2024,124.584328919838,15.693976329977
$GNGGA,140126.00,3531.47801457,N,12125.46747405,W,2,13,0.9,6.276,M,-36.232,M,5.0,0135*60
$PYRTM,2024,124.584328919838,15.693976329977
$GNHDT,111.243,T*2F
$PYRTM,2024,124.584334643079,15.693982053218
$GNGGA,140126.50,3531.47760207,N,12125.46618244,W,2,13,0.9,6.245,M,-36.232,M,5.4,0135*62
$PYRTM,2024,124.584334643079,15.693982053218
$GNHDT,110.869,T*2C
$PYRTM,2024,124.584340489421,15.693987899560
$GNGGA,140127.00,3531.47718523,N,12125.46489362,W,2,13,0.9,6.310,M,-36.232,M,6.0,0135*61
$PYRTM,2024,124.584340489421,15.693987899560
$GNHDT,110.801,T*22
$PYRTM,2024,124.584346219977,15.693993630127
$GNGGA,140127.50,3531.47677750,N,12125.46360639,W,2,13,0.9,6.479,M,-36.232,M,6.4,0135*6D
$PYRTM,2024,124.584346219977,15.693993630127
$GNHDT,110.810,T*22
$PYRTM,2024,124.584352063437,15.693999473576
$GNGGA,140128.00,3531.47638925,N,12125.46231085,W,2,13,0.9,6.717,M,-36.232,M,7.0,0135*6A
$PYRTM,2024,124.584352063437,15.693999473576
$GNHDT,111.046,T*28
$PYRTM,2024,124.584357795532,15.694005205671
$GNGGA,140128.50,3531.47602687,N,12125.46099963,W,2,13,0.9,6.979,M,-36.232,M,7.4,0135*62
$PYRTM,2024,124.584357795532,15.694005205671
$GNHDT,111.337,T*2D
$PYRTM,2024,124.584363637188,15.694011047326
$GNGGA,140129.00,3531.47568185,N,12125.45967666,W,2,13,0.9,7.205,M,-36.232,M,7.0,0135*68
$PYRTM,2024,124.584363637188,15.694011047326
$GNHDT,111.812,T*21
$PYRTM,2024,124.584369368634,15.694016778773
$GNGGA,140129.50,3531.47534415,N,12125.45834141,W,2,13,0.9,7.348,M,-36.232,M,7.4,0135*61
$PYRTM,2024,124.584369368634,15.694016778773
$GNHDT,112.253,T*2D
$PYRTM,2024,124.584375212697,15.694022622836
$GNGGA,140130.00,3531.47499742,N,12125.45700344,W,2,13,0.9,7.377,M,-36.232,M,7.0,0135*6C
$PYRTM,2024,124.584375212697,15.694022622836
$GNHDT,112.700,T*2E
$PYRTM,2024,124.584380939942,15.694028350081
$GNGGA,140130.50,3531.47462880,N,12125.45567403,W,2,13,0.9,7.320,M,-36.232,M,7.4,0135*6D
$PYRTM,2024,124.584380939942,15.694028350081
$GNHDT,112.935,T*26
$PYRTM,2024,124.584386787373,15.694034197512
$GNGGA,140131.00,3531.47423817,N,12125.45436296,W,2,13,0.9,7.170,M,-36.231,M,4.0,0135*6E
$PYRTM,2024,124.584386787373,15.694034197512
$GNHDT,113.215,T*2E
$PYRTM,2024,124.584392514433,15.694039924572
$GNGGA,140131.50,3531.47383651,N,12125.45305436,W,2,13,0.9,6.998,M,-36.231,M,4.4,0135*6A
$PYRTM,2024,124.584392514433,15.694039924572
$GNHDT,113.275,T*28
$PYRTM,2024,124.584398363762,15.694045773912
$GNGGA,140132.00,3531.47343339,N,12125.45173836,W,2,13,0.9,6.818,M,-36.231,M,5.0,0135*68
$PYRTM,2024,124.584398363762,15.694045773912
$GNHDT,113.290,T*23
$PYRTM,2024,124.584404096875,15.694051507014
$GNGGA,140132.50,3531.47305230,N,12125.45040488,W,2,13,0.9,6.662,M,-36.231,M,5.4,0135*68
$PYRTM,2024,124.584404096875,15.694051507014
$GNHDT,113.193,T*23
$PYRTM,2024,124.584409938819,15.694057348958
$GNGGA,140133.00,3531.47269615,N,12125.44905749,W,2,13,0.9,6.559,M,-36.231,M,6.0,0135*6F
$PYRTM,2024,124.584409938819,15.694057348958
$GNHDT,112.743,T*29
$PYRTM,2024,124.584415666806,15.694063076944
$GNGGA,140133.50,3531.47235842,N,12125.44769981,W,2,13,0.9,6.521,M,-36.231,M,6.4,0135*6A
$PYRTM,2024,124.584415666806,15.694063076944
$GNHDT,112.710,T*2F
$PYRTM,2024,124.584421508102,15.694068918241
$GNGGA,140134.00,3531.47203490,N,12125.44633922,W,2,13,0.9,6.558,M,-36.231,M,7.0,0135*62
$PYRTM,2024,124.584421508102,15.694068918241
$GNHDT,112.200,T*2B
$PYRTM,2024,124.584427237477,15.694074647616
$GNGGA,140134.50,3531.47171600,N,12125.44499164,W,2,13,0.9,6.662,M,-36.231,M,7.4,0135*6C
$PYRTM,2024,124.584427237477,15.694074647616
$GNHDT,112.080,T*21
$PYRTM,2024,124.584433087535,15.694080497674
$GNGGA,140135.00,3531.47139090,N,12125.44366681,W,2,13,0.9,6.810,M,-36.231,M,7.0,0135*6F
$PYRTM,2024,124.584433087535,15.694080497674
$GNHDT,111.799,T*2D
$PYRTM,2024,124.584438813009,15.694086223160
$GNGGA,140135.50,3531.47104616,N,12125.44236853,W,2,13,0.9,6.949,M,-36.231,M,7.4,0135*60
$PYRTM,2024,124.584438813009,15.694086223160
$GNHDT,111.365,T*2A
$PYRTM,2024,124.584444655359,15.694092065498
$GNGGA,140136.00,3531.47067071,N,12125.44108774,W,2,13,0.9,7.037,M,-36.231,M,7.0,0135*64
$PYRTM,2024,124.584444655359,15.694092065498
$GNHDT,111.022,T*2A
$PYRTM,2024,124.584450387211,15.694097797350
$GNGGA,140136.50,3531.47027293,N,12125.43981314,W,2,13,0.9,7.016,M,-36.231,M,7.4,0135*60
$PYRTM,2024,124.584450387211,15.694097797350
$GNHDT,110.685,T*20
$PYRTM,2024,124.584456232049,15.694103642188
$GNGGA,140137.00,3531.46986230,N,12125.43853532,W,2,13,0.9,6.891,M,-36.231,M,4.0,0135*63
$PYRTM,2024,124.584456232049,15.694103642188
$GNHDT,110.498,T*2E
$PYRTM,2024,124.584461960787,15.694109370926
$GNGGA,140137.50,3531.46945970,N,12125.43725774,W,2,13,0.9,6.699,M,-36.231,M,4.4,0135*6A
$PYRTM,2024,124.584461960787,15.694109370926
$GNHDT,110.828,T*29
$PYRTM,2024,124.584467803866,15.694115214005
$GNGGA,140138.00,3531.46907474,N,12125.43597892,W,2,13,0.9,6.518,M,-36.231,M,5.0,0135*6C
$PYRTM,2024,124.584467803866,15.694115214005
$GNHDT,110.650,T*28
$PYRTM,2024,124.584473532940,15.694120943079
$GNGGA,140138.50,3531.46870771,N,12125.43468974,W,2,13,0.9,6.408,M,-36.231,M,5.4,0135*62
$PYRTM,2024,124.584473532940,15.694120943079
$GNHDT,110.624,T*2B
$PYRTM,2024,124.584479380833,15.694126790984
$GNGGA,140139.00,3531.46836156,N,12125.43339033,W,2,13,0.9,6.400,M,-36.231,M,6.0,0135*61
$PYRTM,2024,124.584479380833,15.694126790984
$GNHDT,110.895,T*2F
$PYRTM,2024,124.584485110382,15.694132520521
$GNGGA,140139.50,3531.46803569,N,12125.43208163,W,2,13,0.9,6.490,M,-36.231,M,6.4,0135*60
$PYRTM,2024,124.584485110382,15.694132520521
$GNHDT,111.226,T*2C
$PYRTM,2024,124.584490952894,15.694138363032
$GNGGA,140140.00,3531.46772366,N,12125.43076102,W,2,13,0.9,6.654,M,-36.230,M,7.0,0135*69
$PYRTM,2024,124.584490952894,15.694138363032
$GNHDT,111.366,T*29
$PYRTM,2024,124.584496683310,15.694144093449
$GNGGA,140140.50,3531.46739688,N,12125.42943304,W,2,13,0.9,6.826,M,-36.230,M,7.4,0135*63
$PYRTM,2024,124.584496683310,15.694144093449
$GNHDT,111.685,T*21
$PYRTM,2024,124.584502529225,15.694149939363
$GNGGA,140141.00,3531.46704005,N,12125.42809389,W,2,13,0.9,6.942,M,-36.230,M,7.0,0135*67
$PYRTM,2024,124.584502529225,15.694149939363
$GNHDT,111.756,T*2E
$PYRTM,2024,124.584508256551,15.694155666690
$GNGGA,140141.50,3531.46665205,N,12125.42674733,W,2,13,0.9,6.981,M,-36.230,M,7.4,0135*6C
$PYRTM,2024,124.584508256551,15.694155666690
$GNHDT,111.575,T*2D
$PYRTM,2024,124.584514103843,15.694161513981
$GNGGA,140142.00,3531.46623774,N,12125.42539190,W,2,13,0.9,6.930,M,-36.230,M,7.0,0135*60
$PYRTM,2024,124.584514103843,15.694161513981
$GNHDT,111.578,T*20
$PYRTM,2024,124.584519829815,15.694167239954
$GNGGA,140142.50,3531.46581494,N,12125.42403260,W,2,13,0.9,6.845,M,-36.230,M,7.4,0135*60
$PYRTM,2024,124.584519829815,15.694167239954
$GNHDT,111.652,T*2B
$PYRTM,2024,124.584525676007,15.694173086157
$GNGGA,140143.00,3531.46540412,N,12125.42267195,W,2,13,0.9,6.760,M,-36.230,M,4.0,0135*65
$PYRTM,2024,124.584525676007,15.694173086157
$GNHDT,111.304,T*2D
$PYRTM,2024,124.584531405567,15.694178815706
$GNGGA,140143.50,3531.46502123,N,12125.42131249,W,2,13,0.9,6.729,M,-36.230,M,4.4,0135*6A
$PYRTM,2024,124.584531405567,15.694178815706
$GNHDT,110.818,T*2A
$PYRTM,2024,124.584537250451,15.694184660590
$GNGGA,140144.00,3531.46467179,N,12125.41995937,W,2,13,0.9,6.751,M,-36.230,M,5.0,0135*68
$PYRTM,2024,124.584537250451,15.694184660590
$GNHDT,110.590,T*27
$PYRTM,2024,124.584542980093,15.694190390231
$GNGGA,140144.50,3531.46436450,N,12125.41859824,W,2,13,0.9,6.807,M,-36.230,M,5.4,0135*6D
$PYRTM,2024,124.584542980093,15.694190390231
$GNHDT,110.387,T*27
$PYRTM,2024,124.584548828623,15.694196238762
$GNGGA,140145.00,3531.46407090,N,12125.41724042,W,2,13,0.9,6.870,M,-36.230,M,6.0,0135*69
$PYRTM,2024,124.584548828623,15.694196238762
$GNHDT,110.215,T*2D
$PYRTM,2024,124.584554552685,15.694201962824
$GNGGA,140145.50,3531.46376482,N,12125.41589867,W,2,13,0.9,6.893,M,-36.230,M,6.4,0135*69
$PYRTM,2024,124.584554552685,15.694201962824
$GNHDT,110.194,T*27
$PYRTM,2024,124.584560399236,15.694207809375
$GNGGA,140146.00,3531.46342210,N,12125.41458659,W,2,13,0.9,6.875,M,-36.230,M,7.0,0135*66
$PYRTM,2024,124.584560399236,15.694207809375
$GNHDT,110.245,T*28
$PYRTM,2024,124.584566130984,15.694213541123
$GNGGA,140146.50,3531.46303525,N,12125.41330663,W,2,13,0.9,6.809,M,-36.229,M,7.4,0135*60
$PYRTM,2024,124.584566130984,15.694213541123
$GNHDT,110.337,T*2C
$PYRTM,2024,124.584571975012,15.694219385150
$GNGGA,140147.00,3531.46262699,N,12125.41205932,W,2,13,0.9,6.704,M,-36.229,M,7.0,0135*6C
$PYRTM,2024,124.584571975012,15.694219385150
$GNHDT,110.554,T*2F
$PYRTM,2024,124.584577703819,15.694225113958
$GNGGA,140147.50,3531.46221915,N,12125.41082891,W,2,13,0.9,6.587,M,-36.229,M,7.4,0135*6D
$PYRTM,2024,124.584577703819,15.694225113958
$GNHDT,110.857,T*21
$PYRTM,2024,124.584583549537,15.694230959676
$GNGGA,140148.00,3531.46183633,N,12125.40958542,W,2,13,0.9,6.485,M,-36.229,M,7.0,0135*6C
$PYRTM,2024,124.584583549537,15.694230959676
$GNHDT,111.086,T*24
$PYRTM,2024,124.584589277847,15.694236687986
$GNGGA,140148.50,3531.46148485,N,12125.40831145,W,2,13,0.9,6.408,M,-36.229,M,7.4,0135*6D
$PYRTM,2024,124.584589277847,15.694236687986
$GNHDT,111.181,T*22
$PYRTM,2024,124.584595122546,15.694242532685
$GNGGA,140149.00,3531.46116579,N,12125.40700572,W,2,13,0.9,6.367,M,-36.229,M,4.0,0135*64
$PYRTM,2024,124.584595122546,15.694242532685
$GNHDT,111.242,T*2E
$PYRTM,2024,124.584600855116,15.694248265266
$GNGGA,140149.50,3531.46086915,N,12125.40567182,W,2,13,0.9,6.384,M,-36.229,M,4.4,0135*6E
$PYRTM,2024,124.584600855116,15.694248265266
$GNHDT,111.303,T*2A
$PYRTM,2024,124.584606695706,15.694254105845
$GNGGA,140150.00,3531.46058299,N,12125.40432683,W,2,13,0.9,6.481,M,-36.229,M,5.0,0135*6F
$PYRTM,2024,124.584606695706,15.694254105845
$GNHDT,110.963,T*27
$PYRTM,2024,124.584612427558,15.694259837697
$GNGGA,140150.50,3531.46028807,N,12125.40297824,W,2,13,0.9,6.640,M,-36.229,M,5.4,0135*61
$PYRTM,2024,124.584612427558,15.694259837697
$GNHDT,110.788,T*2C
$PYRTM,2024,124.584618273125,15.694265683264
$GNGGA,140151.00,3531.45997500,N,12125.40161903,W,2,13,0.9,6.829,M,-36.229,M,6.0,0135*69
$PYRTM,2024,124.584618273125,15.694265683264
$GNHDT,110.500,T*2E
$PYRTM,2024,124.584623997836,15.694271407986
$GNGGA,140151.50,3531.45965023,N,12125.40025103,W,2,13,0.9,7.018,M,-36.229,M,6.4,0135*63
$PYRTM,2024,124.584623997836,15.694271407986
$GNHDT,110.130,T*29
$PYRTM,2024,124.584629841771,15.694277251910
$GNGGA,140152.00,3531.45931129,N,12125.39887709,W,2,13,0.9,7.171,M,-36.229,M,7.0,0135*66
$PYRTM,2024,124.584629841771,15.694277251910
$GNHDT,109.759,T*28
$PYRTM,2024,124.584635573889,15.694282984028
$GNGGA,140152.50,3531.45895696,N,12125.39750769,W,2,13,0.9,7.270,M,-36.229,M,7.4,0135*6A
$PYRTM,2024,124.584635573889,15.694282984028
$GNHDT,109.635,T*23
$PYRTM,2024,124.584641424225,15.694288834363
$GNGGA,140153.00,3531.45858775,N,12125.39613897,W,2,13,0.9,7.310,M,-36.229,M,7.0,0135*68
$PYRTM,2024,124.584641424225,15.694288834363
$GNHDT,109.501,T*27
$PYRTM,2024,124.584647146563,15.694294556701
$GNGGA,140153.50,3531.45820945,N,12125.39477214,W,2,13,0.9,7.307,M,-36.229,M,7.4,0135*6C
$PYRTM,2024,124.584647146563,15.694294556701
$GNHDT,109.827,T*2E
$PYRTM,2024,124.584652991505,15.694300401644
$GNGGA,140154.00,3531.45782750,N,12125.39340707,W,2,13,0.9,7.255,M,-36.229,M,7.0,0135*65
$PYRTM,2024,124.584652991505,15.694300401644
$GNHDT,110.185,T*27
$PYRTM,2024,124.584658719988,15.694306130127
$GNGGA,140154.50,3531.45745552,N,12125.39204628,W,2,13,0.9,7.177,M,-36.229,M,7.4,0135*61
$PYRTM,2024,124.584658719988,15.694306130127
$GNHDT,110.423,T*2E
$PYRTM,2024,124.584664562905,15.694311973044
$GNGGA,140155.00,3531.45709960,N,12125.39067719,W,2,13,0.9,7.071,M,-36.229,M,4.0,0135*64
$PYRTM,2024,124.584664562905,15.694311973044
$GNHDT,110.638,T*26
$PYRTM,2024,124.584670299144,15.694317709282
$GNGGA,140155.50,3531.45676191,N,12125.38931237,W,2,13,0.9,6.959,M,-36.228,M,4.4,0135*6B
$PYRTM,2024,124.584670299144,15.694317709282
$GNHDT,110.821,T*20
$PYRTM,2024,124.584676139688,15.694323549826
$GNGGA,140156.00,3531.45643104,N,12125.38795733,W,2,13,0.9,6.836,M,-36.228,M,5.0,0135*6B
$PYRTM,2024,124.584676139688,15.694323549826
$GNHDT,111.305,T*2C
$PYRTM,2024,124.584681868380,15.694329278519
$GNGGA,140156.50,3531.45610815,N,12125.38662401,W,2,13,0.9,6.710,M,-36.228,M,5.4,0135*65
$PYRTM,2024,124.584681868380,15.694329278519
$GNHDT,111.351,T*2D
$PYRTM,2024,124.584687714294,15.694335124433
$GNGGA,140157.00,3531.45577996,N,12125.38531182,W,2,13,0.9,6.581,M,-36.228,M,6.0,0135*6F
$PYRTM,2024,124.584687714294,15.694335124433
$GNHDT,111.430,T*2D
$PYRTM,2024,124.584693441736,15.694340851875
$GNGGA,140157.50,3531.45544527,N,12125.38402056,W,2,13,0.9,6.460,M,-36.228,M,6.4,0135*6F
$PYRTM,2024,124.584693441736,15.694340851875
$GNHDT,111.455,T*2E
$PYRTM,2024,124.584699286192,15.694346696331
$GNGGA,140158.00,3531.45509615,N,12125.38274288,W,2,13,0.9,6.350,M,-36.228,M,7.0,0135*69
$PYRTM,2024,124.584699286192,15.694346696331
$GNHDT,111.215,T*2C
$PYRTM,2024,124.584705024329,15.694352434468
$GNGGA,140158.50,3531.45473248,N,12125.38147870,W,2,13,0.9,6.267,M,-36.228,M,7.4,0135*63
$PYRTM,2024,124.584705024329,15.694352434468
$GNHDT,110.959,T*2E
$PYRTM,2024,124.584710862743,15.694358272882
$GNGGA,140159.00,3531.45435756,N,12125.38022530,W,2,13,0.9,6.221,M,-36.228,M,7.0,0135*62
$PYRTM,2024,124.584710862743,15.694358272882
$GNHDT,110.910,T*23
$PYRTM,2024,124.584716593472,15.694364003611
$GNGGA,140159.50,3531.45399479,N,12125.37895927,W,2,13,0.9,6.240,M,-36.228,M,7.4,0135*6A
$PYRTM,2024,124.584716593472,15.694364003611
$GNHDT,110.747,T*2F
$PYRTM,2024,124.584722439167,15.694369849306
$GNGGA,140200.00,3531.45364894,N,12125.37767227,W,2,13,0.9,6.352,M,-36.228,M,7.0,0135*62
$PYRTM,2024,124.584722439167,15.694369849306
$GNHDT,110.640,T*29
$PYRTM,2024,124.584728165243,15.694375575382
$GNGGA,140200.50,3531.45331761,N,12125.37636235,W,2,13,0.9,6.528,M,-36.228,M,7.4,0135*6B
$PYRTM,2024,124.584728165243,15.694375575382
$GNHDT,110.514,T*2B
$PYRTM,2024,124.584734009491,15.694381419641
$GNGGA,140201.00,3531.45298379,N,12125.37503885,W,2,13,0.9,6.747,M,-36.228,M,4.0,0135*68
$PYRTM,2024,124.584734009491,15.694381419641
$GNHDT,110.599,T*2E
$PYRTM,2024,124.584739741817,15.694387151956
$GNGGA,140201.50,3531.45264393,N,12125.37370093,W,2,13,0.9,6.957,M,-36.228,M,4.4,0135*6C
$PYRTM,2024,124.584739741817,15.694387151956
$GNHDT,110.719,T*24
$PYRTM,2024,124.584745583935,15.694392994074
$GNGGA,140202.00,3531.45229170,N,12125.37235271,W,2,13,0.9,7.139,M,-36.228,M,5.0,0135*66
$PYRTM,2024,124.584745583935,15.694392994074
$GNHDT,110.627,T*28
$PYRTM,2024,124.584751316354,15.694398726493
$GNGGA,140202.50,3531.45192480,N,12125.37099300,W,2,13,0.9,7.249,M,-36.228,M,5.4,0135*69
$PYRTM,2024,124.584751316354,15.694398726493
$GNHDT,110.507,T*29
$PYRTM,2024,124.584757158079,15.694404568218
$GNGGA,140203.00,3531.45154364,N,12125.36962788,W,2,13,0.9,7.302,M,-36.228,M,6.0,0135*6B
$PYRTM,2024,124.584757158079,15.694404568218
$GNHDT,110.545,T*2F
$PYRTM,2024,124.584762887859,15.694410297998
$GNGGA,140203.50,3531.45116532,N,12125.36824588,W,2,13,0.9,7.307,M,-36.228,M,6.4,0135*6D
$PYRTM,2024,124.584762887859,15.694410297998
$GNHDT,110.350,T*2D
$PYRTM,2024,124.584768731065,15.694416141204
$GNGGA,140204.00,3531.45079175,N,12125.36684408,W,2,13,0.9,7.274,M,-36.227,M,7.0,0135*62
$PYRTM,2024,124.584768731065,15.694416141204
$GNHDT,110.732,T*2D
$PYRTM,2024,124.584774468819,15.694421878958
$GNGGA,140204.50,3531.45042806,N,12125.36543970,W,2,13,0.9,7.196,M,-36.227,M,7.4,0135*63
$PYRTM,2024,124.584774468819,15.694421878958
$GNHDT,110.607,T*2A
$PYRTM,2024,124.584780306076,15.694427716215
$GNGGA,140205.00,3531.45008277,N,12125.36403291,W,2,13,0.9,7.109,M,-36.227,M,7.0,0135*66
$PYRTM,2024,124.584780306076,15.694427716215
$GNHDT,110.658,T*20
$PYRTM,2024,124.584786038750,15.694433448900
$GNGGA,140205.50,3531.44975276,N,12125.36264039,W,2,13,0.9,7.038,M,-36.227,M,7.4,0135*60
$PYRTM,2024,124.584786038750,15.694433448900
$GNHDT,111.123,T*2A
$PYRTM,2024,124.584791883750,15.694439293889
$GNGGA,140206.00,3531.44942968,N,12125.36127800,W,2,13,0.9,6.986,M,-36.227,M,7.0,0135*69
$PYRTM,2024,124.584791883750,15.694439293889
$GNHDT,111.121,T*28
$PYRTM,2024,124.584797610521,15.694445020660
$GNGGA,140206.50,3531.44910504,N,12125.35994537,W,2,13,0.9,6.948,M,-36.227,M,7.4,0135*61
$PYRTM,2024,124.584797610521,15.694445020660
$GNHDT,111.557,T*2D
$PYRTM,2024,124.584803456273,15.694450866412
$GNGGA,140207.00,3531.44877069,N,12125.35863956,W,2,13,0.9,6.910,M,-36.227,M,4.0,0135*63
$PYRTM,2024,124.584803456273,15.694450866412
$GNHDT,111.849,T*2F
$PYRTM,2024,124.584809184560,15.694456594699
$GNGGA,140207.50,3531.44842969,N,12125.35735141,W,2,13,0.9,6.860,M,-36.227,M,4.4,0135*69
$PYRTM,2024,124.584809184560,15.694456594699
$GNHDT,112.011,T*29
$PYRTM,2024,124.584815030000,15.694462440139
$GNGGA,140208.00,3531.44808766,N,12125.35606644,W,2,13,0.9,6.799,M,-36.227,M,5.0,0135*63
$PYRTM,2024,124.584815030000,15.694462440139
$GNHDT,111.969,T*2C
$PYRTM,2024,124.584820757789,15.694468167928
$GNGGA,140208.50,3531.44774619,N,12125.35478030,W,2,13,0.9,6.728,M,-36.227,M,5.4,0135*6B
$PYRTM,2024,124.584820757789,15.694468167928
$GNHDT,111.688,T*2C
$PYRTM,2024,124.584826600775,15.694474010926
$GNGGA,140209.00,3531.44740610,N,12125.35348381,W,2,13,0.9,6.665,M,-36.227,M,6.0,0135*63
$PYRTM,2024,124.584826600775,15.694474010926
$GNHDT,111.487,T*21
$PYRTM,2024,124.584832335440,15.694479745579
$GNGGA,140209.50,3531.44706921,N,12125.35217917,W,2,13,0.9,6.622,M,-36.227,M,6.4,0135*60
$PYRTM,2024,124.584832335440,15.694479745579
$GNHDT,111.255,T*28
$PYRTM,2024,124.584838173796,15.694485583935
$GNGGA,140210.00,3531.44673654,N,12125.35086001,W,2,13,0.9,6.603,M,-36.227,M,7.0,0135*61
$PYRTM,2024,124.584838173796,15.694485583935
$GNHDT,110.859,T*2F
$PYRTM,2024,124.584843906088,15.694491316227
$GNGGA,140210.50,3531.44640760,N,12125.34952470,W,2,13,0.9,6.618,M,-36.227,M,7.4,0135*6F
$PYRTM,2024,124.584843906088,15.694491316227
$GNHDT,110.719,T*24
$PYRTM,2024,124.584849749375,15.694497159514
$GNGGA,140211.00,3531.44608178,N,12125.34817482,W,2,13,0.9,6.655,M,-36.226,M,7.0,0135*69
$PYRTM,2024,124.584849749375,15.694497159514
$GNHDT,110.604,T*29
$PYRTM,2024,124.584855479757,15.694502889896
$GNGGA,140211.50,3531.44575139,N,12125.34682387,W,2,13,0.9,6.713,M,-36.226,M,7.4,0135*67
$PYRTM,2024,124.584855479757,15.694502889896
$GNHDT,110.699,T*2D
$PYRTM,2024,124.584861328773,15.694508738912
$GNGGA,140212.00,3531.44539775,N,12125.34547998,W,2,13,0.9,6.789,M,-36.226,M,7.0,0135*6E
$PYRTM,2024,124.584861328773,15.694508738912
$GNHDT,110.968,T*2C
$PYRTM,2024,124.584867053565,15.694514463715
$GNGGA,140212.50,3531.44501650,N,12125.34414210,W,2,13,0.9,6.862,M,-36.226,M,7.4,0135*64
$PYRTM,2024,124.584867053565,15.694514463715
$GNHDT,111.051,T*2E
$PYRTM,2024,124.584872902801,15.694520312940
$GNGGA,140213.00,3531.44460358,N,12125.34280937,W,2,13,0.9,6.917,M,-36.226,M,4.0,0135*6A
$PYRTM,2024,124.584872902801,15.694520312940
$GNHDT,111.128,T*21
$PYRTM,2024,124.584878626991,15.694526037130
$GNGGA,140213.50,3531.44416644,N,12125.34147947,W,2,13,0.9,6.946,M,-36.226,M,4.4,0135*69
$PYRTM,2024,124.584878626991,15.694526037130
$GNHDT,111.225,T*2F
$PYRTM,2024,124.584884473113,15.694531883264
$GNGGA,140214.00,3531.44372168,N,12125.34014951,W,2,13,0.9,6.943,M,-36.226,M,5.0,0135*67
$PYRTM,2024,124.584884473113,15.694531883264
$GNHDT,111.328,T*23
$PYRTM,2024,124.584890206262,15.694537616400
$GNGGA,140214.50,3531.44329440,N,12125.33881712,W,2,13,0.9,6.932,M,-36.226,M,5.4,0135*6B
$PYRTM,2024,124.584890206262,15.694537616400
$GNHDT,111.591,T*27
$PYRTM,2024,124.584896047269,15.694543457407
$GNGGA,140215.00,3531.44290628,N,12125.33747102,W,2,13,0.9,6.903,M,-36.226,M,6.0,0135*67
$PYRTM,2024,124.584896047269,15.694543457407
$GNHDT,111.862,T*26
$PYRTM,2024,124.584901775625,15.694549185764
$GNGGA,140215.50,3531.44256171,N,12125.33611531,W,2,13,0.9,6.867,M,-36.226,M,6.4,0135*62
$PYRTM,2024,124.584901775625,15.694549185764
$GNHDT,111.769,T*22
$PYRTM,2024,124.584907623507,15.694555033646
$GNGGA,140216.00,3531.44224389,N,12125.33475821,W,2,13,0.9,6.836,M,-36.226,M,7.0,0135*69
$PYRTM,2024,124.584907623507,15.694555033646
$GNHDT,112.017,T*2F
$PYRTM,2024,124.584913357697,15.694560767836
$GNGGA,140216.50,3531.44193576,N,12125.33341358,W,2,13,0.9,6.818,M,-36.226,M,7.4,0135*68
$PYRTM,2024,124.584913357697,15.694560767836
$GNHDT,112.363,T*2F
$PYRTM,2024,124.584919196551,15.694566606690
$GNGGA,140217.00,3531.44162448,N,12125.33208315,W,2,13,0.9,6.808,M,-36.226,M,7.0,0135*6E
$PYRTM,2024,124.584919196551,15.694566606690
$GNHDT,112.211,T*2B
$PYRTM,2024,124.584924926030,15.694572336169
$GNGGA,140217.50,3531.44129205,N,12125.33076916,W,2,13,0.9,6.805,M,-36.226,M,7.4,0135*60
$PYRTM,2024,124.584924926030,15.694572336169
$GNHDT,112.101,T*29
$PYRTM,2024,124.584930773762,15.694578183912
$GNGGA,140218.00,3531.44093260,N,12125.32947147,W,2,13,0.9,6.800,M,-36.226,M,7.0,0135*6E
$PYRTM,2024,124.584930773762,15.694578183912
$GNHDT,111.924,T*25
$PYRTM,2024,124.584936500926,15.694583911065
$GNGGA,140218.50,3531.44055290,N,12125.32817541,W,2,13,0.9,6.780,M,-36.226,M,7.4,0135*6B
$PYRTM,2024,124.584936500926,15.694583911065
$GNHDT,111.783,T*26
$PYRTM,2024,124.584942345810,15.694589755949
$GNGGA,140219.00,3531.44016173,N,12125.32687393,W,2,13,0.9,6.750,M,-36.226,M,4.0,0135*62
$PYRTM,2024,124.584942345810,15.694589755949
$GNHDT,111.606,T*2A
$PYRTM,2024,124.584948072975,15.694595483113
$GNGGA,140219.50,3531.43977587,N,12125.32556016,W,2,13,0.9,6.726,M,-36.225,M,4.4,0135*66
$PYRTM,2024,124.584948072975,15.694595483113
$GNHDT,111.691,T*24
$PYRTM,2024,124.584953919178,15.694601329317
$GNGGA,140220.00,3531.43940994,N,12125.32423346,W,2,13,0.9,6.740,M,-36.225,M,5.0,0135*63
$PYRTM,2024,124.584953919178,15.694601329317
$GNHDT,111.686,T*22
$PYRTM,2024,124.584959656725,15.694607066863
$GNGGA,140220.50,3531.43907208,N,12125.32289425,W,2,13,0.9,6.797,M,-36.225,M,5.4,0135*61
$PYRTM,2024,124.584959656725,15.694607066863
$GNHDT,111.716,T*2A
$PYRTM,2024,124.584965498692,15.694612908831
$GNGGA,140221.00,3531.43874718,N,12125.32154091,W,2,13,0.9,6.894,M,-36.225,M,6.0,0135*67
$PYRTM,2024,124.584965498692,15.694612908831
$GNHDT,111.832,T*23
$PYRTM,2024,124.584971219468,15.694618629606
$GNGGA,140221.50,3531.43841733,N,12125.32017544,W,2,13,0.9,6.986,M,-36.225,M,6.4,0135*60
$PYRTM,2024,124.584971219468,15.694618629606
$GNHDT,111.717,T*2B
$PYRTM,2024,124.584977065301,15.694624475440
$GNGGA,140222.00,3531.43806813,N,12125.31880390,W,2,13,0.9,7.040,M,-36.225,M,7.0,0135*65
$PYRTM,2024,124.584977065301,15.694624475440
$GNHDT,111.644,T*2C
$PYRTM,2024,124.584982798148,15.694630208299
$GNGGA,140222.50,3531.43769606,N,12125.31743768,W,2,13,0.9,7.042,M,-36.225,M,7.4,0135*69
$PYRTM,2024,124.584982798148,15.694630208299
$GNHDT,111.724,T*2B
$PYRTM,2024,124.584988641065,15.694636051204
$GNGGA,140223.00,3531.43730233,N,12125.31607895,W,2,13,0.9,7.012,M,-36.225,M,7.0,0135*6E
$PYRTM,2024,124.584988641065,15.694636051204
$GNHDT,111.758,T*20
$PYRTM,2024,124.584994369676,15.694641779815
$GNGGA,140223.50,3531.43690638,N,12125.31473448,W,2,13,0.9,6.961,M,-36.225,M,7.4,0135*6A
$PYRTM,2024,124.584994369676,15.694641779815
$GNHDT,111.514,T*2A
$PYRTM,2024,124.585000214919,15.694647625058
$GNGGA,140224.00,3531.43651710,N,12125.31340537,W,2,13,0.9,6.922,M,-36.225,M,7.0,0135*63
$PYRTM,2024,124.585000214919,15.694647625058
$GNHDT,111.609,T*25
$PYRTM,2024,124.585005943426,15.694653353565
$GNGGA,140224.50,3531.43613697,N,12125.31208665,W,2,13,0.9,6.899,M,-36.225,M,7.4,0135*62
$PYRTM,2024,124.585005943426,15.694653353565
$GNHDT,111.461,T*29
$PYRTM,2024,124.585011788079,15.694659198218
$GNGGA,140225.00,3531.43576477,N,12125.31076707,W,2,13,0.9,6.889,M,-36.225,M,4.0,0135*62
$PYRTM,2024,124.585011788079,15.694659198218
$GNHDT,111.498,T*2F
$PYRTM,2024,124.585017524039,15.694664934178
$GNGGA,140225.50,3531.43540754,N,12125.30944130,W,2,13,0.9,6.863,M,-36.225,M,4.4,0135*6B
$PYRTM,2024,124.585017524039,15.694664934178
$GNHDT,111.584,T*23
$PYRTM,2024,124.585023367176,15.694670777315
$GNGGA,140226.00,3531.43506504,N,12125.30811502,W,2,13,0.9,6.821,M,-36.225,M,5.0,0135*6F
$PYRTM,2024,124.585023367176,15.694670777315
$GNHDT,111.404,T*2A
$PYRTM,2024,124.585029093808,15.694676503947
$GNGGA,140226.50,3531.43473014,N,12125.30679428,W,2,13,0.9,6.769,M,-36.225,M,5.4,0135*63
$PYRTM,2024,124.585029093808,15.694676503947
$GNHDT,111.495,T*22
$PYRTM,2024,124.585034934271,15.694682344410
$GNGGA,140227.00,3531.43439048,N,12125.30547917,W,2,13,0.9,6.705,M,-36.225,M,6.0,0135*62
$PYRTM,2024,124.585034934271,15.694682344410
$GNHDT,111.594,T*22
$PYRTM,2024,124.585040664444,15.694688074583
$GNGGA,140227.50,3531.43403740,N,12125.30416313,W,2,13,0.9,6.654,M,-36.225,M,6.4,0135*6B
$PYRTM,2024,124.585040664444,15.694688074583
$GNHDT,111.561,T*28
$PYRTM,2024,124.585046513067,15.694693923218
$GNGGA,140228.00,3531.43366880,N,12125.30284474,W,2,13,0.9,6.618,M,-36.225,M,7.0,0135*60
$PYRTM,2024,124.585046513067,15.694693923218
$GNHDT,111.410,T*2F
$PYRTM,2024,124.585052238044,15.694699648183
$GNGGA,140228.50,3531.43328902,N,12125.30152061,W,2,13,0.9,6.607,M,-36.224,M,7.4,0135*67
$PYRTM,2024,124.585052238044,15.694699648183
$GNHDT,111.336,T*2C
$PYRTM,2024,124.585058084525,15.694705494664
