$PYRTM,2024,124.833333447558,15.942980857697
$GNGGA,200000.00,3516.07003058,N,12111.60165244,W,2,10,1.1,6.225,M,-36.193,M,5.0,0131*64
$PYRTM,2024,124.833333447558,15.942980857697
$GNHDT,247.575,T*2D
$PYRTM,2024,124.833339186250,15.942986596389
$GNGGA,200000.50,3516.06964260,N,12111.60295837,W,2,10,1.1,6.198,M,-36.193,M,5.4,0131*62
$PYRTM,2024,124.833339186250,15.942986596389
$GNHDT,247.975,T*21
$PYRTM,2024,124.833345013021,15.942992423160
$GNGGA,200001.00,3516.06930566,N,12111.60428461,W,2,10,1.1,6.210,M,-36.193,M,6.0,0131*6D
$PYRTM,2024,124.833345013021,15.942992423160
$GNHDT,247.980,T*2B
$PYRTM,2024,124.833350755660,15.942998165810
$GNGGA,200001.50,3516.06897846,N,12111.60562376,W,2,10,1.1,6.262,M,-36.193,M,6.4,0131*64
$PYRTM,2024,124.833350755660,15.942998165810
$GNHDT,247.849,T*2F
$PYRTM,2024,124.833356594653,15.943004004792
$GNGGA,200002.00,3516.06864905,N,12111.60701941,W,2,10,1.1,6.190,M,-36.193,M,7.0,0131*6A
$PYRTM,2024,124.833356594653,15.943004004792
$GNHDT,248.023,T*24
$PYRTM,2024,124.833362327153,15.943009737292
$GNGGA,200002.50,3516.06828019,N,12111.60840854,W,2,10,1.1,6.131,M,-36.193,M,7.4,0131*63
$PYRTM,2024,124.833362327153,15.943009737292
$GNHDT,247.835,T*24
$PYRTM,2024,124.833368161690,15.943015571840
$GNGGA,200003.00,3516.06785781,N,12111.60974602,W,2,10,1.1,6.136,M,-36.193,M,7.0,0131*61
$PYRTM,2024,124.833368161690,15.943015571840
$GNHDT,247.899,T*22
$PYRTM,2024,124.833373903692,15.943021313843
$GNGGA,200003.50,3516.06738482,N,12111.61102836,W,2,10,1.1,6.276,M,-36.193,M,7.4,0131*60
$PYRTM,2024,124.833373903692,15.943021313843
$GNHDT,248.092,T*2E
$PYRTM,2024,124.833379740856,15.943027150995
$GNGGA,200004.00,3516.06689120,N,12111.61228107,W,2,10,1.1,6.470,M,-36.193,M,7.0,0131*60
$PYRTM,2024,124.833379740856,15.943027150995
$GNHDT,248.220,T*25
$PYRTM,2024,124.833385475590,15.943032885729
$GNGGA,200004.50,3516.06641845,N,12111.61355527,W,2,10,1.1,6.641,M,-36.193,M,7.4,0131*62
$PYRTM,2024,124.833385475590,15.943032885729
$GNHDT,248.366,T*26
$PYRTM,2024,124.833391311262,15.943038721400
$GNGGA,200005.00,3516.06599681,N,12111.61485610,W,2,10,1.1,6.737,M,-36.193,M,4.0,0131*6C
$PYRTM,2024,124.833391311262,15.943038721400
$GNHDT,248.573,T*24
$PYRTM,2024,124.833397052975,15.943044463113
$GNGGA,200005.50,3516.06562993,N,12111.61617258,W,2,10,1.1,6.780,M,-36.194,M,4.4,0131*6F
$PYRTM,2024,124.833397052975,15.943044463113
$GNHDT,248.497,T*2F
$PYRTM,2024,124.833402893808,15.943050303947
$GNGGA,200006.00,3516.06529692,N,12111.61749253,W,2,10,1.1,6.788,M,-36.194,M,5.0,0131*64
$PYRTM,2024,124.833402893808,15.943050303947
$GNHDT,248.532,T*21
$PYRTM,2024,124.833408628090,15.943056038229
$GNGGA,200006.50,3516.06496939,N,12111.61882328,W,2,10,1.1,6.775,M,-36.194,M,5.4,0131*69
$PYRTM,2024,124.833408628090,15.943056038229
$GNHDT,248.504,T*24
$PYRTM,2024,124.833414464178,15.943061874317
$GNGGA,200007.00,3516.06462742,N,12111.62015755,W,2,10,1.1,6.741,M,-36.194,M,6.0,0131*6F
$PYRTM,2024,124.833414464178,15.943061874317
$GNHDT,248.741,T*27
$PYRTM,2024,124.833420195567,15.943067605706
$GNGGA,200007.50,3516.06426627,N,12111.62148930,W,2,10,1.1,6.713,M,-36.194,M,6.4,0131*6F
$PYRTM,2024,124.833420195567,15.943067605706
$GNHDT,248.659,T*2F
$PYRTM,2024,124.833426035764,15.943073445903
$GNGGA,200008.00,3516.06387480,N,12111.62281647,W,2,10,1.1,6.663,M,-36.194,M,7.0,0131*6C
$PYRTM,2024,124.833426035764,15.943073445903
$GNHDT,248.741,T*27
$PYRTM,2024,124.833431780370,15.943079190509
$GNGGA,200008.50,3516.06345167,N,12111.62412740,W,2,10,1.1,6.602,M,-36.194,M,7.4,0131*62
$PYRTM,2024,124.833431780370,15.943079190509
$GNHDT,248.913,T*2E
$PYRTM,2024,124.833437606238,15.943085016377
$GNGGA,200009.00,3516.06300663,N,12111.62542118,W,2,10,1.1,6.553,M,-36.194,M,7.0,0131*68
$PYRTM,2024,124.833437606238,15.943085016377
$GNHDT,249.043,T*23
$PYRTM,2024,124.833443351863,15.943090762014
$GNGGA,200009.50,3516.06256498,N,12111.62671596,W,2,10,1.1,6.501,M,-36.194,M,7.4,0131*6B
$PYRTM,2024,124.833443351863,15.943090762014
$GNHDT,248.963,T*29
$PYRTM,2024,124.833449184375,15.943096594514
$GNGGA,200010.00,3516.06214994,N,12111.62802520,W,2,10,1.1,6.451,M,-36.195,M,7.0,0131*67
$PYRTM,2024,124.833449184375,15.943096594514
$GNHDT,249.239,T*2C
$PYRTM,2024,124.833454923831,15.943102333970
$GNGGA,200010.50,3516.06177616,N,12111.62934535,W,2,10,1.1,6.397,M,-36.195,M,7.4,0131*68
$PYRTM,2024,124.833454923831,15.943102333970
$GNHDT,249.160,T*23
$PYRTM,2024,124.833460758299,15.943108168438
$GNGGA,200011.00,3516.06142996,N,12111.63067685,W,2,10,1.1,6.359,M,-36.195,M,4.0,0131*6E
$PYRTM,2024,124.833460758299,15.943108168438
$GNHDT,249.142,T*23
$PYRTM,2024,124.833466492743,15.943113902882
$GNGGA,200011.50,3516.06107833,N,12111.63203303,W,2,10,1.1,6.350,M,-36.195,M,4.4,0131*62
$PYRTM,2024,124.833466492743,15.943113902882
$GNHDT,249.070,T*23
$PYRTM,2024,124.833472331991,15.943119742130
$GNGGA,200012.00,3516.06070183,N,12111.63340474,W,2,10,1.1,6.322,M,-36.195,M,5.0,0131*66
$PYRTM,2024,124.833472331991,15.943119742130
$GNHDT,249.015,T*20
$PYRTM,2024,124.833478066597,15.943125476736
$GNGGA,200012.50,3516.06030071,N,12111.63478787,W,2,10,1.1,6.238,M,-36.195,M,5.4,0131*66
$PYRTM,2024,124.833478066597,15.943125476736
$GNHDT,248.930,T*2F
$PYRTM,2024,124.833483906759,15.943131316898
$GNGGA,200013.00,3516.05987995,N,12111.63617262,W,2,10,1.1,6.131,M,-36.195,M,6.0,0131*6F
$PYRTM,2024,124.833483906759,15.943131316898
$GNHDT,249.167,T*24
$PYRTM,2024,124.833489642431,15.943137052569
$GNGGA,200013.50,3516.05944499,N,12111.63753831,W,2,10,1.1,6.088,M,-36.195,M,6.4,0131*6E
$PYRTM,2024,124.833489642431,15.943137052569
$GNHDT,248.971,T*2A
$PYRTM,2024,124.833495482685,15.943142892824
$GNGGA,200014.00,3516.05898844,N,12111.63885767,W,2,10,1.1,6.145,M,-36.195,M,7.0,0131*6D
$PYRTM,2024,124.833495482685,15.943142892824
$GNHDT,248.684,T*2F
$PYRTM,2024,124.833501218495,15.943148628634
$GNGGA,200014.50,3516.05853007,N,12111.64014320,W,2,10,1.1,6.316,M,-36.195,M,7.4,0131*60
$PYRTM,2024,124.833501218495,15.943148628634
$GNHDT,248.343,T*21
$PYRTM,2024,124.833507056782,15.943154466921
$GNGGA,200015.00,3516.05808352,N,12111.64142688,W,2,10,1.1,6.564,M,-36.195,M,7.0,0131*6B
$PYRTM,2024,124.833507056782,15.943154466921
$GNHDT,248.208,T*2F
$PYRTM,2024,124.833512789873,15.943160200012
$GNGGA,200015.50,3516.05766806,N,12111.64274548,W,2,10,1.1,6.761,M,-36.195,M,7.4,0131*69
$PYRTM,2024,124.833512789873,15.943160200012
$GNHDT,248.050,T*20
$PYRTM,2024,124.833518632593,15.943166042731
$GNGGA,200016.00,3516.05727725,N,12111.64410608,W,2,10,1.1,6.836,M,-36.195,M,7.0,0131*6E
$PYRTM,2024,124.833518632593,15.943166042731
$GNHDT,247.937,T*27
$PYRTM,2024,124.833524369028,15.943171779167
$GNGGA,200016.50,3516.05689674,N,12111.64549192,W,2,10,1.1,6.794,M,-36.196,M,7.4,0131*62
$PYRTM,2024,124.833524369028,15.943171779167
$GNHDT,247.904,T*27
$PYRTM,2024,124.833530204398,15.943177614537
$GNGGA,200017.00,3516.05652484,N,12111.64689705,W,2,10,1.1,6.608,M,-36.196,M,4.0,0131*69
$PYRTM,2024,124.833530204398,15.943177614537
$GNHDT,247.700,T*2D
$PYRTM,2024,124.833535940694,15.943183350833
$GNGGA,200017.50,3516.05615408,N,12111.64829423,W,2,10,1.1,6.408,M,-36.196,M,4.4,0131*6E
$PYRTM,2024,124.833535940694,15.943183350833
$GNHDT,247.659,T*20
$PYRTM,2024,124.833541776030,15.943189186169
$GNGGA,200018.00,3516.05577048,N,12111.64965309,W,2,10,1.1,6.279,M,-36.196,M,5.0,0131*60
$PYRTM,2024,124.833541776030,15.943189186169
$GNHDT,247.536,T*2A
$PYRTM,2024,124.833547514826,15.943194924965
$GNGGA,200018.50,3516.05535843,N,12111.65095829,W,2,10,1.1,6.312,M,-36.196,M,5.4,0131*66
$PYRTM,2024,124.833547514826,15.943194924965
$GNHDT,247.530,T*2C
$PYRTM,2024,124.833553354144,15.943200764282
$GNGGA,200019.00,3516.05491422,N,12111.65222171,W,2,10,1.1,6.519,M,-36.196,M,6.0,0131*66
$PYRTM,2024,124.833553354144,15.943200764282
$GNHDT,247.434,T*29
$PYRTM,2024,124.833559091354,15.943206501493
$GNGGA,200019.50,3516.05445320,N,12111.65346630,W,2,10,1.1,6.810,M,-36.196,M,6.4,0131*6E
$PYRTM,2024,124.833559091354,15.943206501493
$GNHDT,247.203,T*2B
$PYRTM,2024,124.833564926956,15.943212337095
$GNGGA,200020.00,3516.05400028,N,12111.65473612,W,2,10,1.1,7.063,M,-36.196,M,7.0,0131*62
$PYRTM,2024,124.833564926956,15.943212337095
$GNHDT,247.582,T*25
$PYRTM,2024,124.833570663750,15.943218073889
$GNGGA,200020.50,3516.05356996,N,12111.65605166,W,2,10,1.1,7.167,M,-36.196,M,7.4,0131*69
$PYRTM,2024,124.833570663750,15.943218073889
$GNHDT,247.940,T*27
$PYRTM,2024,124.833576499931,15.943223910069
$GNGGA,200021.00,3516.05316005,N,12111.65740004,W,2,10,1.1,7.108,M,-36.197,M,7.0,0131*63
$PYRTM,2024,124.833576499931,15.943223910069
$GNHDT,247.902,T*21
$PYRTM,2024,124.833582233194,15.943229643333
$GNGGA,200021.50,3516.05277443,N,12111.65877806,W,2,10,1.1,6.914,M,-36.197,M,7.4,0131*67
$PYRTM,2024,124.833582233194,15.943229643333
$GNHDT,247.877,T*22
$PYRTM,2024,124.833588072535,15.943235482674
$GNGGA,200022.00,3516.05240765,N,12111.66016662,W,2,10,1.1,6.649,M,-36.197,M,7.0,0131*61
$PYRTM,2024,124.833588072535,15.943235482674
$GNHDT,248.198,T*25
$PYRTM,2024,124.833593811250,15.943241221389
$GNGGA,200022.50,3516.05204744,N,12111.66154382,W,2,10,1.1,6.375,M,-36.197,M,7.4,0131*65
$PYRTM,2024,124.833593811250,15.943241221389
$GNHDT,248.260,T*21
$PYRTM,2024,124.833599644387,15.943247054525
$GNGGA,200023.00,3516.05168506,N,12111.66289703,W,2,10,1.1,6.180,M,-36.197,M,4.0,0131*6D
$PYRTM,2024,124.833599644387,15.943247054525
$GNHDT,248.659,T*2F
$PYRTM,2024,124.833605385278,15.943252795417
$GNGGA,200023.50,3516.05130942,N,12111.66422861,W,2,10,1.1,6.123,M,-36.197,M,4.4,0131*68
$PYRTM,2024,124.833605385278,15.943252795417
$GNHDT,248.915,T*28
$PYRTM,2024,124.833611227674,15.943258637813
$GNGGA,200024.00,3516.05090015,N,12111.66552658,W,2,10,1.1,6.220,M,-36.197,M,5.0,0131*6D
$PYRTM,2024,124.833611227674,15.943258637813
$GNHDT,249.036,T*21
$PYRTM,2024,124.833616955671,15.943264365822
$GNGGA,200024.50,3516.05044003,N,12111.66679255,W,2,10,1.1,6.462,M,-36.197,M,5.4,0131*61
$PYRTM,2024,124.833616955671,15.943264365822
$GNHDT,248.963,T*29
$PYRTM,2024,124.833622799097,15.943270209236
$GNGGA,200025.00,3516.04992506,N,12111.66803922,W,2,10,1.1,6.767,M,-36.197,M,6.0,0131*6F
$PYRTM,2024,124.833622799097,15.943270209236
$GNHDT,248.880,T*25
$PYRTM,2024,124.833628538958,15.943275949097
$GNGGA,200025.50,3516.04939175,N,12111.66931439,W,2,10,1.1,6.975,M,-36.197,M,6.4,0131*65
$PYRTM,2024,124.833628538958,15.943275949097
$GNHDT,248.633,T*23
$PYRTM,2024,124.833634370926,15.943281781065
$GNGGA,200026.00,3516.04889826,N,12111.67067242,W,2,10,1.1,6.967,M,-36.197,M,7.0,0131*61
$PYRTM,2024,124.833634370926,15.943281781065
$GNHDT,248.817,T*2B
$PYRTM,2024,124.833640105995,15.943287516134
$GNGGA,200026.50,3516.04847210,N,12111.67208588,W,2,10,1.1,6.772,M,-36.197,M,7.4,0131*6D
$PYRTM,2024,124.833640105995,15.943287516134
$GNHDT,249.218,T*2F
$PYRTM,2024,124.833645946250,15.943293356389
$GNGGA,200027.00,3516.04813441,N,12111.67353797,W,2,10,1.1,6.459,M,-36.197,M,7.0,0131*67
$PYRTM,2024,124.833645946250,15.943293356389
$GNHDT,249.344,T*27
$PYRTM,2024,124.833651677940,15.943299088079
$GNGGA,200027.50,3516.04785227,N,12111.67494502,W,2,10,1.1,6.208,M,-36.198,M,7.4,0131*6F
$PYRTM,2024,124.833651677940,15.943299088079
$GNHDT,249.235,T*20
$PYRTM,2024,124.833657515556,15.943304925694
$GNGGA,200028.00,3516.04757367,N,12111.67627354,W,2,10,1.1,6.162,M,-36.198,M,7.0,0131*6B
$PYRTM,2024,124.833657515556,15.943304925694
$GNHDT,249.258,T*2B
$PYRTM,2024,124.833663254028,15.943310664167
$GNGGA,200028.50,3516.04724057,N,12111.67756179,W,2,10,1.1,6.349,M,-36.198,M,7.4,0131*6F
$PYRTM,2024,124.833663254028,15.943310664167
$GNHDT,249.176,T*24
$PYRTM,2024,124.833669091505,15.943316501644
$GNGGA,200029.00,3516.04683048,N,12111.67883869,W,2,10,1.1,6.655,M,-36.198,M,4.0,0131*69
$PYRTM,2024,124.833669091505,15.943316501644
$GNHDT,249.100,T*25
$PYRTM,2024,124.833674834097,15.943322244236
$GNGGA,200029.50,3516.04636447,N,12111.68014581,W,2,10,1.1,6.924,M,-36.198,M,4.4,0131*66
$PYRTM,2024,124.833674834097,15.943322244236
$GNHDT,249.210,T*27
$PYRTM,2024,124.833680675231,15.943328085370
$GNGGA,200030.00,3516.04587942,N,12111.68147319,W,2,10,1.1,7.116,M,-36.198,M,5.0,0131*67
$PYRTM,2024,124.833680675231,15.943328085370
$GNHDT,249.275,T*24
$PYRTM,2024,124.833686403623,15.943333813762
$GNGGA,200030.50,3516.04541882,N,12111.68280978,W,2,10,1.1,7.196,M,-36.198,M,5.4,0131*6C
$PYRTM,2024,124.833686403623,15.943333813762
$GNHDT,249.393,T*2D
$PYRTM,2024,124.833692240694,15.943339650833
$GNGGA,200031.00,3516.04500031,N,12111.68414824,W,2,10,1.1,7.203,M,-36.198,M,6.0,0131*66
$PYRTM,2024,124.833692240694,15.943339650833
$GNHDT,249.195,T*29
$PYRTM,2024,124.833697979190,15.943345389329
$GNGGA,200031.50,3516.04463267,N,12111.68547833,W,2,10,1.1,7.175,M,-36.198,M,6.4,0131*61
$PYRTM,2024,124.833697979190,15.943345389329
$GNHDT,248.884,T*21
$PYRTM,2024,124.833703815312,15.943351225451
$GNGGA,200032.00,3516.04430225,N,12111.68682078,W,2,10,1.1,7.104,M,-36.199,M,7.0,0131*68
$PYRTM,2024,124.833703815312,15.943351225451
$GNHDT,248.802,T*2F
$PYRTM,2024,124.833709555856,15.943356965995
$GNGGA,200032.50,3516.04397320,N,12111.68816663,W,2,10,1.1,6.987,M,-36.199,M,7.4,0131*6A
$PYRTM,2024,124.833709555856,15.943356965995
$GNHDT,248.366,T*26
$PYRTM,2024,124.833715388183,15.943362798322
$GNGGA,200033.00,3516.04362921,N,12111.68953615,W,2,10,1.1,6.805,M,-36.199,M,7.0,0131*61
$PYRTM,2024,124.833715388183,15.943362798322
$GNHDT,248.284,T*2B
$PYRTM,2024,124.833721124896,15.943368535035
$GNGGA,200033.50,3516.04326799,N,12111.69091820,W,2,10,1.1,6.584,M,-36.199,M,7.4,0131*67
$PYRTM,2024,124.833721124896,15.943368535035
$GNHDT,248.551,T*24
$PYRTM,2024,124.833726960104,15.943374370243
$GNGGA,200034.00,3516.04288939,N,12111.69229959,W,2,10,1.1,6.354,M,-36.199,M,7.0,0131*65
$PYRTM,2024,124.833726960104,15.943374370243
$GNHDT,248.597,T*2E
$PYRTM,2024,124.833732696609,15.943380106759
$GNGGA,200034.50,3516.04248201,N,12111.69364441,W,2,10,1.1,6.244,M,-36.199,M,7.4,0131*64
$PYRTM,2024,124.833732696609,15.943380106759
$GNHDT,248.480,T*29
$PYRTM,2024,124.833738536956,15.943385947095
$GNGGA,200035.00,3516.04203437,N,12111.69492941,W,2,10,1.1,6.333,M,-36.199,M,4.0,0131*69
$PYRTM,2024,124.833738536956,15.943385947095
$GNHDT,248.366,T*26
$PYRTM,2024,124.833744275174,15.943391685313
$GNGGA,200035.50,3516.04155866,N,12111.69617257,W,2,10,1.1,6.558,M,-36.199,M,4.4,0131*68
$PYRTM,2024,124.833744275174,15.943391685313
$GNHDT,247.700,T*2D
$PYRTM,2024,124.833750110451,15.943397520590
$GNGGA,200036.00,3516.04106750,N,12111.69742587,W,2,10,1.1,6.791,M,-36.199,M,5.0,0131*6B
$PYRTM,2024,124.833750110451,15.943397520590
$GNHDT,247.581,T*26
$PYRTM,2024,124.833755848322,15.943403258472
$GNGGA,200036.50,3516.04058283,N,12111.69873807,W,2,10,1.1,6.908,M,-36.199,M,5.4,0131*6D
$PYRTM,2024,124.833755848322,15.943403258472
$GNHDT,247.822,T*22
$PYRTM,2024,124.833761688021,15.943409098160
$GNGGA,200037.00,3516.04012682,N,12111.70012960,W,2,10,1.1,6.819,M,-36.199,M,6.0,0131*63
$PYRTM,2024,124.833761688021,15.943409098160
$GNHDT,247.916,T*24
$PYRTM,2024,124.833767419803,15.943414829977
$GNGGA,200037.50,3516.03971547,N,12111.70153145,W,2,10,1.1,6.640,M,-36.199,M,6.4,0131*6A
$PYRTM,2024,124.833767419803,15.943414829977
$GNHDT,248.001,T*24
$PYRTM,2024,124.833773257419,15.943420667569
$GNGGA,200038.00,3516.03934068,N,12111.70291256,W,2,10,1.1,6.456,M,-36.199,M,7.0,0131*65
$PYRTM,2024,124.833773257419,15.943420667569
$GNHDT,247.949,T*2E
$PYRTM,2024,124.833778998171,15.943426408310
$GNGGA,200038.50,3516.03897587,N,12111.70425414,W,2,10,1.1,6.366,M,-36.200,M,7.4,0131*66
$PYRTM,2024,124.833778998171,15.943426408310
$GNHDT,247.647,T*2F
$PYRTM,2024,124.833784829815,15.943432239954
$GNGGA,200039.00,3516.03858730,N,12111.70555816,W,2,10,1.1,6.438,M,-36.200,M,7.0,0131*6F
$PYRTM,2024,124.833784829815,15.943432239954
$GNHDT,247.585,T*22
$PYRTM,2024,124.833790574549,15.943437984699
$GNGGA,200039.50,3516.03815523,N,12111.70683739,W,2,10,1.1,6.622,M,-36.200,M,7.4,0131*64
$PYRTM,2024,124.833790574549,15.943437984699
$GNHDT,247.554,T*2E
$PYRTM,2024,124.833796406493,15.943443816632
$GNGGA,200040.00,3516.03768735,N,12111.70811275,W,2,10,1.1,6.828,M,-36.200,M,7.0,0131*67
$PYRTM,2024,124.833796406493,15.943443816632
$GNHDT,247.656,T*2F
$PYRTM,2024,124.833802146412,15.943449556551
$GNGGA,200040.50,3516.03720916,N,12111.70942287,W,2,10,1.1,6.939,M,-36.200,M,7.4,0131*6E
$PYRTM,2024,124.833802146412,15.943449556551
$GNHDT,247.925,T*24
$PYRTM,2024,124.833807979688,15.943455389826
$GNGGA,200041.00,3516.03674959,N,12111.71077569,W,2,10,1.1,6.903,M,-36.200,M,4.0,0131*66
$PYRTM,2024,124.833807979688,15.943455389826
$GNHDT,248.178,T*2B
$PYRTM,2024,124.833813723900,15.943461134039
$GNGGA,200041.50,3516.03632083,N,12111.71216217,W,2,10,1.1,6.775,M,-36.200,M,4.4,0131*6F
$PYRTM,2024,124.833813723900,15.943461134039
$GNHDT,248.616,T*24
$PYRTM,2024,124.833819558900,15.943466969039
$GNGGA,200042.00,3516.03593863,N,12111.71353473,W,2,10,1.1,6.649,M,-36.200,M,5.0,0131*68
$PYRTM,2024,124.833819558900,15.943466969039
$GNHDT,248.821,T*2E
$PYRTM,2024,124.833825294479,15.943472704618
$GNGGA,200042.50,3516.03559715,N,12111.71485665,W,2,10,1.1,6.662,M,-36.200,M,5.4,0131*61
$PYRTM,2024,124.833825294479,15.943472704618
$GNHDT,248.856,T*2E
$PYRTM,2024,124.833831127998,15.943478538137
$GNGGA,200043.00,3516.03528012,N,12111.71611962,W,2,10,1.1,6.864,M,-36.201,M,6.0,0131*6A
$PYRTM,2024,124.833831127998,15.943478538137
$GNHDT,248.964,T*2E
$PYRTM,2024,124.833836865382,15.943484275521
$GNGGA,200043.50,3516.03495185,N,12111.71737243,W,2,10,1.1,7.154,M,-36.201,M,6.4,0131*65
$PYRTM,2024,124.833836865382,15.943484275521
$GNHDT,249.088,T*24
$PYRTM,2024,124.833842701076,15.943490111215
$GNGGA,200044.00,3516.03458623,N,12111.71865997,W,2,10,1.1,7.377,M,-36.201,M,7.0,0131*61
$PYRTM,2024,124.833842701076,15.943490111215
$GNHDT,249.120,T*27
$PYRTM,2024,124.833848440324,15.943495850463
$GNGGA,200044.50,3516.03416772,N,12111.71999164,W,2,10,1.1,7.444,M,-36.201,M,7.4,0131*6E
$PYRTM,2024,124.833848440324,15.943495850463
$GNHDT,249.372,T*22
$PYRTM,2024,124.833854281690,15.943501691829
$GNGGA,200045.00,3516.03371421,N,12111.72134480,W,2,10,1.1,7.331,M,-36.201,M,7.0,0131*6B
$PYRTM,2024,124.833854281690,15.943501691829
$GNHDT,249.411,T*20
$PYRTM,2024,124.833860013113,15.943507423252
$GNGGA,200045.50,3516.03326934,N,12111.72269161,W,2,10,1.1,7.132,M,-36.201,M,7.4,0131*61
$PYRTM,2024,124.833860013113,15.943507423252
$GNHDT,249.180,T*2D
$PYRTM,2024,124.833865850266,15.943513260405
$GNGGA,200046.00,3516.03286797,N,12111.72400676,W,2,10,1.1,6.906,M,-36.201,M,7.0,0131*69
$PYRTM,2024,124.833865850266,15.943513260405
$GNHDT,249.223,T*27
$PYRTM,2024,124.833871589491,15.943518999630
$GNGGA,200046.50,3516.03251728,N,12111.72530975,W,2,10,1.1,6.733,M,-36.201,M,7.4,0131*60
$PYRTM,2024,124.833871589491,15.943518999630
$GNHDT,249.470,T*27
$PYRTM,2024,124.833877422442,15.943524832581
$GNGGA,200047.00,3516.03219254,N,12111.72662093,W,2,10,1.1,6.637,M,-36.201,M,4.0,0131*61
$PYRTM,2024,124.833877422442,15.943524832581
$GNHDT,249.389,T*26
$PYRTM,2024,124.833883163507,15.943530573646
$GNGGA,200047.50,3516.03186605,N,12111.72793931,W,2,10,1.1,6.609,M,-36.202,M,4.4,0131*65
$PYRTM,2024,124.833883163507,15.943530573646
$GNHDT,249.371,T*21
$PYRTM,2024,124.833888999201,15.943536409340
$GNGGA,200048.00,3516.03151765,N,12111.72925677,W,2,10,1.1,6.650,M,-36.202,M,5.0,0131*65
$PYRTM,2024,124.833888999201,15.943536409340
$GNHDT,249.128,T*2F
$PYRTM,2024,124.833894738993,15.943542149132
$GNGGA,200048.50,3516.03113300,N,12111.73057589,W,2,10,1.1,6.726,M,-36.202,M,5.4,0131*6A
$PYRTM,2024,124.833894738993,15.943542149132
$GNHDT,249.156,T*26
$PYRTM,2024,124.833900574491,15.943547984630
$GNGGA,200049.00,3516.03069602,N,12111.73189694,W,2,10,1.1,6.774,M,-36.202,M,6.0,0131*68
$PYRTM,2024,124.833900574491,15.943547984630
$GNHDT,249.031,T*26
$PYRTM,2024,124.833906311875,15.943553722014
$GNGGA,200049.50,3516.03021072,N,12111.73322240,W,2,10,1.1,6.766,M,-36.202,M,6.4,0131*69
$PYRTM,2024,124.833906311875,15.943553722014
$GNHDT,248.717,T*24
$PYRTM,2024,124.833912148843,15.943559558981
$GNGGA,200050.00,3516.02970679,N,12111.73454099,W,2,10,1.1,6.753,M,-36.202,M,7.0,0131*66
$PYRTM,2024,124.833912148843,15.943559558981
$GNHDT,248.373,T*22
$PYRTM,2024,124.833917881991,15.943565292130
$GNGGA,200050.50,3516.02923421,N,12111.73585345,W,2,10,1.1,6.721,M,-36.202,M,7.4,0131*64
$PYRTM,2024,124.833917881991,15.943565292130
$GNHDT,248.483,T*2A
$PYRTM,2024,124.833923720012,15.943571130150
$GNGGA,200051.00,3516.02881705,N,12111.73717759,W,2,10,1.1,6.660,M,-36.202,M,7.0,0131*6C
$PYRTM,2024,124.833923720012,15.943571130150
$GNHDT,248.391,T*2E
$PYRTM,2024,124.833929454502,15.943576864641
$GNGGA,200051.50,3516.02845694,N,12111.73854229,W,2,10,1.1,6.525,M,-36.202,M,7.4,0131*64
$PYRTM,2024,124.833929454502,15.943576864641
$GNHDT,248.128,T*2E
$PYRTM,2024,124.833935299363,15.943582709502
$GNGGA,200052.00,3516.02814750,N,12111.73995576,W,2,10,1.1,6.334,M,-36.202,M,7.0,0131*6C
$PYRTM,2024,124.833935299363,15.943582709502
$GNHDT,248.151,T*20
$PYRTM,2024,124.833941035660,15.943588445799
$GNGGA,200052.50,3516.02782723,N,12111.74136974,W,2,10,1.1,6.207,M,-36.202,M,7.4,0131*60
$PYRTM,2024,124.833941035660,15.943588445799
$GNHDT,248.201,T*26
$PYRTM,2024,124.833946869109,15.943594279248
$GNGGA,200053.00,3516.02745400,N,12111.74272423,W,2,10,1.1,6.262,M,-36.202,M,4.0,0131*65
$PYRTM,2024,124.833946869109,15.943594279248
$GNHDT,248.028,T*2F
$PYRTM,2024,124.833952605174,15.943600015313
$GNGGA,200053.50,3516.02701439,N,12111.74402750,W,2,10,1.1,6.539,M,-36.202,M,4.4,0131*61
$PYRTM,2024,124.833952605174,15.943600015313
$GNHDT,247.766,T*2D
$PYRTM,2024,124.833958441609,15.943605851748
$GNGGA,200054.00,3516.02651817,N,12111.74528086,W,2,10,1.1,6.963,M,-36.203,M,5.0,0131*65
$PYRTM,2024,124.833958441609,15.943605851748
$GNHDT,247.554,T*2E
$PYRTM,2024,124.833964181597,15.943611591736
$GNGGA,200054.50,3516.02600512,N,12111.74652276,W,2,10,1.1,7.412,M,-36.203,M,5.4,0131*61
$PYRTM,2024,124.833964181597,15.943611591736
$GNHDT,247.718,T*24
$PYRTM,2024,124.833970019606,15.943617429745
$GNGGA,200055.00,3516.02551143,N,12111.74777430,W,2,10,1.1,7.764,M,-36.203,M,6.0,0131*65
$PYRTM,2024,124.833970019606,15.943617429745
$GNHDT,247.824,T*24
$PYRTM,2024,124.833975759294,15.943623169433
$GNGGA,200055.50,3516.02505812,N,12111.74907558,W,2,10,1.1,7.893,M,-36.203,M,6.4,0131*69
$PYRTM,2024,124.833975759294,15.943623169433
$GNHDT,247.381,T*20
$PYRTM,2024,124.833981596956,15.943629007095
$GNGGA,200056.00,3516.02465761,N,12111.75044224,W,2,10,1.1,7.669,M,-36.203,M,7.0,0131*6E
$PYRTM,2024,124.833981596956,15.943629007095
$GNHDT,247.491,T*26
$PYRTM,2024,124.833987335000,15.943634745139
$GNGGA,200056.50,3516.02429869,N,12111.75184313,W,2,10,1.1,7.259,M,-36.203,M,7.4,0131*6F
$PYRTM,2024,124.833987335000,15.943634745139
$GNHDT,247.551,T*2B
$PYRTM,2024,124.833993163044,15.943640573183
$GNGGA,200057.00,3516.02396538,N,12111.75322741,W,2,10,1.1,6.768,M,-36.203,M,7.0,0131*6E
$PYRTM,2024,124.833993163044,15.943640573183
$GNHDT,247.645,T*2D
$PYRTM,2024,124.833998905775,15.943646315914
$GNGGA,200057.50,3516.02363671,N,12111.75456196,W,2,10,1.1,6.423,M,-36.203,M,7.4,0131*6F
$PYRTM,2024,124.833998905775,15.943646315914
$GNHDT,247.765,T*2E
$PYRTM,2024,124.834004741343,15.943652151481
$GNGGA,200058.00,3516.02329533,N,12111.75584435,W,2,10,1.1,6.295,M,-36.203,M,7.0,0131*63
$PYRTM,2024,124.834004741343,15.943652151481
$GNHDT,247.819,T*2A
$PYRTM,2024,124.834010475336,15.943657885486
$GNGGA,200058.50,3516.02292042,N,12111.75710284,W,2,10,1.1,6.391,M,-36.204,M,7.4,0131*61
$PYRTM,2024,124.834010475336,15.943657885486
$GNHDT,247.843,T*25
$PYRTM,2024,124.834016312824,15.943663722963
$GNGGA,200059.00,3516.02250548,N,12111.75834867,W,2,10,1.1,6.683,M,-36.204,M,4.0,0131*6B
$PYRTM,2024,124.834016312824,15.943663722963
$GNHDT,248.201,T*26
$PYRTM,2024,124.834022056343,15.943669466481
$GNGGA,200059.50,3516.02205783,N,12111.75960964,W,2,10,1.1,6.997,M,-36.204,M,4.4,0131*67
$PYRTM,2024,124.834022056343,15.943669466481
$GNHDT,248.609,T*2A
$PYRTM,2024,124.834027885938,15.943675296076
$GNGGA,200100.00,3516.02159183,N,12111.76091283,W,2,10,1.1,7.230,M,-36.204,M,5.0,0131*67
$PYRTM,2024,124.834027885938,15.943675296076
$GNHDT,248.949,T*21
$PYRTM,2024,124.834033626181,15.943681036319
$GNGGA,200100.50,3516.02112272,N,12111.76224145,W,2,10,1.1,7.350,M,-36.204,M,5.4,0131*66
$PYRTM,2024,124.834033626181,15.943681036319
$GNHDT,248.984,T*20
$PYRTM,2024,124.834039462257,15.943686872407
$GNGGA,200101.00,3516.02067441,N,12111.76357039,W,2,10,1.1,7.341,M,-36.204,M,6.0,0131*6F
$PYRTM,2024,124.834039462257,15.943686872407
$GNHDT,248.932,T*2D
$PYRTM,2024,124.834045201829,15.943692611968
$GNGGA,200101.50,3516.02025916,N,12111.76489626,W,2,10,1.1,7.243,M,-36.204,M,6.4,0131*68
$PYRTM,2024,124.834045201829,15.943692611968
$GNHDT,249.003,T*27
$PYRTM,2024,124.834051034861,15.943698445000
$GNGGA,200102.00,3516.01988046,N,12111.76622317,W,2,10,1.1,7.065,M,-36.204,M,7.0,0131*68
$PYRTM,2024,124.834051034861,15.943698445000
$GNHDT,249.082,T*2E
$PYRTM,2024,124.834056776389,15.943704186528
$GNGGA,200102.50,3516.01953242,N,12111.76756212,W,2,10,1.1,6.848,M,-36.204,M,7.4,0131*69
$PYRTM,2024,124.834056776389,15.943704186528
$GNHDT,249.399,T*27
$PYRTM,2024,124.834062612188,15.943710022326
$GNGGA,200103.00,3516.01921585,N,12111.76891121,W,2,10,1.1,6.618,M,-36.204,M,7.0,0131*6C
$PYRTM,2024,124.834062612188,15.943710022326
$GNHDT,249.651,T*26
$PYRTM,2024,124.834068346204,15.943715756343
$GNGGA,200103.50,3516.01890238,N,12111.77025575,W,2,10,1.1,6.463,M,-36.204,M,7.4,0131*6A
$PYRTM,2024,124.834068346204,15.943715756343
$GNHDT,249.640,T*26
$PYRTM,2024,124.834074187836,15.943721597975
$GNGGA,200104.00,3516.01855640,N,12111.77159074,W,2,10,1.1,6.391,M,-36.204,M,7.0,0131*6A
$PYRTM,2024,124.834074187836,15.943721597975
$GNHDT,249.636,T*27
$PYRTM,2024,124.834079917801,15.943727327940
$GNGGA,200104.50,3516.01816040,N,12111.77291511,W,2,10,1.1,6.407,M,-36.204,M,7.4,0131*63
$PYRTM,2024,124.834079917801,15.943727327940
$GNHDT,249.746,T*21
$PYRTM,2024,124.834085758657,15.943733168796
$GNGGA,200105.00,3516.01771039,N,12111.77424622,W,2,10,1.1,6.477,M,-36.205,M,4.0,0131*6D
$PYRTM,2024,124.834085758657,15.943733168796
$GNHDT,249.838,T*27
$PYRTM,2024,124.834091496968,15.943738907106
$GNGGA,200105.50,3516.01723165,N,12111.77557310,W,2,10,1.1,6.592,M,-36.205,M,4.4,0131*68
$PYRTM,2024,124.834091496968,15.943738907106
$GNHDT,249.778,T*2C
$PYRTM,2024,124.834097333414,15.943744743553
$GNGGA,200106.00,3516.01674549,N,12111.77686820,W,2,10,1.1,6.789,M,-36.205,M,5.0,0131*6D
$PYRTM,2024,124.834097333414,15.943744743553
$GNHDT,249.755,T*23
$PYRTM,2024,124.834103071898,15.943750482037
$GNGGA,200106.50,3516.01627511,N,12111.77812998,W,2,10,1.1,7.030,M,-36.205,M,5.4,0131*62
$PYRTM,2024,124.834103071898,15.943750482037
$GNHDT,249.623,T*23
$PYRTM,2024,124.834108907882,15.943756318021
$GNGGA,200107.00,3516.01582800,N,12111.77938464,W,2,10,1.1,7.244,M,-36.205,M,6.0,0131*66
$PYRTM,2024,124.834108907882,15.943756318021
$GNHDT,249.201,T*27
$PYRTM,2024,124.834114644502,15.943762054641
$GNGGA,200107.50,3516.01542607,N,12111.78066918,W,2,10,1.1,7.347,M,-36.205,M,6.4,0131*6B
$PYRTM,2024,124.834114644502,15.943762054641
$GNHDT,248.756,T*21
$PYRTM,2024,124.834120484745,15.943767894884
$GNGGA,200108.00,3516.01509791,N,12111.78202979,W,2,10,1.1,7.205,M,-36.205,M,7.0,0131*65
$PYRTM,2024,124.834120484745,15.943767894884
$GNHDT,248.755,T*22
$PYRTM,2024,124.834126220000,15.943773630139
$GNGGA,200108.50,3516.01481788,N,12111.78345175,W,2,10,1.1,6.829,M,-36.205,M,7.4,0131*6E
$PYRTM,2024,124.834126220000,15.943773630139
$GNHDT,248.516,T*27
$PYRTM,2024,124.834132056632,15.943779466771
$GNGGA,200109.00,3516.01452939,N,12111.78490691,W,2,10,1.1,6.341,M,-36.205,M,7.0,0131*63
$PYRTM,2024,124.834132056632,15.943779466771
$GNHDT,248.306,T*20
$PYRTM,2024,124.834137790023,15.943785200162
$GNGGA,200109.50,3516.01417170,N,12111.78632259,W,2,10,1.1,5.949,M,-36.206,M,7.4,0131*6E
$PYRTM,2024,124.834137790023,15.943785200162
$GNHDT,248.323,T*27
$PYRTM,2024,124.834143628426,15.943791038565
$GNGGA,200110.00,3516.01372782,N,12111.78762223,W,2,10,1.1,5.899,M,-36.206,M,7.0,0131*6D
$PYRTM,2024,124.834143628426,15.943791038565
$GNHDT,247.980,T*2B
$PYRTM,2024,124.834149367789,15.943796777928
$GNGGA,200110.50,3516.01322450,N,12111.78881722,W,2,10,1.1,6.213,M,-36.206,M,7.4,0131*68
$PYRTM,2024,124.834149367789,15.943796777928
$GNHDT,247.646,T*2E
$PYRTM,2024,124.834155202697,15.943802612836
$GNGGA,200111.00,3516.01269864,N,12111.78997505,W,2,10,1.1,6.741,M,-36.206,M,4.0,0131*6D
$PYRTM,2024,124.834155202697,15.943802612836
$GNHDT,247.359,T*25
$PYRTM,2024,124.834160946910,15.943808357049
$GNGGA,200111.50,3516.01218462,N,12111.79116882,W,2,10,1.1,7.244,M,-36.206,M,4.4,0131*63
$PYRTM,2024,124.834160946910,15.943808357049
$GNHDT,247.416,T*29
$PYRTM,2024,124.834166784063,15.943814194201
$GNGGA,200112.00,3516.01170795,N,12111.79245116,W,2,10,1.1,7.516,M,-36.206,M,5.0,0131*67
$PYRTM,2024,124.834166784063,15.943814194201
$GNHDT,247.159,T*27
$PYRTM,2024,124.834172519525,15.943819929664
$GNGGA,200112.50,3516.01128333,N,12111.79383681,W,2,10,1.1,7.438,M,-36.206,M,5.4,0131*6C
$PYRTM,2024,124.834172519525,15.943819929664
$GNHDT,247.290,T*21
$PYRTM,2024,124.834178352639,15.943825762789
$GNGGA,200113.00,3516.01090852,N,12111.79528813,W,2,10,1.1,7.087,M,-36.206,M,6.0,0131*63
$PYRTM,2024,124.834178352639,15.943825762789
$GNHDT,247.181,T*22
$PYRTM,2024,124.834184088738,15.943831498877
$GNGGA,200113.50,3516.01054852,N,12111.79669037,W,2,10,1.1,6.691,M,-36.206,M,6.4,0131*62
$PYRTM,2024,124.834184088738,15.943831498877
$GNHDT,247.151,T*2F
$PYRTM,2024,124.834189926678,15.943837336817
$GNGGA,200114.00,3516.01019039,N,12111.79802087,W,2,10,1.1,6.378,M,-36.206,M,7.0,0131*63
$PYRTM,2024,124.834189926678,15.943837336817
$GNHDT,246.939,T*28
$PYRTM,2024,124.834195663275,15.943843073414
$GNGGA,200114.50,3516.00980654,N,12111.79927874,W,2,10,1.1,6.291,M,-36.206,M,7.4,0131*63
$PYRTM,2024,124.834195663275,15.943843073414
$GNHDT,247.113,T*29
$PYRTM,2024,124.834201500324,15.943848910463
$GNGGA,200115.00,3516.00938405,N,12111.80048471,W,2,10,1.1,6.403,M,-36.206,M,7.0,0131*64
$PYRTM,2024,124.834201500324,15.943848910463
$GNHDT,247.188,T*2B
$PYRTM,2024,124.834207236863,15.943854647002
$GNGGA,200115.50,3516.00893434,N,12111.80170946,W,2,10,1.1,6.591,M,-36.206,M,7.4,0131*6E
$PYRTM,2024,124.834207236863,15.943854647002
$GNHDT,247.117,T*2D
$PYRTM,2024,124.834213075150,15.943860485289
$GNGGA,200116.00,3516.00846400,N,12111.80296436,W,2,10,1.1,6.759,M,-36.206,M,7.0,0131*64
$PYRTM,2024,124.834213075150,15.943860485289
$GNHDT,247.288,T*28
$PYRTM,2024,124.834218807847,15.943866217986
$GNGGA,200116.50,3516.00799932,N,12111.80424923,W,2,10,1.1,6.816,M,-36.207,M,7.4,0131*67
$PYRTM,2024,124.834218807847,15.943866217986
$GNHDT,247.751,T*29
$PYRTM,2024,124.834224644549,15.943872054687
$GNGGA,200117.00,3516.00754015,N,12111.80553665,W,2,10,1.1,6.821,M,-36.207,M,4.0,0131*61
$PYRTM,2024,124.834224644549,15.943872054687
$GNHDT,247.882,T*28
$PYRTM,2024,124.834230384826,15.943877794965
$GNGGA,200117.50,3516.00708945,N,12111.80679733,W,2,10,1.1,6.851,M,-36.207,M,4.4,0131*6B
$PYRTM,2024,124.834230384826,15.943877794965
$GNHDT,248.108,T*2C
$PYRTM,2024,124.834236220475,15.943883630613
$GNGGA,200118.00,3516.00664163,N,12111.80803879,W,2,10,1.1,6.910,M,-36.207,M,5.0,0131*65
$PYRTM,2024,124.834236220475,15.943883630613
$GNHDT,248.171,T*22
$PYRTM,2024,124.834241959340,15.943889369479
$GNGGA,200118.50,3516.00618994,N,12111.80928786,W,2,10,1.1,6.975,M,-36.207,M,5.4,0131*6B
$PYRTM,2024,124.834241959340,15.943889369479
$GNHDT,248.303,T*25
$PYRTM,2024,124.834247796910,15.943895207060
$GNGGA,200119.00,3516.00574290,N,12111.81056257,W,2,10,1.1,6.996,M,-36.207,M,6.0,0131*6B
$PYRTM,2024,124.834247796910,15.943895207060
$GNHDT,248.462,T*25
$PYRTM,2024,124.834253533947,15.943900944086
$GNGGA,200119.50,3516.00530572,N,12111.81184867,W,2,10,1.1,6.960,M,-36.207,M,6.4,0131*6F
$PYRTM,2024,124.834253533947,15.943900944086
$GNHDT,248.790,T*2B
$PYRTM,2024,124.834259371968,15.943906782106
$GNGGA,200120.00,3516.00488123,N,12111.81312378,W,2,10,1.1,6.892,M,-36.207,M,7.0,0131*63
$PYRTM,2024,124.834259371968,15.943906782106
$GNHDT,248.818,T*24
$PYRTM,2024,124.834265111586,15.943912521736
$GNGGA,200120.50,3516.00448585,N,12111.81440765,W,2,10,1.1,6.764,M,-36.207,M,7.4,0131*68
$PYRTM,2024,124.834265111586,15.943912521736
$GNHDT,248.945,T*2D
$PYRTM,2024,124.834270949537,15.943918359676
$GNGGA,200121.00,3516.00410128,N,12111.81571932,W,2,10,1.1,6.577,M,-36.208,M,7.0,0131*66
$PYRTM,2024,124.834270949537,15.943918359676
$GNHDT,249.093,T*2E
$PYRTM,2024,124.834276680139,15.943924090278
$GNGGA,200121.50,3516.00371568,N,12111.81706629,W,2,10,1.1,6.358,M,-36.208,M,7.4,0131*6B
$PYRTM,2024,124.834276680139,15.943924090278
$GNHDT,249.205,T*23
$PYRTM,2024,124.834282519282,15.943929929421
$GNGGA,200122.00,3516.00330084,N,12111.81840705,W,2,10,1.1,6.238,M,-36.208,M,7.0,0131*6E
$PYRTM,2024,124.834282519282,15.943929929421
$GNHDT,249.363,T*22
$PYRTM,2024,124.834288254850,15.943935665000
$GNGGA,200122.50,3516.00283926,N,12111.81969033,W,2,10,1.1,6.353,M,-36.208,M,7.4,0131*63
$PYRTM,2024,124.834288254850,15.943935665000
$GNHDT,249.254,T*27
$PYRTM,2024,124.834294091435,15.943941501586
$GNGGA,200123.00,3516.00233025,N,12111.82089389,W,2,10,1.1,6.709,M,-36.208,M,4.0,0131*6C
$PYRTM,2024,124.834294091435,15.943941501586
$GNHDT,249.089,T*25
$PYRTM,2024,124.834299828391,15.943947238530
$GNGGA,200123.50,3516.00181155,N,12111.82207617,W,2,10,1.1,7.115,M,-36.208,M,4.4,0131*6D
$PYRTM,2024,124.834299828391,15.943947238530
$GNHDT,248.991,T*24
$PYRTM,2024,124.834305667627,15.943953077766
$GNGGA,200124.00,3516.00131114,N,12111.82328234,W,2,10,1.1,7.470,M,-36.208,M,5.0,0131*6B
$PYRTM,2024,124.834305667627,15.943953077766
$GNHDT,249.015,T*20
$PYRTM,2024,124.834311403935,15.943958814074
$GNGGA,200124.50,3516.00087015,N,12111.82461398,W,2,10,1.1,7.482,M,-36.208,M,5.4,0131*66
$PYRTM,2024,124.834311403935,15.943958814074
$GNHDT,249.293,T*2C
$PYRTM,2024,124.834317240046,15.943964650185
$GNGGA,200125.00,3516.00048934,N,12111.82601769,W,2,10,1.1,7.212,M,-36.208,M,6.0,0131*6D
$PYRTM,2024,124.834317240046,15.943964650185
$GNHDT,249.279,T*28
$PYRTM,2024,124.834322977384,15.943970387523
$GNGGA,200125.50,3516.00015026,N,12111.82741578,W,2,10,1.1,6.853,M,-36.208,M,6.4,0131*67
$PYRTM,2024,124.834322977384,15.943970387523
$GNHDT,249.013,T*26
$PYRTM,2024,124.834328817361,15.943976227500
$GNGGA,200126.00,3515.99983247,N,12111.82876225,W,2,10,1.1,6.596,M,-36.208,M,7.0,0131*64
$PYRTM,2024,124.834328817361,15.943976227500
$GNHDT,248.863,T*28
$PYRTM,2024,124.834334550324,15.943981960475
$GNGGA,200126.50,3515.99948926,N,12111.83001961,W,2,10,1.1,6.591,M,-36.208,M,7.4,0131*6B
$PYRTM,2024,124.834334550324,15.943981960475
$GNHDT,248.398,T*27
$PYRTM,2024,124.834340390058,15.943987800208
$GNGGA,200127.00,3515.99908157,N,12111.83120649,W,2,10,1.1,6.911,M,-36.208,M,7.0,0131*62
$PYRTM,2024,124.834340390058,15.943987800208
$GNHDT,248.326,T*22
$PYRTM,2024,124.834346124363,15.943993534502
$GNGGA,200127.50,3515.99861073,N,12111.83238423,W,2,10,1.1,7.285,M,-36.208,M,7.4,0131*69
$PYRTM,2024,124.834346124363,15.943993534502
$GNHDT,248.222,T*27
$PYRTM,2024,124.834351963380,15.943999373519
$GNGGA,200128.00,3515.99808236,N,12111.83360868,W,2,10,1.1,7.595,M,-36.209,M,7.0,0131*63
$PYRTM,2024,124.834351963380,15.943999373519
$GNHDT,248.201,T*26
$PYRTM,2024,124.834357696794,15.944005106933
$GNGGA,200128.50,3515.99754660,N,12111.83489520,W,2,10,1.1,7.652,M,-36.209,M,7.4,0131*6A
$PYRTM,2024,124.834357696794,15.944005106933
$GNHDT,248.151,T*20
$PYRTM,2024,124.834363535880,15.944010946019
$GNGGA,200129.00,3515.99705265,N,12111.83622390,W,2,10,1.1,7.537,M,-36.209,M,4.0,0131*62
$PYRTM,2024,124.834363535880,15.944010946019
$GNHDT,248.116,T*23
$PYRTM,2024,124.834369270451,15.944016680590
$GNGGA,200129.50,3515.99661752,N,12111.83756341,W,2,10,1.1,7.326,M,-36.209,M,4.4,0131*69
$PYRTM,2024,124.834369270451,15.944016680590
$GNHDT,248.038,T*2E
$PYRTM,2024,124.834375111435,15.944022521574
$GNGGA,200130.00,3515.99623979,N,12111.83888653,W,2,10,1.1,7.111,M,-36.209,M,5.0,0131*6C
$PYRTM,2024,124.834375111435,15.944022521574
$GNHDT,247.992,T*28
$PYRTM,2024,124.834380848970,15.944028259109
$GNGGA,200130.50,3515.99589101,N,12111.84018138,W,2,10,1.1,6.974,M,-36.209,M,5.4,0131*6F
$PYRTM,2024,124.834380848970,15.944028259109
$GNHDT,247.805,T*27
$PYRTM,2024,124.834386682454,15.944034092593
$GNGGA,200131.00,3515.99553971,N,12111.84146280,W,2,10,1.1,6.961,M,-36.209,M,6.0,0131*6A
$PYRTM,2024,124.834386682454,15.944034092593
$GNHDT,247.721,T*2E
$PYRTM,2024,124.834392418090,15.944039828229
$GNGGA,200131.50,3515.99514124,N,12111.84273588,W,2,10,1.1,7.056,M,-36.209,M,6.4,0131*66
$PYRTM,2024,124.834392418090,15.944039828229
$GNHDT,247.901,T*22
$PYRTM,2024,124.834398260799,15.944045670938
$GNGGA,200132.00,3515.99469671,N,12111.84399666,W,2,10,1.1,7.231,M,-36.209,M,7.0,0131*6C
$PYRTM,2024,124.834398260799,15.944045670938
$GNHDT,248.045,T*24
$PYRTM,2024,124.834403996192,15.944051406331
$GNGGA,200132.50,3515.99421167,N,12111.84525550,W,2,10,1.1,7.403,M,-36.210,M,7.4,0131*69
$PYRTM,2024,124.834403996192,15.944051406331
$GNHDT,247.932,T*22
$PYRTM,2024,124.834409833785,15.944057243924
$GNGGA,200133.00,3515.99371471,N,12111.84653255,W,2,10,1.1,7.493,M,-36.210,M,7.0,0131*60
$PYRTM,2024,124.834409833785,15.944057243924
$GNHDT,248.096,T*2A
$PYRTM,2024,124.834415569838,15.944062979977
$GNGGA,200133.50,3515.99322549,N,12111.84781781,W,2,10,1.1,7.511,M,-36.210,M,7.4,0131*64
$PYRTM,2024,124.834415569838,15.944062979977
$GNHDT,248.244,T*27
$PYRTM,2024,124.834421406181,15.944068816319
$GNGGA,200134.00,3515.99277529,N,12111.84913113,W,2,10,1.1,7.424,M,-36.210,M,7.0,0131*6A
$PYRTM,2024,124.834421406181,15.944068816319
$GNHDT,248.388,T*26
$PYRTM,2024,124.834427143009,15.944074553148
$GNGGA,200134.50,3515.99235959,N,12111.85045817,W,2,10,1.1,7.327,M,-36.210,M,7.4,0131*64
$PYRTM,2024,124.834427143009,15.944074553148
$GNHDT,248.639,T*29
$PYRTM,2024,124.834432980185,15.944080390324
$GNGGA,200135.00,3515.99195777,N,12111.85178676,W,2,10,1.1,7.218,M,-36.210,M,4.0,0131*67
$PYRTM,2024,124.834432980185,15.944080390324
$GNHDT,249.043,T*23
$PYRTM,2024,124.834438714722,15.944086124873
$GNGGA,200135.50,3515.99155737,N,12111.85309901,W,2,10,1.1,7.173,M,-36.210,M,4.4,0131*6B
$PYRTM,2024,124.834438714722,15.944086124873
$GNHDT,248.676,T*22
$PYRTM,2024,124.834444556678,15.944091966817
$GNGGA,200136.00,3515.99115429,N,12111.85439737,W,2,10,1.1,7.159,M,-36.210,M,5.0,0131*67
$PYRTM,2024,124.834444556678,15.944091966817
$GNHDT,248.823,T*2C
$PYRTM,2024,124.834450292512,15.944097702650
$GNGGA,200136.50,3515.99073789,N,12111.85568044,W,2,10,1.1,7.214,M,-36.210,M,5.4,0131*62
$PYRTM,2024,124.834450292512,15.944097702650
$GNHDT,249.284,T*2A
$PYRTM,2024,124.834456130139,15.944103540278
$GNGGA,200137.00,3515.99031264,N,12111.85696465,W,2,10,1.1,7.248,M,-36.211,M,6.0,0131*6C
$PYRTM,2024,124.834456130139,15.944103540278
$GNHDT,249.496,T*2F
$PYRTM,2024,124.834461863692,15.944109273831
$GNGGA,200137.50,3515.98987948,N,12111.85825171,W,2,10,1.1,7.301,M,-36.211,M,6.4,0131*67
$PYRTM,2024,124.834461863692,15.944109273831
$GNHDT,249.454,T*21
$PYRTM,2024,124.834467706481,15.944115116620
$GNGGA,200138.00,3515.98943202,N,12111.85952266,W,2,10,1.1,7.383,M,-36.211,M,7.0,0131*6B
$PYRTM,2024,124.834467706481,15.944115116620
$GNHDT,249.485,T*2D
$PYRTM,2024,124.834473440706,15.944120850845
$GNGGA,200138.50,3515.98898719,N,12111.86079395,W,2,10,1.1,7.474,M,-36.211,M,7.4,0131*63
$PYRTM,2024,124.834473440706,15.944120850845
$GNHDT,249.684,T*2E
$PYRTM,2024,124.834479277812,15.944126687951
$GNGGA,200139.00,3515.98854715,N,12111.86208562,W,2,10,1.1,7.510,M,-36.211,M,7.0,0131*66
$PYRTM,2024,124.834479277812,15.944126687951
$GNHDT,249.546,T*23
$PYRTM,2024,124.834485017072,15.944132427211
$GNGGA,200139.50,3515.98811501,N,12111.86339385,W,2,10,1.1,7.476,M,-36.211,M,7.4,0131*6C
$PYRTM,2024,124.834485017072,15.944132427211
$GNHDT,249.381,T*2E
$PYRTM,2024,124.834490850914,15.944138261053
$GNGGA,200140.00,3515.98768889,N,12111.86472099,W,2,10,1.1,7.365,M,-36.211,M,7.0,0131*6C
$PYRTM,2024,124.834490850914,15.944138261053
$GNHDT,249.263,T*23
$PYRTM,2024,124.834496591447,15.944144001586
$GNGGA,200140.50,3515.98726504,N,12111.86605506,W,2,10,1.1,7.209,M,-36.211,M,7.4,0131*65
$PYRTM,2024,124.834496591447,15.944144001586
$GNHDT,249.285,T*2B
$PYRTM,2024,124.834502423889,15.944149834028
$GNGGA,200141.00,3515.98682987,N,12111.86739135,W,2,10,1.1,7.026,M,-36.211,M,4.0,0131*6B
$PYRTM,2024,124.834502423889,15.944149834028
$GNHDT,249.105,T*20
$PYRTM,2024,124.834508165312,15.944155575463
$GNGGA,200141.50,3515.98639051,N,12111.86871088,W,2,10,1.1,6.917,M,-36.211,M,4.4,0131*66
$PYRTM,2024,124.834508165312,15.944155575463
$GNHDT,248.988,T*2C
$PYRTM,2024,124.834513997766,15.944161407905
$GNGGA,200142.00,3515.98595529,N,12111.87001061,W,2,10,1.1,6.906,M,-36.211,M,5.0,0131*63
$PYRTM,2024,124.834513997766,15.944161407905
$GNHDT,249.105,T*20
$PYRTM,2024,124.834519734167,15.944167144306
$GNGGA,200142.50,3515.98554588,N,12111.87130796,W,2,10,1.1,6.982,M,-36.211,M,5.4,0131*64
$PYRTM,2024,124.834519734167,15.944167144306
$GNHDT,249.129,T*2E
$PYRTM,2024,124.834525577060,15.944172987199
$GNGGA,200143.00,3515.98515949,N,12111.87261545,W,2,10,1.1,7.091,M,-36.211,M,6.0,0131*62
$PYRTM,2024,124.834525577060,15.944172987199
$GNHDT,249.037,T*20
$PYRTM,2024,124.834531314896,15.944178725035
$GNGGA,200143.50,3515.98476920,N,12111.87394153,W,2,10,1.1,7.206,M,-36.211,M,6.4,0131*6C
$PYRTM,2024,124.834531314896,15.944178725035
$GNHDT,248.553,T*26
$PYRTM,2024,124.834537147164,15.944184557303
$GNGGA,200144.00,3515.98435575,N,12111.87528060,W,2,10,1.1,7.251,M,-36.212,M,7.0,0131*61
$PYRTM,2024,124.834537147164,15.944184557303
$GNHDT,248.533,T*20
$PYRTM,2024,124.834542884155,15.944190294294
$GNGGA,200144.50,3515.98391147,N,12111.87662186,W,2,10,1.1,7.233,M,-36.212,M,7.4,0131*6C
$PYRTM,2024,124.834542884155,15.944190294294
$GNHDT,248.664,T*21
$PYRTM,2024,124.834548722350,15.944196132488
$GNGGA,200145.00,3515.98343686,N,12111.87795446,W,2,10,1.1,7.171,M,-36.212,M,7.0,0131*6C
$PYRTM,2024,124.834548722350,15.944196132488
$GNHDT,248.586,T*2E
$PYRTM,2024,124.834554457593,15.944201867731
$GNGGA,200145.50,3515.98294117,N,12111.87928969,W,2,10,1.1,7.075,M,-36.212,M,7.4,0131*64
$PYRTM,2024,124.834554457593,15.944201867731
$GNHDT,248.660,T*25
$PYRTM,2024,124.834560296574,15.944207706713
$GNGGA,200146.00,3515.98245152,N,12111.88062026,W,2,10,1.1,7.013,M,-36.212,M,7.0,0131*61
$PYRTM,2024,124.834560296574,15.944207706713
$GNHDT,248.413,T*23
$PYRTM,2024,124.834566030162,15.944213440301
$GNGGA,200146.50,3515.98199800,N,12111.88192785,W,2,10,1.1,7.030,M,-36.212,M,7.4,0131*6D
$PYRTM,2024,124.834566030162,15.944213440301
$GNHDT,248.213,T*25
$PYRTM,2024,124.834571879352,15.944219289491
$GNGGA,200147.00,3515.98157399,N,12111.88319667,W,2,10,1.1,7.198,M,-36.212,M,4.0,0131*68
$PYRTM,2024,124.834571879352,15.944219289491
$GNHDT,248.151,T*20
$PYRTM,2024,124.834577609444,15.944225019583
$GNGGA,200147.50,3515.98116095,N,12111.88444126,W,2,10,1.1,7.456,M,-36.212,M,4.4,0131*69
$PYRTM,2024,124.834577609444,15.944225019583
$GNHDT,247.605,T*29
$PYRTM,2024,124.834583450116,15.944230860266
$GNGGA,200148.00,3515.98073497,N,12111.88570168,W,2,10,1.1,7.672,M,-36.212,M,5.0,0131*6A
$PYRTM,2024,124.834583450116,15.944230860266
$GNHDT,247.812,T*21
$PYRTM,2024,124.834589180671,15.944236590810
$GNGGA,200148.50,3515.98029462,N,12111.88702514,W,2,10,1.1,7.668,M,-36.213,M,5.4,0131*6C
$PYRTM,2024,124.834589180671,15.944236590810
$GNHDT,247.440,T*2A
$PYRTM,2024,124.834595024086,15.944242434236
$GNGGA,200149.00,3515.97984261,N,12111.88839209,W,2,10,1.1,7.418,M,-36.213,M,6.0,0131*62
$PYRTM,2024,124.834595024086,15.944242434236
$GNHDT,247.340,T*2D
$PYRTM,2024,124.834600754352,15.944248164491
$GNGGA,200149.50,3515.97940043,N,12111.88974870,W,2,10,1.1,7.125,M,-36.213,M,6.4,0131*6E
$PYRTM,2024,124.834600754352,15.944248164491
$GNHDT,248.126,T*20
$PYRTM,2024,124.834606589792,15.944253999931
$GNGGA,200150.00,3515.97897841,N,12111.89108422,W,2,10,1.1,6.834,M,-36.213,M,7.0,0131*66
$PYRTM,2024,124.834606589792,15.944253999931
$GNHDT,248.287,T*28
$PYRTM,2024,124.834612325567,15.944259735718
$GNGGA,200150.50,3515.97856395,N,12111.89238635,W,2,10,1.1,6.665,M,-36.213,M,7.4,0131*66
$PYRTM,2024,124.834612325567,15.944259735718
$GNHDT,248.173,T*20
$PYRTM,2024,124.834618168032,15.944265578183
$GNGGA,200151.00,3515.97812355,N,12111.89362970,W,2,10,1.1,6.733,M,-36.213,M,7.0,0131*68
$PYRTM,2024,124.834618168032,15.944265578183
$GNHDT,248.084,T*29
$PYRTM,2024,124.834623903715,15.944271313854
$GNGGA,200151.50,3515.97765636,N,12111.89484376,W,2,10,1.1,6.970,M,-36.213,M,7.4,0131*6C
$PYRTM,2024,124.834623903715,15.944271313854
$GNHDT,248.175,T*26
$PYRTM,2024,124.834629740058,15.944277150197
$GNGGA,200152.00,3515.97718012,N,12111.89606782,W,2,10,1.1,7.268,M,-36.213,M,7.0,0131*60
$PYRTM,2024,124.834629740058,15.944277150197
$GNHDT,248.110,T*25
$PYRTM,2024,124.834635476736,15.944282886875
$GNGGA,200152.50,3515.97670774,N,12111.89734825,W,2,10,1.1,7.460,M,-36.213,M,7.4,0131*65
$PYRTM,2024,124.834635476736,15.944282886875
$GNHDT,248.254,T*26
$PYRTM,2024,124.834641314155,15.944288724294
$GNGGA,200153.00,3515.97623815,N,12111.89869265,W,2,10,1.1,7.463,M,-36.213,M,4.0,0131*62
$PYRTM,2024,124.834641314155,15.944288724294
$GNHDT,248.489,T*20
$PYRTM,2024,124.834647049248,15.944294459387
$GNGGA,200153.50,3515.97576659,N,12111.90006660,W,2,10,1.1,7.314,M,-36.213,M,4.4,0131*69
$PYRTM,2024,124.834647049248,15.944294459387
$GNHDT,248.256,T*24
$PYRTM,2024,124.834652890336,15.944300300486
$GNGGA,200154.00,3515.97529805,N,12111.90142808,W,2,10,1.1,7.130,M,-36.213,M,5.0,0131*66
$PYRTM,2024,124.834652890336,15.944300300486
$GNHDT,248.323,T*27
$PYRTM,2024,124.834658625891,15.944306036042
$GNGGA,200154.50,3515.97484817,N,12111.90274889,W,2,10,1.1,6.991,M,-36.213,M,5.4,0131*6F
$PYRTM,2024,124.834658625891,15.944306036042
$GNHDT,248.260,T*21
$PYRTM,2024,124.834664460926,15.944311871065
$GNGGA,200155.00,3515.97442600,N,12111.90404051,W,2,10,1.1,6.961,M,-36.214,M,6.0,0131*6A
$PYRTM,2024,124.834664460926,15.944311871065
$GNHDT,248.289,T*26
$PYRTM,2024,124.834670199525,15.944317609664
$GNGGA,200155.50,3515.97401558,N,12111.90533239,W,2,10,1.1,6.995,M,-36.214,M,6.4,0131*60
$PYRTM,2024,124.834670199525,15.944317609664
$GNHDT,248.563,T*25
$PYRTM,2024,124.834676034942,15.944323445081
$GNGGA,200156.00,3515.97358882,N,12111.90662843,W,2,10,1.1,7.066,M,-36.214,M,7.0,0131*66
$PYRTM,2024,124.834676034942,15.944323445081
$GNHDT,248.613,T*21
$PYRTM,2024,124.834681775000,15.944329185139
$GNGGA,200156.50,3515.97313301,N,12111.90791421,W,2,10,1.1,7.184,M,-36.214,M,7.4,0131*60
$PYRTM,2024,124.834681775000,15.944329185139
$GNHDT,248.602,T*21
$PYRTM,2024,124.834687611470,15.944335021609
$GNGGA,200157.00,3515.97265073,N,12111.90919908,W,2,10,1.1,7.302,M,-36.214,M,7.0,0131*62
$PYRTM,2024,124.834687611470,15.944335021609
$GNHDT,248.532,T*21
$PYRTM,2024,124.834693348866,15.944340759005
$GNGGA,200157.50,3515.97214785,N,12111.91049603,W,2,10,1.1,7.366,M,-36.214,M,7.4,0131*60
$PYRTM,2024,124.834693348866,15.944340759005
$GNHDT,248.313,T*24
$PYRTM,2024,124.834699189271,15.944346599421
$GNGGA,200158.00,3515.97163925,N,12111.91182175,W,2,10,1.1,7.329,M,-36.214,M,7.0,0131*62
$PYRTM,2024,124.834699189271,15.944346599421
$GNHDT,248.414,T*24
$PYRTM,2024,124.834704922998,15.944352333148
$GNGGA,200158.50,3515.97115179,N,12111.91314323,W,2,10,1.1,7.267,M,-36.214,M,7.4,0131*64
$PYRTM,2024,124.834704922998,15.944352333148
$GNHDT,248.327,T*23
$PYRTM,2024,124.834710759363,15.944358169502
$GNGGA,200159.00,3515.97070078,N,12111.91444133,W,2,10,1.1,7.217,M,-36.214,M,4.0,0131*63
$PYRTM,2024,124.834710759363,15.944358169502
$GNHDT,248.230,T*24
$PYRTM,2024,124.834716497245,15.944363907384
$GNGGA,200159.50,3515.97028093,N,12111.91572783,W,2,10,1.1,7.243,M,-36.215,M,4.4,0131*63
$PYRTM,2024,124.834716497245,15.944363907384
$GNHDT,248.193,T*2E
$PYRTM,2024,124.834722334317,15.944369744468
$GNGGA,200200.00,3515.96988238,N,12111.91702193,W,2,10,1.1,7.277,M,-36.215,M,5.0,0131*68
$PYRTM,2024,124.834722334317,15.944369744468
$GNHDT,248.034,T*22
$PYRTM,2024,124.834728067813,15.944375477951
$GNGGA,200200.50,3515.96947890,N,12111.91833647,W,2,10,1.1,7.275,M,-36.215,M,5.4,0131*63
$PYRTM,2024,124.834728067813,15.944375477951
$GNHDT,248.087,T*2A
$PYRTM,2024,124.834733909560,15.944381319711
$GNGGA,200201.00,3515.96904707,N,12111.91966292,W,2,10,1.1,7.196,M,-36.215,M,6.0,0131*65
$PYRTM,2024,124.834733909560,15.944381319711
$GNHDT,248.218,T*2E
$PYRTM,2024,124.834739646817,15.944387056956
$GNGGA,200201.50,3515.96858241,N,12111.92098398,W,2,10,1.1,7.089,M,-36.215,M,6.4,0131*64
$PYRTM,2024,124.834739646817,15.944387056956
$GNHDT,248.081,T*2C
$PYRTM,2024,124.834745478715,15.944392888854
$GNGGA,200202.00,3515.96809082,N,12111.92225799,W,2,10,1.1,7.063,M,-36.215,M,7.0,0131*6B
$PYRTM,2024,124.834745478715,15.944392888854
$GNHDT,248.018,T*2C
$PYRTM,2024,124.834751218495,15.944398628634
$GNGGA,200202.50,3515.96758583,N,12111.92350786,W,2,10,1.1,7.112,M,-36.215,M,7.4,0131*6F
$PYRTM,2024,124.834751218495,15.944398628634
$GNHDT,247.867,T*23
$PYRTM,2024,124.834757055822,15.944404465972
$GNGGA,200203.00,3515.96706966,N,12111.92473859,W,2,10,1.1,7.254,M,-36.215,M,7.0,0131*69
$PYRTM,2024,124.834757055822,15.944404465972
$GNHDT,247.808,T*2A
$PYRTM,2024,124.834762791204,15.944410201354
$GNGGA,200203.50,3515.96655502,N,12111.92598503,W,2,11,1.1,7.388,M,-36.215,M,7.4,0131*66
$PYRTM,2024,124.834762791204,15.944410201354
$GNHDT,247.954,T*22
$PYRTM,2024,124.834768637512,15.944416047650
$GNGGA,200204.00,3515.96604145,N,12111.92726592,W,2,11,1.1,7.433,M,-36.216,M,7.0,0131*68
$PYRTM,2024,124.834768637512,15.944416047650
$GNHDT,248.160,T*22
$PYRTM,2024,124.834774366481,15.944421776620
$GNGGA,200204.50,3515.96555227,N,12111.92859143,W,2,11,1.1,7.349,M,-36.216,M,7.4,0131*6C
$PYRTM,2024,124.834774366481,15.944421776620
$GNHDT,248.109,T*2D
$PYRTM,2024,124.834780204039,15.944427614178
$GNGGA,200205.00,3515.96508656,N,12111.92994064,W,2,11,1.1,7.128,M,-36.216,M,4.0,0131*64
$PYRTM,2024,124.834780204039,15.944427614178
$GNHDT,248.077,T*25
$PYRTM,2024,124.834785941377,15.944433351528
$GNGGA,200205.50,3515.96463917,N,12111.93128084,W,2,11,1.1,6.897,M,-36.216,M,4.4,0131*6F
$PYRTM,2024,124.834785941377,15.944433351528
$GNHDT,248.028,T*2F
$PYRTM,2024,124.834791778113,15.944439188252
$GNGGA,200206.00,3515.96419221,N,12111.93260167,W,2,11,1.1,6.734,M,-36.216,M,5.0,0131*6A
$PYRTM,2024,124.834791778113,15.944439188252
$GNHDT,248.060,T*23
$PYRTM,2024,124.834797511632,15.944444921771
$GNGGA,200206.50,3515.96373709,N,12111.93390574,W,2,11,1.1,6.677,M,-36.216,M,5.4,0131*61
$PYRTM,2024,124.834797511632,15.944444921771
$GNHDT,247.914,T*26
$PYRTM,2024,124.834803353796,15.944450763947
$GNGGA,200207.00,3515.96326519,N,12111.93521756,W,2,11,1.1,6.708,M,-36.216,M,6.0,0131*66
$PYRTM,2024,124.834803353796,15.944450763947
$GNHDT,248.184,T*28
$PYRTM,2024,124.834809090868,15.944456501007
$GNGGA,200207.50,3515.96278824,N,12111.93654458,W,2,11,1.1,6.768,M,-36.216,M,6.4,0131*64
$PYRTM,2024,124.834809090868,15.944456501007
$GNHDT,248.275,T*25
$PYRTM,2024,124.834814924734,15.944462334873
$GNGGA,200208.00,3515.96231226,N,12111.93789356,W,2,11,1.1,6.828,M,-36.216,M,7.0,0131*6D
$PYRTM,2024,124.834814924734,15.944462334873
$GNHDT,248.433,T*21
$PYRTM,2024,124.834820664549,15.944468074688
$GNGGA,200208.50,3515.96182440,N,12111.93923847,W,2,11,1.1,6.928,M,-36.216,M,7.4,0131*65
$PYRTM,2024,124.834820664549,15.944468074688
$GNHDT,248.394,T*2B
$PYRTM,2024,124.834826502338,15.944473912477
$GNGGA,200209.00,3515.96132069,N,12111.94054662,W,2,11,1.1,7.113,M,-36.216,M,7.0,0131*67
$PYRTM,2024,124.834826502338,15.944473912477
$GNHDT,248.379,T*28
$PYRTM,2024,124.834832238785,15.944479648924
$GNGGA,200209.50,3515.96079585,N,12111.94179682,W,2,11,1.1,7.385,M,-36.216,M,7.4,0131*62
$PYRTM,2024,124.834832238785,15.944479648924
$GNHDT,248.227,T*22
$PYRTM,2024,124.834838081296,15.944485491435
$GNGGA,200210.00,3515.96025033,N,12111.94300733,W,2,11,1.1,7.695,M,-36.216,M,7.0,0131*69
$PYRTM,2024,124.834838081296,15.944485491435
$GNHDT,248.110,T*25
$PYRTM,2024,124.834843810185,15.944491220324
$GNGGA,200210.50,3515.95969801,N,12111.94422345,W,2,11,1.1,7.866,M,-36.217,M,7.4,0131*62
$PYRTM,2024,124.834843810185,15.944491220324
$GNHDT,247.811,T*22
$PYRTM,2024,124.834849648773,15.944497058924
$GNGGA,200211.00,3515.95916951,N,12111.94549794,W,2,11,1.1,7.781,M,-36.217,M,4.0,0131*6F
$PYRTM,2024,124.834849648773,15.944497058924
$GNHDT,247.483,T*25
$PYRTM,2024,124.834855389525,15.944502799664
$GNGGA,200211.50,3515.95870612,N,12111.94686077,W,2,11,1.1,7.381,M,-36.217,M,4.4,0131*69
$PYRTM,2024,124.834855389525,15.944502799664
$GNHDT,247.961,T*24
$PYRTM,2024,124.834861228426,15.944508638565
$GNGGA,200212.00,3515.95829834,N,12111.94826893,W,2,11,1.1,6.768,M,-36.217,M,5.0,0131*68
$PYRTM,2024,124.834861228426,15.944508638565
$GNHDT,248.174,T*27
$PYRTM,2024,124.834866961713,15.944514371852
$GNGGA,200212.50,3515.95791191,N,12111.94965149,W,2,11,1.1,6.235,M,-36.217,M,5.4,0131*66
$PYRTM,2024,124.834866961713,15.944514371852
$GNHDT,248.069,T*2A
$PYRTM,2024,124.834872798148,15.944520208287
$GNGGA,200213.00,3515.95749232,N,12111.95093806,W,2,11,1.1,6.036,M,-36.217,M,6.0,0131*68
$PYRTM,2024,124.834872798148,15.944520208287
$GNHDT,248.120,T*26
$PYRTM,2024,124.834878534433,15.944525944572
$GNGGA,200213.50,3515.95699401,N,12111.95211108,W,2,11,1.1,6.280,M,-36.217,M,6.4,0131*63
$PYRTM,2024,124.834878534433,15.944525944572
$GNHDT,247.671,T*2A
$PYRTM,2024,124.834884373785,15.944531783924
$GNGGA,200214.00,3515.95641427,N,12111.95323130,W,2,11,1.1,6.758,M,-36.217,M,7.0,0131*6E
$PYRTM,2024,124.834884373785,15.944531783924
$GNHDT,247.667,T*2D
$PYRTM,2024,124.834890107847,15.944537517986
$GNGGA,200214.50,3515.95578691,N,12111.95436765,W,2,11,1.1,7.227,M,-36.217,M,7.4,0131*60
$PYRTM,2024,124.834890107847,15.944537517986
$GNHDT,247.645,T*2D
$PYRTM,2024,124.834895946829,15.944543356968
$GNGGA,200215.00,3515.95513764,N,12111.95561120,W,2,11,1.1,7.391,M,-36.217,M,7.0,0131*6E
$PYRTM,2024,124.834895946829,15.944543356968
$GNHDT,247.826,T*26
$PYRTM,2024,124.834901679826,15.944549089977
$GNGGA,200215.50,3515.95452818,N,12111.95695455,W,2,11,1.1,7.192,M,-36.218,M,7.4,0131*6E
$PYRTM,2024,124.834901679826,15.944549089977
$GNHDT,247.972,T*26
$PYRTM,2024,124.834907519039,15.944554929178
$GNGGA,200216.00,3515.95401029,N,12111.95833859,W,2,11,1.1,6.858,M,-36.218,M,7.0,0131*6C
$PYRTM,2024,124.834907519039,15.944554929178
$GNHDT,247.999,T*23
$PYRTM,2024,124.834913254282,15.944560664421
$GNGGA,200216.50,3515.95355858,N,12111.95967323,W,2,11,1.1,6.545,M,-36.218,M,7.4,0131*62
$PYRTM,2024,124.834913254282,15.944560664421
$GNHDT,247.866,T*22
$PYRTM,2024,124.834919093588,15.944566503727
$GNGGA,200217.00,3515.95313628,N,12111.96095121,W,2,11,1.1,6.415,M,-36.218,M,4.0,0131*69
$PYRTM,2024,124.834919093588,15.944566503727
$GNHDT,247.840,T*26
$PYRTM,2024,124.834924835093,15.944572245231
$GNGGA,200217.50,3515.95270508,N,12111.96217684,W,2,11,1.1,6.502,M,-36.218,M,4.4,0131*6A
$PYRTM,2024,124.834924835093,15.944572245231
$GNHDT,247.661,T*2B
$PYRTM,2024,124.834930672025,15.944578082164
$GNGGA,200218.00,3515.95223659,N,12111.96339581,W,2,11,1.1,6.726,M,-36.218,M,5.0,0131*6B
$PYRTM,2024,124.834930672025,15.944578082164
$GNHDT,247.936,T*26
$PYRTM,2024,124.834936406597,15.944583816748
$GNGGA,200218.50,3515.95172482,N,12111.96462273,W,2,11,1.1,6.933,M,-36.218,M,5.4,0131*60
$PYRTM,2024,124.834936406597,15.944583816748
$GNHDT,247.987,T*2C
$PYRTM,2024,124.834942249572,15.944589659711
$GNGGA,200219.00,3515.95118315,N,12111.96588004,W,2,11,1.1,7.032,M,-36.218,M,6.0,0131*68
$PYRTM,2024,124.834942249572,15.944589659711
$GNHDT,248.265,T*24
$PYRTM,2024,124.834947980532,15.944595390671
$GNGGA,200219.50,3515.95063453,N,12111.96716723,W,2,11,1.1,6.995,M,-36.218,M,6.4,0131*63
$PYRTM,2024,124.834947980532,15.944595390671
$GNHDT,248.162,T*20
$PYRTM,2024,124.834953818021,15.944601228171
$GNGGA,200220.00,3515.95008637,N,12111.96847319,W,2,11,1.1,6.862,M,-36.218,M,7.0,0131*6B
$PYRTM,2024,124.834953818021,15.944601228171
$GNHDT,248.213,T*25
$PYRTM,2024,124.834959552106,15.944606962245
$GNGGA,200220.50,3515.94954786,N,12111.96975375,W,2,11,1.1,6.745,M,-36.218,M,7.4,0131*60
$PYRTM,2024,124.834959552106,15.944606962245
$GNHDT,248.178,T*2B
$PYRTM,2024,124.834965396887,15.944612807025
$GNGGA,200221.00,3515.94902909,N,12111.97099614,W,2,11,1.1,6.752,M,-36.218,M,7.0,0131*64
$PYRTM,2024,124.834965396887,15.944612807025
$GNHDT,248.124,T*22
$PYRTM,2024,124.834971128403,15.944618538542
$GNGGA,200221.50,3515.94853882,N,12111.97220452,W,2,11,1.1,6.892,M,-36.218,M,7.4,0131*61
$PYRTM,2024,124.834971128403,15.944618538542
$GNHDT,248.579,T*2E
$PYRTM,2024,124.834976967361,15.944624377500
$GNGGA,200222.00,3515.94807366,N,12111.97342642,W,2,11,1.1,7.057,M,-36.219,M,7.0,0131*64
$PYRTM,2024,124.834976967361,15.944624377500
$GNHDT,248.696,T*2C
$PYRTM,2024,124.834982704398,15.944630114537
$GNGGA,200222.50,3515.94762035,N,12111.97468552,W,2,11,1.1,7.155,M,-36.219,M,7.4,0131*62
$PYRTM,2024,124.834982704398,15.944630114537
$GNHDT,248.730,T*21
$PYRTM,2024,124.834988540799,15.944635950937
$GNGGA,200223.00,3515.94717272,N,12111.97597981,W,2,11,1.1,7.125,M,-36.219,M,4.0,0131*66
$PYRTM,2024,124.834988540799,15.944635950937
$GNHDT,248.764,T*20
$PYRTM,2024,124.834994280012,15.944641690150
$GNGGA,200223.50,3515.94671374,N,12111.97727813,W,2,11,1.1,7.012,M,-36.219,M,4.4,0131*67
$PYRTM,2024,124.834994280012,15.944641690150
$GNHDT,248.884,T*21
$PYRTM,2024,124.835000116354,15.944647526493
$GNGGA,200224.00,3515.94623140,N,12111.97854111,W,2,11,1.1,6.913,M,-36.219,M,5.0,0131*6B
$PYRTM,2024,124.835000116354,15.944647526493
$GNHDT,248.883,T*26
$PYRTM,2024,124.835005850093,15.944653260231
$GNGGA,200224.50,3515.94572604,N,12111.97977078,W,2,11,1.1,6.876,M,-36.219,M,5.4,0131*66
$PYRTM,2024,124.835005850093,15.944653260231
$GNHDT,248.900,T*2C
$PYRTM,2024,124.835011684144,15.944659094282
$GNGGA,200225.00,3515.94519520,N,12111.98098671,W,2,11,1.1,6.862,M,-36.219,M,6.0,0131*60
$PYRTM,2024,124.835011684144,15.944659094282
$GNHDT,248.904,T*28
$PYRTM,2024,124.835017424514,15.944664834653
$GNGGA,200225.50,3515.94463323,N,12111.98222175,W,2,11,1.1,6.829,M,-36.219,M,6.4,0131*67
$PYRTM,2024,124.835017424514,15.944664834653
$GNHDT,248.705,T*27
$PYRTM,2024,124.835023263947,15.944670674086
$GNGGA,200226.00,3515.94406288,N,12111.98347055,W,2,11,1.1,6.726,M,-36.219,M,7.0,0131*66
$PYRTM,2024,124.835023263947,15.944670674086
$GNHDT,248.909,T*25
$PYRTM,2024,124.835029000579,15.944676410718
$GNGGA,200226.50,3515.94351936,N,12111.98473337,W,2,11,1.1,6.565,M,-36.219,M,7.4,0131*6E
$PYRTM,2024,124.835029000579,15.944676410718
$GNHDT,248.832,T*2C
$PYRTM,2024,124.835034837917,15.944682248056
$GNGGA,200227.00,3515.94301896,N,12111.98602201,W,2,11,1.1,6.381,M,-36.220,M,7.0,0131*66
$PYRTM,2024,124.835034837917,15.944682248056
$GNHDT,248.870,T*2A
$PYRTM,2024,124.835040573171,15.944687983310
$GNGGA,200227.50,3515.94255823,N,12111.98733414,W,2,11,1.1,6.222,M,-36.220,M,7.4,0131*60
$PYRTM,2024,124.835040573171,15.944687983310
$GNHDT,249.123,T*24
$PYRTM,2024,124.835046408287,15.944693818426
$GNGGA,200228.00,3515.94211645,N,12111.98864491,W,2,11,1.1,6.170,M,-36.220,M,7.0,0131*64
$PYRTM,2024,124.835046408287,15.944693818426
$GNHDT,249.029,T*2F
$PYRTM,2024,124.835052144086,15.944699554225
$GNGGA,200228.50,3515.94167022,N,12111.98991078,W,2,11,1.1,6.294,M,-36.220,M,7.4,0131*61
$PYRTM,2024,124.835052144086,15.944699554225
$GNHDT,248.870,T*2A
$PYRTM,2024,124.835057984514,15.944705394653
