$PYRTM,2024,121.916666746007,13.026314156146
$GNGGA,220000.00,3300.21053752,N,11804.82208512,W,2,13,0.8,7.757,M,-37.222,M,5.0,0135*63
$PYRTM,2024,121.916666746007,13.026314156146
$GNHDT,294.907,T*2A
$PYRTM,2024,121.916672474873,13.026319885012
$GNGGA,220000.50,3300.21105426,N,11804.82317972,W,2,13,0.8,7.730,M,-37.222,M,5.4,0135*64
$PYRTM,2024,121.916672474873,13.026319885012
$GNHDT,295.177,T*24
$PYRTM,2024,121.916678318889,13.026325729016
$GNGGA,220001.00,3300.21157665,N,11804.82429149,W,2,13,0.8,7.598,M,-37.222,M,6.0,0135*6F
$PYRTM,2024,121.916678318889,13.026325729016
$GNHDT,295.142,T*22
$PYRTM,2024,121.916684047558,13.026331457697
$GNGGA,220001.50,3300.21209618,N,11804.82543676,W,2,13,0.8,7.365,M,-37.222,M,6.4,0135*6E
$PYRTM,2024,121.916684047558,13.026331457697
$GNHDT,295.241,T*22
$PYRTM,2024,121.916689892917,13.026337303056
$GNGGA,220002.00,3300.21260663,N,11804.82658925,W,2,13,0.8,7.093,M,-37.222,M,7.0,0135*64
$PYRTM,2024,121.916689892917,13.026337303056
$GNHDT,295.311,T*26
$PYRTM,2024,121.916695626944,13.026343037083
$GNGGA,220002.50,3300.21310197,N,11804.82774730,W,2,13,0.8,6.867,M,-37.222,M,7.4,0135*68
$PYRTM,2024,121.916695626944,13.026343037083
$GNHDT,295.307,T*21
$PYRTM,2024,121.916701469468,13.026348879606
$GNGGA,220003.00,3300.21358486,N,11804.82890056,W,2,13,0.8,6.754,M,-37.222,M,7.0,0135*6C
$PYRTM,2024,121.916701469468,13.026348879606
$GNHDT,295.119,T*2C
$PYRTM,2024,121.916707196528,13.026354606678
$GNGGA,220003.50,3300.21405614,N,11804.83004861,W,2,13,0.8,6.782,M,-37.222,M,7.4,0135*68
$PYRTM,2024,121.916707196528,13.026354606678
$GNHDT,295.158,T*29
$PYRTM,2024,121.916713040972,13.026360451111
$GNGGA,220004.00,3300.21451567,N,11804.83117520,W,2,13,0.8,6.983,M,-37.222,M,7.0,0135*6C
$PYRTM,2024,121.916713040972,13.026360451111
$GNHDT,295.072,T*20
$PYRTM,2024,121.916718776632,13.026366186771
$GNGGA,220004.50,3300.21498209,N,11804.83225780,W,2,13,0.8,7.340,M,-37.222,M,7.4,0135*69
$PYRTM,2024,121.916718776632,13.026366186771
$GNHDT,295.240,T*23
$PYRTM,2024,121.916724616354,13.026372026493
$GNGGA,220005.00,3300.21546321,N,11804.83329879,W,2,13,0.8,7.792,M,-37.222,M,4.0,0135*6C
$PYRTM,2024,121.916724616354,13.026372026493
$GNHDT,295.453,T*27
$PYRTM,2024,121.916730351887,13.026377762025
$GNGGA,220005.50,3300.21596148,N,11804.83433335,W,2,13,0.8,8.197,M,-37.222,M,4.4,0135*6E
$PYRTM,2024,121.916730351887,13.026377762025
$GNHDT,295.197,T*2A
$PYRTM,2024,121.916736195972,13.026383606111
$GNGGA,220006.00,3300.21647840,N,11804.83539433,W,2,13,0.8,8.418,M,-37.222,M,5.0,0135*6B
$PYRTM,2024,121.916736195972,13.026383606111
$GNHDT,295.054,T*24
$PYRTM,2024,121.916741921597,13.026389331736
$GNGGA,220006.50,3300.21701787,N,11804.83652107,W,2,13,0.8,8.333,M,-37.222,M,5.4,0135*6F
$PYRTM,2024,121.916741921597,13.026389331736
$GNHDT,295.113,T*26
$PYRTM,2024,121.916747764618,13.026395174757
$GNGGA,220007.00,3300.21756100,N,11804.83770246,W,2,13,0.8,7.962,M,-37.222,M,6.0,0135*61
$PYRTM,2024,121.916747764618,13.026395174757
$GNHDT,294.945,T*2C
$PYRTM,2024,121.916753490521,13.026400900660
$GNGGA,220007.50,3300.21808308,N,11804.83889828,W,2,13,0.8,7.434,M,-37.222,M,6.4,0135*6B
$PYRTM,2024,121.916753490521,13.026400900660
$GNHDT,295.337,T*22
$PYRTM,2024,121.916759338565,13.026406748704
$GNGGA,220008.00,3300.21856177,N,11804.84007357,W,2,13,0.8,6.967,M,-37.222,M,7.0,0135*65
$PYRTM,2024,121.916759338565,13.026406748704
$GNHDT,295.320,T*24
$PYRTM,2024,121.916765065567,13.026412475706
$GNGGA,220008.50,3300.21900165,N,11804.84119808,W,2,13,0.8,6.755,M,-37.222,M,7.4,0135*65
$PYRTM,2024,121.916765065567,13.026412475706
$GNHDT,294.801,T*2D
$PYRTM,2024,121.916770909907,13.026418320046
$GNGGA,220009.00,3300.21940693,N,11804.84228405,W,2,13,0.8,6.853,M,-37.222,M,7.0,0135*66
$PYRTM,2024,121.916770909907,13.026418320046
$GNHDT,294.870,T*2B
$PYRTM,2024,121.916776643808,13.026424053947
$GNGGA,220009.50,3300.21982383,N,11804.84336102,W,2,13,0.8,7.138,M,-37.222,M,7.4,0135*64
$PYRTM,2024,121.916776643808,13.026424053947
$GNHDT,294.890,T*25
$PYRTM,2024,121.916782487211,13.026429897350
$GNGGA,220010.00,3300.22029840,N,11804.84445112,W,2,13,0.8,7.492,M,-37.222,M,7.0,0135*65
$PYRTM,2024,121.916782487211,13.026429897350
$GNHDT,294.971,T*2B
$PYRTM,2024,121.916788213981,13.026435624120
$GNGGA,220010.50,3300.22082492,N,11804.84558196,W,2,13,0.8,7.717,M,-37.223,M,7.4,0135*68
$PYRTM,2024,121.916788213981,13.026435624120
$GNHDT,295.120,T*26
$PYRTM,2024,121.916794060926,13.026441471065
$GNGGA,220011.00,3300.22137975,N,11804.84675304,W,2,13,0.8,7.780,M,-37.223,M,4.0,0135*6B
$PYRTM,2024,121.916794060926,13.026441471065
$GNHDT,295.110,T*25
$PYRTM,2024,121.916799794317,13.026447204456
$GNGGA,220011.50,3300.22193420,N,11804.84793584,W,2,13,0.8,7.712,M,-37.223,M,4.4,0135*65
$PYRTM,2024,121.916799794317,13.026447204456
$GNHDT,294.995,T*21
$PYRTM,2024,121.916805638229,13.026453048368
$GNGGA,220012.00,3300.22244731,N,11804.84910490,W,2,13,0.8,7.595,M,-37.223,M,5.0,0135*60
$PYRTM,2024,121.916805638229,13.026453048368
$GNHDT,294.925,T*2A
$PYRTM,2024,121.916811362662,13.026458772801
$GNGGA,220012.50,3300.22293203,N,11804.85022020,W,2,13,0.8,7.570,M,-37.223,M,5.4,0135*62
$PYRTM,2024,121.916811362662,13.026458772801
$GNHDT,294.949,T*20
$PYRTM,2024,121.916817208935,13.026464619074
$GNGGA,220013.00,3300.22337994,N,11804.85130245,W,2,13,0.8,7.668,M,-37.223,M,6.0,0135*62
$PYRTM,2024,121.916817208935,13.026464619074
$GNHDT,294.888,T*2C
$PYRTM,2024,121.916822936713,13.026470346852
$GNGGA,220013.50,3300.22380886,N,11804.85237363,W,2,13,0.8,7.845,M,-37.223,M,6.4,0135*6D
$PYRTM,2024,121.916822936713,13.026470346852
$GNHDT,294.819,T*24
$PYRTM,2024,121.916828785498,13.026476195637
$GNGGA,220014.00,3300.22423852,N,11804.85345862,W,2,13,0.8,8.020,M,-37.223,M,7.0,0135*67
$PYRTM,2024,121.916828785498,13.026476195637
$GNHDT,294.724,T*25
$PYRTM,2024,121.916834511065,13.026481921204
$GNGGA,220014.50,3300.22468363,N,11804.85456435,W,2,13,0.8,8.102,M,-37.223,M,7.4,0135*6A
$PYRTM,2024,121.916834511065,13.026481921204
$GNHDT,294.931,T*2F
$PYRTM,2024,121.916840356898,13.026487767037
$GNGGA,220015.00,3300.22515355,N,11804.85567297,W,2,13,0.8,8.074,M,-37.223,M,7.0,0135*69
$PYRTM,2024,121.916840356898,13.026487767037
$GNHDT,294.869,T*23
$PYRTM,2024,121.916846084873,13.026493495012
$GNGGA,220015.50,3300.22565238,N,11804.85677342,W,2,13,0.8,7.969,M,-37.223,M,7.4,0135*64
$PYRTM,2024,121.916846084873,13.026493495012
$GNHDT,294.649,T*2F
$PYRTM,2024,121.916851928993,13.026499339132
$GNGGA,220016.00,3300.22618115,N,11804.85786112,W,2,13,0.8,7.804,M,-37.223,M,7.0,0135*61
$PYRTM,2024,121.916851928993,13.026499339132
$GNHDT,294.630,T*21
$PYRTM,2024,121.916857658681,13.026505068819
$GNGGA,220016.50,3300.22672440,N,11804.85895515,W,2,13,0.8,7.616,M,-37.223,M,7.4,0135*6A
$PYRTM,2024,121.916857658681,13.026505068819
$GNHDT,294.695,T*2E
$PYRTM,2024,121.916863505579,13.026510915718
$GNGGA,220017.00,3300.22727187,N,11804.86007812,W,2,13,0.8,7.380,M,-37.223,M,4.0,0135*66
$PYRTM,2024,121.916863505579,13.026510915718
$GNHDT,294.668,T*2C
$PYRTM,2024,121.916869232650,13.026516642789
$GNGGA,220017.50,3300.22780600,N,11804.86123921,W,2,13,0.8,7.140,M,-37.223,M,4.4,0135*6A
$PYRTM,2024,121.916869232650,13.026516642789
$GNHDT,294.652,T*25
$PYRTM,2024,121.916875079120,13.026522489259
$GNGGA,220018.00,3300.22831376,N,11804.86241117,W,2,13,0.8,6.969,M,-37.223,M,5.0,0135*6C
$PYRTM,2024,121.916875079120,13.026522489259
$GNHDT,294.567,T*20
$PYRTM,2024,121.916880814433,13.026528224572
$GNGGA,220018.50,3300.22878159,N,11804.86356431,W,2,13,0.8,6.960,M,-37.223,M,5.4,0135*60
$PYRTM,2024,121.916880814433,13.026528224572
$GNHDT,294.621,T*21
$PYRTM,2024,121.916886656690,13.026534066829
$GNGGA,220019.00,3300.22921322,N,11804.86468203,W,2,13,0.8,7.157,M,-37.223,M,6.0,0135*60
$PYRTM,2024,121.916886656690,13.026534066829
$GNHDT,294.754,T*22
$PYRTM,2024,121.916892384132,13.026539794282
$GNGGA,220019.50,3300.22963956,N,11804.86576765,W,2,13,0.8,7.477,M,-37.223,M,6.4,0135*62
$PYRTM,2024,121.916892384132,13.026539794282
$GNHDT,294.683,T*29
$PYRTM,2024,121.916898226956,13.026545637095
$GNGGA,220020.00,3300.23009283,N,11804.86685157,W,2,13,0.8,7.803,M,-37.223,M,7.0,0135*68
$PYRTM,2024,121.916898226956,13.026545637095
$GNHDT,294.691,T*2A
$PYRTM,2024,121.916903954282,13.026551364421
$GNGGA,220020.50,3300.23058851,N,11804.86796397,W,2,13,0.8,7.963,M,-37.223,M,7.4,0135*62
$PYRTM,2024,121.916903954282,13.026551364421
$GNHDT,294.968,T*23
$PYRTM,2024,121.916909799931,13.026557210069
$GNGGA,220021.00,3300.23112002,N,11804.86910920,W,2,13,0.8,7.921,M,-37.223,M,7.0,0135*63
$PYRTM,2024,121.916909799931,13.026557210069
$GNHDT,295.063,T*20
$PYRTM,2024,121.916915533137,13.026562943275
$GNGGA,220021.50,3300.23165569,N,11804.87027360,W,2,13,0.8,7.723,M,-37.223,M,7.4,0135*64
$PYRTM,2024,121.916915533137,13.026562943275
$GNHDT,295.336,T*23
$PYRTM,2024,121.916921374132,13.026568784282
$GNGGA,220022.00,3300.23216511,N,11804.87142716,W,2,13,0.8,7.466,M,-37.223,M,7.0,0135*6B
$PYRTM,2024,121.916921374132,13.026568784282
$GNHDT,295.405,T*24
$PYRTM,2024,121.916927105787,13.026574515926
$GNGGA,220022.50,3300.23262459,N,11804.87255688,W,2,13,0.8,7.306,M,-37.223,M,7.4,0135*66
$PYRTM,2024,121.916927105787,13.026574515926
$GNHDT,295.129,T*2F
$PYRTM,2024,121.916932949838,13.026580359977
$GNGGA,220023.00,3300.23304094,N,11804.87364700,W,2,13,0.8,7.346,M,-37.223,M,4.0,0135*67
$PYRTM,2024,121.916932949838,13.026580359977
$GNHDT,295.097,T*2B
$PYRTM,2024,121.916938679572,13.026586089711
$GNGGA,220023.50,3300.23346395,N,11804.87468836,W,2,13,0.8,7.561,M,-37.223,M,4.4,0135*60
$PYRTM,2024,121.916938679572,13.026586089711
$GNHDT,295.151,T*20
$PYRTM,2024,121.916944523241,13.026591933380
$GNGGA,220024.00,3300.23389089,N,11804.87570665,W,2,13,0.8,7.894,M,-37.223,M,5.0,0135*6D
$PYRTM,2024,121.916944523241,13.026591933380
$GNHDT,295.164,T*26
$PYRTM,2024,121.916950251863,13.026597662002
$GNGGA,220024.50,3300.23435070,N,11804.87673500,W,2,13,0.8,8.199,M,-37.223,M,5.4,0135*61
$PYRTM,2024,121.916950251863,13.026597662002
$GNHDT,295.391,T*2E
$PYRTM,2024,121.916956101725,13.026603511863
$GNGGA,220025.00,3300.23485375,N,11804.87780360,W,2,13,0.8,8.323,M,-37.223,M,6.0,0135*61
$PYRTM,2024,121.916956101725,13.026603511863
$GNHDT,295.400,T*21
$PYRTM,2024,121.916961827593,13.026609237731
$GNGGA,220025.50,3300.23538698,N,11804.87892708,W,2,13,0.8,8.211,M,-37.223,M,6.4,0135*67
$PYRTM,2024,121.916961827593,13.026609237731
$GNHDT,295.439,T*2B
$PYRTM,2024,121.916967674803,13.026615084942
$GNGGA,220026.00,3300.23592777,N,11804.88009262,W,2,13,0.8,7.887,M,-37.223,M,7.0,0135*62
$PYRTM,2024,121.916967674803,13.026615084942
$GNHDT,295.493,T*2B
$PYRTM,2024,121.916973399988,13.026620810127
$GNGGA,220026.50,3300.23644706,N,11804.88128310,W,2,13,0.8,7.443,M,-37.223,M,7.4,0135*6F
$PYRTM,2024,121.916973399988,13.026620810127
$GNHDT,295.318,T*2F
$PYRTM,2024,121.916979249352,13.026626659491
$GNGGA,220027.00,3300.23693600,N,11804.88246366,W,2,13,0.8,7.035,M,-37.223,M,7.0,0135*6D
$PYRTM,2024,121.916979249352,13.026626659491
$GNHDT,295.127,T*21
$PYRTM,2024,121.916984975567,13.026632385706
$GNGGA,220027.50,3300.23740704,N,11804.88362464,W,2,13,0.8,6.789,M,-37.223,M,7.4,0135*65
$PYRTM,2024,121.916984975567,13.026632385706
$GNHDT,294.905,T*28
$PYRTM,2024,121.916990820833,13.026638230984
$GNGGA,220028.00,3300.23787337,N,11804.88475767,W,2,13,0.8,6.767,M,-37.223,M,7.0,0135*65
$PYRTM,2024,121.916990820833,13.026638230984
$GNHDT,294.949,T*20
$PYRTM,2024,121.916996547176,13.026643957315
$GNGGA,220028.50,3300.23834647,N,11804.88586927,W,2,13,0.8,6.924,M,-37.223,M,7.4,0135*6F
$PYRTM,2024,121.916996547176,13.026643957315
$GNHDT,295.208,T*2F
$PYRTM,2024,121.917002393854,13.026649804005
$GNGGA,220029.00,3300.23883690,N,11804.88694896,W,2,13,0.8,7.278,M,-37.223,M,4.0,0135*62
$PYRTM,2024,121.917002393854,13.026649804005
$GNHDT,295.180,T*2C
$PYRTM,2024,121.917008122627,13.026655532766
$GNGGA,220029.50,3300.23933552,N,11804.88801825,W,2,13,0.8,7.686,M,-37.223,M,4.4,0135*6B
$PYRTM,2024,121.917008122627,13.026655532766
$GNHDT,294.975,T*2F
$PYRTM,2024,121.917013969873,13.026661380012
$GNGGA,220030.00,3300.23984148,N,11804.88909331,W,2,13,0.8,8.078,M,-37.223,M,5.0,0135*6F
$PYRTM,2024,121.917013969873,13.026661380012
$GNHDT,294.838,T*27
$PYRTM,2024,121.917019698623,13.026667108762
$GNGGA,220030.50,3300.24035417,N,11804.89019006,W,2,13,0.8,8.318,M,-37.223,M,5.4,0135*6E
$PYRTM,2024,121.917019698623,13.026667108762
$GNHDT,294.858,T*21
$PYRTM,2024,121.917025545116,13.026672955255
$GNGGA,220031.00,3300.24087235,N,11804.89130800,W,2,13,0.8,8.379,M,-37.223,M,6.0,0135*61
$PYRTM,2024,121.917025545116,13.026672955255
$GNHDT,294.982,T*27
$PYRTM,2024,121.917031282060,13.026678692199
$GNGGA,220031.50,3300.24138897,N,11804.89245043,W,2,13,0.8,8.229,M,-37.223,M,6.4,0135*6D
$PYRTM,2024,121.917031282060,13.026678692199
$GNHDT,294.904,T*29
$PYRTM,2024,121.917037117083,13.026684527222
$GNGGA,220032.00,3300.24188446,N,11804.89358883,W,2,13,0.8,7.934,M,-37.223,M,7.0,0135*64
$PYRTM,2024,121.917037117083,13.026684527222
$GNHDT,294.850,T*29
$PYRTM,2024,121.917042843287,13.026690253438
$GNGGA,220032.50,3300.24235380,N,11804.89472913,W,2,13,0.8,7.601,M,-37.223,M,7.4,0135*63
$PYRTM,2024,121.917042843287,13.026690253438
$GNHDT,294.858,T*21
$PYRTM,2024,121.917048689051,13.026696099201
$GNGGA,220033.00,3300.24278992,N,11804.89586431,W,2,13,0.8,7.332,M,-37.223,M,7.0,0135*61
$PYRTM,2024,121.917048689051,13.026696099201
$GNHDT,294.848,T*20
$PYRTM,2024,121.917054418600,13.026701828738
$GNGGA,220033.50,3300.24321233,N,11804.89698487,W,2,13,0.8,7.202,M,-37.223,M,7.4,0135*6E
$PYRTM,2024,121.917054418600,13.026701828738
$GNHDT,294.728,T*29
$PYRTM,2024,121.917060262998,13.026707673137
$GNGGA,220034.00,3300.24362279,N,11804.89811291,W,2,13,0.8,7.211,M,-37.223,M,7.0,0135*6D
$PYRTM,2024,121.917060262998,13.026707673137
$GNHDT,294.610,T*23
$PYRTM,2024,121.917065993021,13.026713403160
$GNGGA,220034.50,3300.24407850,N,11804.89922787,W,2,13,0.8,7.318,M,-37.223,M,7.4,0135*62
$PYRTM,2024,121.917065993021,13.026713403160
$GNHDT,294.563,T*24
$PYRTM,2024,121.917071837442,13.026719247581
$GNGGA,220035.00,3300.24459535,N,11804.90033145,W,2,13,0.8,7.483,M,-37.223,M,4.0,0135*68
$PYRTM,2024,121.917071837442,13.026719247581
$GNHDT,294.707,T*24
$PYRTM,2024,121.917077568542,13.026724978681
$GNGGA,220035.50,3300.24514568,N,11804.90143641,W,2,13,0.8,7.631,M,-37.223,M,4.4,0135*67
$PYRTM,2024,121.917077568542,13.026724978681
$GNHDT,294.455,T*20
$PYRTM,2024,121.917083412523,13.026730822674
$GNGGA,220036.00,3300.24570040,N,11804.90254059,W,2,13,0.8,7.766,M,-37.223,M,5.0,0135*60
$PYRTM,2024,121.917083412523,13.026730822674
$GNHDT,294.466,T*20
$PYRTM,2024,121.917089142037,13.026736552176
$GNGGA,220036.50,3300.24622014,N,11804.90364339,W,2,13,0.8,7.927,M,-37.223,M,5.4,0135*68
$PYRTM,2024,121.917089142037,13.026736552176
$GNHDT,294.414,T*25
$PYRTM,2024,121.917094987731,13.026742397870
$GNGGA,220037.00,3300.24669339,N,11804.90474091,W,2,13,0.8,8.107,M,-37.223,M,6.0,0135*6A
$PYRTM,2024,121.917094987731,13.026742397870
$GNHDT,294.381,T*2E
$PYRTM,2024,121.917100717477,13.026748127616
$GNGGA,220037.50,3300.24712740,N,11804.90583849,W,2,13,0.8,8.283,M,-37.223,M,6.4,0135*67
$PYRTM,2024,121.917100717477,13.026748127616
$GNHDT,294.202,T*24
$PYRTM,2024,121.917106565023,13.026753975162
$GNGGA,220038.00,3300.24754436,N,11804.90694999,W,2,13,0.8,8.399,M,-37.223,M,7.0,0135*6B
$PYRTM,2024,121.917106565023,13.026753975162
$GNHDT,294.357,T*25
$PYRTM,2024,121.917112288206,13.026759698345
$GNGGA,220038.50,3300.24797249,N,11804.90806366,W,2,13,0.8,8.397,M,-37.223,M,7.4,0135*6A
$PYRTM,2024,121.917112288206,13.026759698345
$GNHDT,294.653,T*24
$PYRTM,2024,121.917118133738,13.026765543877
$GNGGA,220039.00,3300.24841426,N,11804.90918162,W,2,13,0.8,8.245,M,-37.223,M,7.0,0135*67
$PYRTM,2024,121.917118133738,13.026765543877
$GNHDT,294.660,T*24
$PYRTM,2024,121.917123864086,13.026771274236
$GNGGA,220039.50,3300.24887420,N,11804.91030386,W,2,13,0.8,7.988,M,-37.223,M,7.4,0135*65
$PYRTM,2024,121.917123864086,13.026771274236
$GNHDT,294.631,T*20
$PYRTM,2024,121.917129709525,13.026777119664
$GNGGA,220040.00,3300.24934999,N,11804.91143602,W,2,13,0.8,7.627,M,-37.223,M,7.0,0135*6A
$PYRTM,2024,121.917129709525,13.026777119664
$GNHDT,294.552,T*26
$PYRTM,2024,121.917135436030,13.026782846169
$GNGGA,220040.50,3300.24985510,N,11804.91257441,W,2,13,0.8,7.252,M,-37.223,M,7.4,0135*69
$PYRTM,2024,121.917135436030,13.026782846169
$GNHDT,294.342,T*21
$PYRTM,2024,121.917141289248,13.026788699387
$GNGGA,220041.00,3300.25039077,N,11804.91372834,W,2,13,0.8,6.896,M,-37.223,M,4.0,0135*6A
$PYRTM,2024,121.917141289248,13.026788699387
$GNHDT,294.333,T*27
$PYRTM,2024,121.917147016030,13.026794426169
$GNGGA,220041.50,3300.25093125,N,11804.91490631,W,2,13,0.8,6.608,M,-37.223,M,4.4,0135*64
$PYRTM,2024,121.917147016030,13.026794426169
$GNHDT,294.495,T*2C
$PYRTM,2024,121.917152858356,13.026800268495
$GNGGA,220042.00,3300.25145893,N,11804.91609356,W,2,13,0.8,6.467,M,-37.223,M,5.0,0135*64
$PYRTM,2024,121.917152858356,13.026800268495
$GNHDT,294.449,T*2D
$PYRTM,2024,121.917158586944,13.026805997083
$GNGGA,220042.50,3300.25195438,N,11804.91726800,W,2,13,0.8,6.522,M,-37.223,M,5.4,0135*61
$PYRTM,2024,121.917158586944,13.026805997083
$GNHDT,294.433,T*20
$PYRTM,2024,121.917164433530,13.026811843669
$GNGGA,220043.00,3300.25241407,N,11804.91840646,W,2,13,0.8,6.800,M,-37.223,M,6.0,0135*6A
$PYRTM,2024,121.917164433530,13.026811843669
$GNHDT,294.708,T*2B
$PYRTM,2024,121.917170161678,13.026817571817
$GNGGA,220043.50,3300.25285343,N,11804.91951349,W,2,13,0.8,7.218,M,-37.223,M,6.4,0135*6D
$PYRTM,2024,121.917170161678,13.026817571817
$GNHDT,294.968,T*23
$PYRTM,2024,121.917176009282,13.026823419421
$GNGGA,220044.00,3300.25329279,N,11804.92060425,W,2,13,0.8,7.697,M,-37.223,M,7.0,0135*63
$PYRTM,2024,121.917176009282,13.026823419421
$GNHDT,295.238,T*2C
$PYRTM,2024,121.917181738218,13.026829148356
$GNGGA,220044.50,3300.25374788,N,11804.92169971,W,2,13,0.8,8.093,M,-37.224,M,7.4,0135*6F
$PYRTM,2024,121.917181738218,13.026829148356
$GNHDT,295.585,T*2D
$PYRTM,2024,121.917187581262,13.026834991400
$GNGGA,220045.00,3300.25422145,N,11804.92280577,W,2,13,0.8,8.308,M,-37.224,M,7.0,0135*63
$PYRTM,2024,121.917187581262,13.026834991400
$GNHDT,295.646,T*21
$PYRTM,2024,121.917193312604,13.026840722743
$GNGGA,220045.50,3300.25471019,N,11804.92390970,W,2,13,0.8,8.347,M,-37.224,M,7.4,0135*6C
$PYRTM,2024,121.917193312604,13.026840722743
$GNHDT,295.674,T*20
$PYRTM,2024,121.917199158727,13.026846568866
$GNGGA,220046.00,3300.25520393,N,11804.92500862,W,2,13,0.8,8.210,M,-37.224,M,7.0,0135*64
$PYRTM,2024,121.917199158727,13.026846568866
$GNHDT,295.608,T*2B
$PYRTM,2024,121.917204881713,13.026852291852
$GNGGA,220046.50,3300.25568852,N,11804.92608698,W,2,13,0.8,7.978,M,-37.224,M,7.4,0135*65
$PYRTM,2024,121.917204881713,13.026852291852
$GNHDT,295.525,T*27
$PYRTM,2024,121.917210727870,13.026858138009
$GNGGA,220047.00,3300.25616223,N,11804.92714502,W,2,13,0.8,7.748,M,-37.224,M,4.0,0135*61
$PYRTM,2024,121.917210727870,13.026858138009
$GNHDT,295.518,T*29
$PYRTM,2024,121.917216460741,13.026863870880
$GNGGA,220047.50,3300.25662185,N,11804.92820050,W,2,13,0.8,7.578,M,-37.224,M,4.4,0135*67
$PYRTM,2024,121.917216460741,13.026863870880
$GNHDT,295.436,T*24
$PYRTM,2024,121.917222301157,13.026869711296
$GNGGA,220048.00,3300.25707520,N,11804.92926813,W,2,13,0.8,7.484,M,-37.224,M,5.0,0135*6B
$PYRTM,2024,121.917222301157,13.026869711296
$GNHDT,295.322,T*26
$PYRTM,2024,121.917228031991,13.026875442130
$GNGGA,220048.50,3300.25754394,N,11804.93036265,W,2,13,0.8,7.453,M,-37.224,M,5.4,0135*6D
$PYRTM,2024,121.917228031991,13.026875442130
$GNHDT,295.187,T*2B
$PYRTM,2024,121.917233873461,13.026881283611
$GNGGA,220049.00,3300.25803690,N,11804.93148880,W,2,13,0.8,7.412,M,-37.224,M,6.0,0135*6E
$PYRTM,2024,121.917233873461,13.026881283611
$GNHDT,295.170,T*23
$PYRTM,2024,121.917239602813,13.026887012951
$GNGGA,220049.50,3300.25855425,N,11804.93263974,W,2,13,0.8,7.365,M,-37.224,M,6.4,0135*67
$PYRTM,2024,121.917239602813,13.026887012951
$GNHDT,295.191,T*2C
$PYRTM,2024,121.917245451516,13.026892861655
$GNGGA,220050.00,3300.25909460,N,11804.93379339,W,2,13,0.8,7.326,M,-37.224,M,7.0,0135*68
$PYRTM,2024,121.917245451516,13.026892861655
$GNHDT,295.208,T*2F
$PYRTM,2024,121.917251177187,13.026898587338
$GNGGA,220050.50,3300.25963234,N,11804.93494051,W,2,13,0.8,7.316,M,-37.224,M,7.4,0135*68
$PYRTM,2024,121.917251177187,13.026898587338
$GNHDT,295.252,T*20
$PYRTM,2024,121.917257026157,13.026904436308
$GNGGA,220051.00,3300.26015959,N,11804.93608209,W,2,13,0.8,7.360,M,-37.224,M,7.0,0135*6A
$PYRTM,2024,121.917257026157,13.026904436308
$GNHDT,295.183,T*2F
$PYRTM,2024,121.917262753032,13.026910163171
$GNGGA,220051.50,3300.26067892,N,11804.93722800,W,2,13,0.8,7.428,M,-37.224,M,7.4,0135*69
$PYRTM,2024,121.917262753032,13.026910163171
$GNHDT,295.031,T*27
$PYRTM,2024,121.917268597674,13.026916007812
$GNGGA,220052.00,3300.26119453,N,11804.93839254,W,2,13,0.8,7.474,M,-37.224,M,7.0,0135*65
$PYRTM,2024,121.917268597674,13.026916007812
$GNHDT,295.190,T*2D
$PYRTM,2024,121.917274325243,13.026921735382
$GNGGA,220052.50,3300.26171043,N,11804.93956858,W,2,13,0.8,7.485,M,-37.224,M,7.4,0135*6F
$PYRTM,2024,121.917274325243,13.026921735382
$GNHDT,294.855,T*2C
$PYRTM,2024,121.917280173160,13.026927583299
$GNGGA,220053.00,3300.26221805,N,11804.94074480,W,2,13,0.8,7.467,M,-37.224,M,4.0,0135*6B
$PYRTM,2024,121.917280173160,13.026927583299
$GNHDT,294.907,T*2A
$PYRTM,2024,121.917285900359,13.026933310498
$GNGGA,220053.50,3300.26271346,N,11804.94190106,W,2,13,0.8,7.446,M,-37.224,M,4.4,0135*60
$PYRTM,2024,121.917285900359,13.026933310498
$GNHDT,295.067,T*24
$PYRTM,2024,121.917291744028,13.026939154167
$GNGGA,220054.00,3300.26319284,N,11804.94302382,W,2,13,0.8,7.493,M,-37.224,M,5.0,0135*68
$PYRTM,2024,121.917291744028,13.026939154167
$GNHDT,295.227,T*22
$PYRTM,2024,121.917297473889,13.026944884028
$GNGGA,220054.50,3300.26366742,N,11804.94410980,W,2,13,0.8,7.610,M,-37.224,M,5.4,0135*6B
$PYRTM,2024,121.917297473889,13.026944884028
$GNHDT,295.313,T*24
$PYRTM,2024,121.917303324965,13.026950735104
$GNGGA,220055.00,3300.26414985,N,11804.94517530,W,2,13,0.8,7.779,M,-37.224,M,6.0,0135*60
$PYRTM,2024,121.917303324965,13.026950735104
$GNHDT,295.348,T*2A
$PYRTM,2024,121.917309048333,13.026956458472
$GNGGA,220055.50,3300.26464646,N,11804.94624868,W,2,13,0.8,7.912,M,-37.224,M,6.4,0135*66
$PYRTM,2024,121.917309048333,13.026956458472
$GNHDT,295.342,T*20
$PYRTM,2024,121.917314894815,13.026962304954
$GNGGA,220056.00,3300.26515399,N,11804.94735048,W,2,13,0.8,7.945,M,-37.224,M,7.0,0135*6C
$PYRTM,2024,121.917314894815,13.026962304954
$GNHDT,295.267,T*26
$PYRTM,2024,121.917320624248,13.026968034387
$GNGGA,220056.50,3300.26564989,N,11804.94848012,W,2,13,0.8,7.867,M,-37.224,M,7.4,0135*6B
$PYRTM,2024,121.917320624248,13.026968034387
$GNHDT,295.475,T*23
$PYRTM,2024,121.917326467025,13.026973877164
$GNGGA,220057.00,3300.26610737,N,11804.94962394,W,2,13,0.8,7.707,M,-37.224,M,7.0,0135*6D
$PYRTM,2024,121.917326467025,13.026973877164
$GNHDT,295.318,T*2F
$PYRTM,2024,121.917332197500,13.026979607639
$GNGGA,220057.50,3300.26653428,N,11804.95076720,W,2,13,0.8,7.539,M,-37.224,M,7.4,0135*6F
$PYRTM,2024,121.917332197500,13.026979607639
$GNHDT,295.182,T*2E
$PYRTM,2024,121.917338042627,13.026985452766
$GNGGA,220058.00,3300.26694774,N,11804.95190036,W,2,13,0.8,7.408,M,-37.224,M,7.0,0135*6A
$PYRTM,2024,121.917338042627,13.026985452766
$GNHDT,295.155,T*24
$PYRTM,2024,121.917343770127,13.026991180266
$GNGGA,220058.50,3300.26736973,N,11804.95302030,W,2,13,0.8,7.340,M,-37.224,M,7.4,0135*6F
$PYRTM,2024,121.917343770127,13.026991180266
$GNHDT,295.305,T*23
$PYRTM,2024,121.917349617326,13.026997027465
$GNGGA,220059.00,3300.26782160,N,11804.95413806,W,2,13,0.8,7.309,M,-37.224,M,4.0,0135*6E
$PYRTM,2024,121.917349617326,13.026997027465
$GNHDT,295.357,T*24
$PYRTM,2024,121.917355344537,13.027002754687
$GNGGA,220059.50,3300.26832165,N,11804.95525640,W,2,13,0.8,7.267,M,-37.224,M,4.4,0135*6F
$PYRTM,2024,121.917355344537,13.027002754687
$GNHDT,295.386,T*28
$PYRTM,2024,121.917361189479,13.027008599618
$GNGGA,220100.00,3300.26884921,N,11804.95639167,W,2,13,0.8,7.208,M,-37.224,M,5.0,0135*62
$PYRTM,2024,121.917361189479,13.027008599618
$GNHDT,295.259,T*2B
$PYRTM,2024,121.917366919144,13.027014329282
$GNGGA,220100.50,3300.26938715,N,11804.95752868,W,2,13,0.8,7.165,M,-37.224,M,5.4,0135*6E
$PYRTM,2024,121.917366919144,13.027014329282
$GNHDT,295.019,T*2D
$PYRTM,2024,121.917372765231,13.027020175370
$GNGGA,220101.00,3300.26990507,N,11804.95867653,W,2,13,0.8,7.162,M,-37.224,M,6.0,0135*66
$PYRTM,2024,121.917372765231,13.027020175370
$GNHDT,294.900,T*2D
$PYRTM,2024,121.917378497234,13.027025907373
$GNGGA,220101.50,3300.27039658,N,11804.95983443,W,2,13,0.8,7.212,M,-37.224,M,6.4,0135*69
$PYRTM,2024,121.917378497234,13.027025907373
$GNHDT,294.939,T*27
$PYRTM,2024,121.917384340532,13.027031750671
$GNGGA,220102.00,3300.27086643,N,11804.96101001,W,2,13,0.8,7.309,M,-37.224,M,7.0,0135*6C
$PYRTM,2024,121.917384340532,13.027031750671
$GNHDT,294.896,T*23
$PYRTM,2024,121.917390073021,13.027037483160
$GNGGA,220102.50,3300.27133517,N,11804.96218881,W,2,13,0.8,7.423,M,-37.224,M,7.4,0135*64
$PYRTM,2024,121.917390073021,13.027037483160
$GNHDT,295.000,T*25
$PYRTM,2024,121.917395913819,13.027043323958
$GNGGA,220103.00,3300.27181539,N,11804.96336013,W,2,13,0.8,7.550,M,-37.224,M,7.0,0135*6A
$PYRTM,2024,121.917395913819,13.027043323958
$GNHDT,294.955,T*2D
$PYRTM,2024,121.917401645729,13.027049055868
$GNGGA,220103.50,3300.27231017,N,11804.96451016,W,2,13,0.8,7.686,M,-37.224,M,7.4,0135*61
$PYRTM,2024,121.917401645729,13.027049055868
$GNHDT,295.078,T*2A
$PYRTM,2024,121.917407485856,13.027054895995
$GNGGA,220104.00,3300.27282257,N,11804.96563517,W,2,13,0.8,7.834,M,-37.224,M,7.0,0135*6A
$PYRTM,2024,121.917407485856,13.027054895995
$GNHDT,295.318,T*2F
$PYRTM,2024,121.917413220139,13.027060630278
$GNGGA,220104.50,3300.27335152,N,11804.96673276,W,2,13,0.8,7.972,M,-37.224,M,7.4,0135*61
$PYRTM,2024,121.917413220139,13.027060630278
$GNHDT,295.038,T*2E
$PYRTM,2024,121.917419060810,13.027066470949
$GNGGA,220105.00,3300.27390034,N,11804.96779838,W,2,13,0.8,8.089,M,-37.224,M,4.0,0135*65
$PYRTM,2024,121.917419060810,13.027066470949
$GNHDT,295.037,T*21
$PYRTM,2024,121.917424791771,13.027072201910
$GNGGA,220105.50,3300.27445839,N,11804.96884759,W,2,13,0.8,8.165,M,-37.224,M,4.4,0135*68
$PYRTM,2024,121.917424791771,13.027072201910
$GNHDT,295.089,T*24
$PYRTM,2024,121.917430633611,13.027078043750
$GNGGA,220106.00,3300.27501048,N,11804.96990106,W,2,13,0.8,8.163,M,-37.224,M,5.0,0135*6A
$PYRTM,2024,121.917430633611,13.027078043750
$GNHDT,295.175,T*26
$PYRTM,2024,121.917436368727,13.027083778866
$GNGGA,220106.50,3300.27554034,N,11804.97099836,W,2,13,0.8,8.064,M,-37.224,M,5.4,0135*6D
$PYRTM,2024,121.917436368727,13.027083778866
$GNHDT,295.172,T*21
$PYRTM,2024,121.917442208252,13.027089618391
$GNGGA,220107.00,3300.27603912,N,11804.97215332,W,2,13,0.8,7.819,M,-37.224,M,6.0,0135*66
$PYRTM,2024,121.917442208252,13.027089618391
$GNHDT,295.209,T*2E
$PYRTM,2024,121.917447940104,13.027095350243
$GNGGA,220107.50,3300.27651201,N,11804.97336710,W,2,13,0.8,7.448,M,-37.224,M,6.4,0135*65
$PYRTM,2024,121.917447940104,13.027095350243
$GNHDT,295.277,T*27
$PYRTM,2024,121.917453785069,13.027101195220
$GNGGA,220108.00,3300.27697853,N,11804.97460654,W,2,13,0.8,7.009,M,-37.224,M,7.0,0135*69
$PYRTM,2024,121.917453785069,13.027101195220
$GNHDT,295.262,T*23
$PYRTM,2024,121.917459509954,13.027106920093
$GNGGA,220108.50,3300.27743925,N,11804.97582576,W,2,13,0.8,6.650,M,-37.224,M,7.4,0135*65
$PYRTM,2024,121.917459509954,13.027106920093
$GNHDT,295.328,T*2C
$PYRTM,2024,121.917465359711,13.027112769850
$GNGGA,220109.00,3300.27790353,N,11804.97699146,W,2,13,0.8,6.493,M,-37.224,M,7.0,0135*63
$PYRTM,2024,121.917465359711,13.027112769850
$GNHDT,295.210,T*26
$PYRTM,2024,121.917471085880,13.027118496019
$GNGGA,220109.50,3300.27837622,N,11804.97809716,W,2,13,0.8,6.573,M,-37.224,M,7.4,0135*68
$PYRTM,2024,121.917471085880,13.027118496019
$GNHDT,295.308,T*2E
$PYRTM,2024,121.917476935637,13.027124345775
$GNGGA,220110.00,3300.27887842,N,11804.97915070,W,2,13,0.8,6.860,M,-37.224,M,7.0,0135*66
$PYRTM,2024,121.917476935637,13.027124345775
$GNHDT,295.454,T*20
$PYRTM,2024,121.917482657766,13.027130067905
$GNGGA,220110.50,3300.27941324,N,11804.98019307,W,2,13,0.8,7.210,M,-37.224,M,7.4,0135*62
$PYRTM,2024,121.917482657766,13.027130067905
$GNHDT,295.197,T*2A
$PYRTM,2024,121.917488504259,13.027135914398
$GNGGA,220111.00,3300.27995864,N,11804.98124918,W,2,13,0.8,7.533,M,-37.224,M,4.0,0135*6A
$PYRTM,2024,121.917488504259,13.027135914398
$GNHDT,295.321,T*25
$PYRTM,2024,121.917494237593,13.027141647731
$GNGGA,220111.50,3300.28048025,N,11804.98234947,W,2,13,0.8,7.719,M,-37.224,M,4.4,0135*62
$PYRTM,2024,121.917494237593,13.027141647731
$GNHDT,295.258,T*2A
$PYRTM,2024,121.917500080104,13.027147490243
$GNGGA,220112.00,3300.28095440,N,11804.98349167,W,2,13,0.8,7.777,M,-37.224,M,5.0,0135*6F
$PYRTM,2024,121.917500080104,13.027147490243
$GNHDT,295.232,T*26
$PYRTM,2024,121.917505814838,13.027153224977
$GNGGA,220112.50,3300.28140828,N,11804.98464043,W,2,13,0.8,7.695,M,-37.224,M,5.4,0135*67
$PYRTM,2024,121.917505814838,13.027153224977
$GNHDT,295.277,T*27
$PYRTM,2024,121.917511655903,13.027159066042
$GNGGA,220113.00,3300.28184192,N,11804.98578128,W,2,13,0.8,7.542,M,-37.224,M,6.0,0135*6D
$PYRTM,2024,121.917511655903,13.027159066042
$GNHDT,295.305,T*23
$PYRTM,2024,121.917517381956,13.027164792095
$GNGGA,220113.50,3300.28227369,N,11804.98690929,W,2,13,0.8,7.367,M,-37.224,M,6.4,0135*6D
$PYRTM,2024,121.917517381956,13.027164792095
$GNHDT,295.040,T*21
$PYRTM,2024,121.917523233264,13.027170643403
$GNGGA,220114.00,3300.28269771,N,11804.98804473,W,2,13,0.8,7.187,M,-37.224,M,7.0,0135*60
$PYRTM,2024,121.917523233264,13.027170643403
$GNHDT,294.972,T*28
$PYRTM,2024,121.917528965602,13.027176375741
$GNGGA,220114.50,3300.28313899,N,11804.98918826,W,2,13,0.8,6.989,M,-37.224,M,7.4,0135*63
$PYRTM,2024,121.917528965602,13.027176375741
$GNHDT,295.132,T*25
$PYRTM,2024,121.917534804514,13.027182214664
$GNGGA,220115.00,3300.28360923,N,11804.99034411,W,2,13,0.8,6.816,M,-37.224,M,7.0,0135*6E
$PYRTM,2024,121.917534804514,13.027182214664
$GNHDT,294.924,T*2B
$PYRTM,2024,121.917540532512,13.027187942650
$GNGGA,220115.50,3300.28411440,N,11804.99149977,W,2,13,0.8,6.671,M,-37.225,M,7.4,0135*6E
$PYRTM,2024,121.917540532512,13.027187942650
$GNHDT,294.805,T*29
$PYRTM,2024,121.917546383345,13.027193793484
$GNGGA,220116.00,3300.28465067,N,11804.99263985,W,2,13,0.8,6.621,M,-37.225,M,7.0,0135*6D
$PYRTM,2024,121.917546383345,13.027193793484
$GNHDT,294.916,T*2A
$PYRTM,2024,121.917552103275,13.027199513414
$GNGGA,220116.50,3300.28521344,N,11804.99374171,W,2,13,0.8,6.724,M,-37.225,M,7.4,0135*6F
$PYRTM,2024,121.917552103275,13.027199513414
$GNHDT,295.051,T*21
$PYRTM,2024,121.917557955220,13.027205365359
$GNGGA,220117.00,3300.28577238,N,11804.99483184,W,2,13,0.8,6.972,M,-37.225,M,4.0,0135*6D
$PYRTM,2024,121.917557955220,13.027205365359
$GNHDT,294.944,T*2D
$PYRTM,2024,121.917563684039,13.027211094178
$GNGGA,220117.50,3300.28628995,N,11804.99593834,W,2,13,0.8,7.304,M,-37.225,M,4.4,0135*61
$PYRTM,2024,121.917563684039,13.027211094178
$GNHDT,295.042,T*23
$PYRTM,2024,121.917569531921,13.027216942060
$GNGGA,220118.00,3300.28676905,N,11804.99706903,W,2,13,0.8,7.676,M,-37.225,M,5.0,0135*67
$PYRTM,2024,121.917569531921,13.027216942060
$GNHDT,295.159,T*28
$PYRTM,2024,121.917575254618,13.027222664757
$GNGGA,220118.50,3300.28722800,N,11804.99821860,W,2,13,0.8,7.974,M,-37.225,M,5.4,0135*61
$PYRTM,2024,121.917575254618,13.027222664757
$GNHDT,295.414,T*24
$PYRTM,2024,121.917581106979,13.027228517130
$GNGGA,220119.00,3300.28768899,N,11804.99938702,W,2,13,0.8,8.116,M,-37.225,M,6.0,0135*6D
$PYRTM,2024,121.917581106979,13.027228517130
$GNHDT,295.561,T*27
$PYRTM,2024,121.917586825613,13.027234235752
$GNGGA,220119.50,3300.28817063,N,11805.00055820,W,2,13,0.8,8.084,M,-37.225,M,6.4,0135*60
$PYRTM,2024,121.917586825613,13.027234235752
$GNHDT,295.485,T*2C
$PYRTM,2024,121.917592675995,13.027240086134
$GNGGA,220120.00,3300.28869303,N,11805.00168792,W,2,13,0.8,7.926,M,-37.225,M,7.0,0135*61
$PYRTM,2024,121.917592675995,13.027240086134
$GNHDT,295.588,T*20
$PYRTM,2024,121.917598406273,13.027245816412
$GNGGA,220120.50,3300.28923242,N,11805.00276337,W,2,13,0.8,7.777,M,-37.225,M,7.4,0135*66
$PYRTM,2024,121.917598406273,13.027245816412
$GNHDT,295.654,T*22
$PYRTM,2024,121.917604247558,13.027251657708
$GNGGA,220121.00,3300.28977856,N,11805.00378240,W,2,13,0.8,7.720,M,-37.225,M,7.0,0135*64
$PYRTM,2024,121.917604247558,13.027251657708
$GNHDT,295.632,T*22
$PYRTM,2024,121.917609974873,13.027257385012
$GNGGA,220121.50,3300.29031108,N,11805.00479390,W,2,13,0.8,7.718,M,-37.225,M,7.4,0135*6C
$PYRTM,2024,121.917609974873,13.027257385012
$GNHDT,295.570,T*27
$PYRTM,2024,121.917615821887,13.027263232025
$GNGGA,220122.00,3300.29083590,N,11805.00582165,W,2,13,0.8,7.745,M,-37.225,M,7.0,0135*67
$PYRTM,2024,121.917615821887,13.027263232025
$GNHDT,295.384,T*2A
$PYRTM,2024,121.917621549317,13.027268959456
$GNGGA,220122.50,3300.29134667,N,11805.00692081,W,2,13,0.8,7.702,M,-37.225,M,7.4,0135*6A
$PYRTM,2024,121.917621549317,13.027268959456
$GNHDT,295.270,T*20
$PYRTM,2024,121.917627396586,13.027274806725
$GNGGA,220123.00,3300.29185043,N,11805.00809667,W,2,13,0.8,7.506,M,-37.225,M,4.0,0135*67
$PYRTM,2024,121.917627396586,13.027274806725
$GNHDT,295.193,T*2E
$PYRTM,2024,121.917633123322,13.027280533461
$GNGGA,220123.50,3300.29234789,N,11805.00931826,W,2,13,0.8,7.217,M,-37.225,M,4.4,0135*68
$PYRTM,2024,121.917633123322,13.027280533461
$GNHDT,295.204,T*23
$PYRTM,2024,121.917638971574,13.027286381713
$GNGGA,220124.00,3300.29283726,N,11805.01053856,W,2,13,0.8,6.922,M,-37.225,M,5.0,0135*61
$PYRTM,2024,121.917638971574,13.027286381713
$GNHDT,295.210,T*26
$PYRTM,2024,121.917644701586,13.027292111725
$GNGGA,220124.50,3300.29331842,N,11805.01170970,W,2,13,0.8,6.778,M,-37.225,M,5.4,0135*61
$PYRTM,2024,121.917644701586,13.027292111725
$GNHDT,295.138,T*2F
$PYRTM,2024,121.917650545347,13.027297955486
$GNGGA,220125.00,3300.29378526,N,11805.01282281,W,2,13,0.8,6.853,M,-37.225,M,6.0,0135*6D
$PYRTM,2024,121.917650545347,13.027297955486
$GNHDT,295.184,T*28
$PYRTM,2024,121.917656271701,13.027303681840
$GNGGA,220125.50,3300.29426507,N,11805.01389920,W,2,13,0.8,7.068,M,-37.225,M,6.4,0135*68
$PYRTM,2024,121.917656271701,13.027303681840
$GNHDT,295.316,T*21
$PYRTM,2024,121.917662134572,13.027309544711
$GNGGA,220126.00,3300.29476072,N,11805.01498553,W,2,13,0.8,7.338,M,-37.225,M,7.0,0135*60
$PYRTM,2024,121.917662134572,13.027309544711
$GNHDT,295.066,T*25
$PYRTM,2024,121.917667844942,13.027315255081
$GNGGA,220126.50,3300.29527914,N,11805.01611900,W,2,13,0.8,7.495,M,-37.225,M,7.4,0135*64
$PYRTM,2024,121.917667844942,13.027315255081
$GNHDT,295.085,T*28
$PYRTM,2024,121.917673692917,13.027321103056
$GNGGA,220127.00,3300.29580224,N,11805.01729899,W,2,13,0.8,7.503,M,-37.225,M,7.0,0135*64
$PYRTM,2024,121.917673692917,13.027321103056
$GNHDT,295.106,T*22
$PYRTM,2024,121.917679420394,13.027326830532
$GNGGA,220127.50,3300.29630941,N,11805.01847869,W,2,13,0.8,7.430,M,-37.225,M,7.4,0135*6C
$PYRTM,2024,121.917679420394,13.027326830532
$GNHDT,295.166,T*24
$PYRTM,2024,121.917685268623,13.027332678762
$GNGGA,220128.00,3300.29678990,N,11805.01961816,W,2,13,0.8,7.396,M,-37.225,M,7.0,0135*64
$PYRTM,2024,121.917685268623,13.027332678762
$GNHDT,295.119,T*2C
$PYRTM,2024,121.917690997813,13.027338407963
$GNGGA,220128.50,3300.29724629,N,11805.02071155,W,2,13,0.8,7.465,M,-37.225,M,7.4,0135*6E
$PYRTM,2024,121.917690997813,13.027338407963
$GNHDT,295.007,T*22
$PYRTM,2024,121.917696841539,13.027344251690
$GNGGA,220129.00,3300.29768892,N,11805.02177807,W,2,13,0.8,7.632,M,-37.225,M,4.0,0135*62
$PYRTM,2024,121.917696841539,13.027344251690
$GNHDT,294.930,T*2E
$PYRTM,2024,121.917702566644,13.027349976782
$GNGGA,220129.50,3300.29813114,N,11805.02284635,W,2,13,0.8,7.811,M,-37.225,M,4.4,0135*68
$PYRTM,2024,121.917702566644,13.027349976782
$GNHDT,294.740,T*27
$PYRTM,2024,121.917708415787,13.027355825926
$GNGGA,220130.00,3300.29858952,N,11805.02394808,W,2,13,0.8,7.919,M,-37.225,M,5.0,0135*6C
$PYRTM,2024,121.917708415787,13.027355825926
$GNHDT,294.604,T*26
$PYRTM,2024,121.917714140336,13.027361550475
$GNGGA,220130.50,3300.29906253,N,11805.02507178,W,2,13,0.8,7.858,M,-37.225,M,5.4,0135*6B
$PYRTM,2024,121.917714140336,13.027361550475
$GNHDT,294.790,T*2A
$PYRTM,2024,121.917719988495,13.027367398646
$GNGGA,220131.00,3300.29954375,N,11805.02618555,W,2,13,0.8,7.730,M,-37.225,M,6.0,0135*6D
$PYRTM,2024,121.917719988495,13.027367398646
$GNHDT,294.847,T*2F
$PYRTM,2024,121.917725717187,13.027373127338
$GNGGA,220131.50,3300.30003169,N,11805.02725789,W,2,13,0.8,7.600,M,-37.225,M,6.4,0135*6E
$PYRTM,2024,121.917725717187,13.027373127338
$GNHDT,294.783,T*28
$PYRTM,2024,121.917731571505,13.027378981644
$GNGGA,220132.00,3300.30052328,N,11805.02830185,W,2,13,0.8,7.524,M,-37.225,M,7.0,0135*6A
$PYRTM,2024,121.917731571505,13.027378981644
$GNHDT,294.801,T*2D
$PYRTM,2024,121.917737288530,13.027384698669
$GNGGA,220132.50,3300.30102169,N,11805.02936260,W,2,13,0.8,7.466,M,-37.225,M,7.4,0135*60
$PYRTM,2024,121.917737288530,13.027384698669
$GNHDT,294.843,T*2B
$PYRTM,2024,121.917743140382,13.027390550521
$GNGGA,220133.00,3300.30153734,N,11805.03048187,W,2,13,0.8,7.365,M,-37.225,M,7.0,0135*65
$PYRTM,2024,121.917743140382,13.027390550521
$GNHDT,294.800,T*2C
$PYRTM,2024,121.917748865926,13.027396276076
$GNGGA,220133.50,3300.30206191,N,11805.03166622,W,2,13,0.8,7.191,M,-37.225,M,7.4,0135*62
$PYRTM,2024,121.917748865926,13.027396276076
$GNHDT,294.824,T*2A
$PYRTM,2024,121.917754711701,13.027402121852
$GNGGA,220134.00,3300.30257184,N,11805.03288161,W,2,13,0.8,7.011,M,-37.225,M,7.0,0135*6E
$PYRTM,2024,121.917754711701,13.027402121852
$GNHDT,294.683,T*29
$PYRTM,2024,121.917760438009,13.027407848148
$GNGGA,220134.50,3300.30305671,N,11805.03407293,W,2,13,0.8,6.944,M,-37.225,M,7.4,0135*63
$PYRTM,2024,121.917760438009,13.027407848148
$GNHDT,294.725,T*24
$PYRTM,2024,121.917766286910,13.027413697049
$GNGGA,220135.00,3300.30351446,N,11805.03520336,W,2,13,0.8,7.097,M,-37.225,M,4.0,0135*6B
$PYRTM,2024,121.917766286910,13.027413697049
$GNHDT,294.583,T*2A
$PYRTM,2024,121.917772017269,13.027419427407
$GNGGA,220135.50,3300.30396328,N,11805.03627019,W,2,13,0.8,7.470,M,-37.225,M,4.4,0135*69
$PYRTM,2024,121.917772017269,13.027419427407
$GNHDT,294.881,T*25
$PYRTM,2024,121.917777858519,13.027425268657
$GNGGA,220136.00,3300.30443020,N,11805.03730619,W,2,13,0.8,7.978,M,-37.225,M,5.0,0135*6A
$PYRTM,2024,121.917777858519,13.027425268657
$GNHDT,294.885,T*21
$PYRTM,2024,121.917783586632,13.027430996771
$GNGGA,220136.50,3300.30493968,N,11805.03836360,W,2,13,0.8,8.388,M,-37.225,M,5.4,0135*6B
$PYRTM,2024,121.917783586632,13.027430996771
$GNHDT,294.851,T*28
$PYRTM,2024,121.917789433056,13.027436843194
$GNGGA,220137.00,3300.30549325,N,11805.03947247,W,2,13,0.8,8.575,M,-37.225,M,6.0,0135*6A
$PYRTM,2024,121.917789433056,13.027436843194
$GNHDT,294.884,T*20
$PYRTM,2024,121.917795161806,13.027442571944
$GNGGA,220137.50,3300.30605265,N,11805.04062072,W,2,13,0.8,8.477,M,-37.225,M,6.4,0135*6B
$PYRTM,2024,121.917795161806,13.027442571944
$GNHDT,294.839,T*26
$PYRTM,2024,121.917801008600,13.027448418738
$GNGGA,220138.00,3300.30658476,N,11805.04178614,W,2,13,0.8,8.181,M,-37.225,M,7.0,0135*68
$PYRTM,2024,121.917801008600,13.027448418738
$GNHDT,294.807,T*2B
$PYRTM,2024,121.917806741863,13.027454152002
$GNGGA,220138.50,3300.30706554,N,11805.04295198,W,2,13,0.8,7.779,M,-37.225,M,7.4,0135*6F
$PYRTM,2024,121.917806741863,13.027454152002
$GNHDT,294.982,T*27
$PYRTM,2024,121.917812580891,13.027459991030
$GNGGA,220139.00,3300.30751372,N,11805.04409500,W,2,13,0.8,7.442,M,-37.225,M,7.0,0135*62
$PYRTM,2024,121.917812580891,13.027459991030
$GNHDT,295.036,T*20
$PYRTM,2024,121.917818308588,13.027465718727
$GNGGA,220139.50,3300.30794256,N,11805.04521495,W,2,13,0.8,7.241,M,-37.225,M,7.4,0135*6E
$PYRTM,2024,121.917818308588,13.027465718727
$GNHDT,295.097,T*2B
$PYRTM,2024,121.917824160312,13.027471570451
$GNGGA,220140.00,3300.30836279,N,11805.04630258,W,2,13,0.8,7.255,M,-37.225,M,7.0,0135*6A
$PYRTM,2024,121.917824160312,13.027471570451
$GNHDT,295.350,T*23
$PYRTM,2024,121.917829881551,13.027477291690
$GNGGA,220140.50,3300.30880530,N,11805.04735661,W,2,13,0.8,7.429,M,-37.225,M,7.4,0135*6B
$PYRTM,2024,121.917829881551,13.027477291690
$GNHDT,295.632,T*22
$PYRTM,2024,121.917835734514,13.027483144653
$GNGGA,220141.00,3300.30925953,N,11805.04840690,W,2,13,0.8,7.705,M,-37.225,M,4.0,0135*61
$PYRTM,2024,121.917835734514,13.027483144653
$GNHDT,295.599,T*20
$PYRTM,2024,121.917841460197,13.027488870336
$GNGGA,220141.50,3300.30976266,N,11805.04946197,W,2,13,0.8,7.944,M,-37.225,M,4.4,0135*67
$PYRTM,2024,121.917841460197,13.027488870336
$GNHDT,295.468,T*2F
$PYRTM,2024,121.917847304757,13.027494714896
$GNGGA,220142.00,3300.31028422,N,11805.05056090,W,2,13,0.8,8.049,M,-37.225,M,5.0,0135*65
$PYRTM,2024,121.917847304757,13.027494714896
$GNHDT,295.370,T*21
$PYRTM,2024,121.917853036690,13.027500446829
$GNGGA,220142.50,3300.31080736,N,11805.05169534,W,2,13,0.8,7.999,M,-37.225,M,5.4,0135*6D
$PYRTM,2024,121.917853036690,13.027500446829
$GNHDT,295.785,T*2F
$PYRTM,2024,121.917858876725,13.027506286863
$GNGGA,220143.00,3300.31131829,N,11805.05283676,W,2,13,0.8,7.830,M,-37.225,M,6.0,0135*64
$PYRTM,2024,121.917858876725,13.027506286863
$GNHDT,295.849,T*20
$PYRTM,2024,121.917864603345,13.027512013484
$GNGGA,220143.50,3300.31181165,N,11805.05396336,W,2,13,0.8,7.645,M,-37.225,M,6.4,0135*67
$PYRTM,2024,121.917864603345,13.027512013484
$GNHDT,295.449,T*2C
$PYRTM,2024,121.917870454144,13.027517864294
$GNGGA,220144.00,3300.31228830,N,11805.05508240,W,2,13,0.8,7.492,M,-37.225,M,7.0,0135*60
$PYRTM,2024,121.917870454144,13.027517864294
$GNHDT,295.449,T*2C
$PYRTM,2024,121.917876178264,13.027523588403
$GNGGA,220144.50,3300.31275792,N,11805.05620138,W,2,13,0.8,7.401,M,-37.225,M,7.4,0135*61
$PYRTM,2024,121.917876178264,13.027523588403
$GNHDT,295.462,T*25
$PYRTM,2024,121.917882026007,13.027529436146
$GNGGA,220145.00,3300.31321907,N,11805.05733095,W,2,13,0.8,7.365,M,-37.225,M,7.0,0135*63
$PYRTM,2024,121.917882026007,13.027529436146
$GNHDT,295.447,T*22
$PYRTM,2024,121.917887754468,13.027535164606
$GNGGA,220145.50,3300.31367990,N,11805.05845787,W,2,13,0.8,7.396,M,-37.225,M,7.4,0135*68
$PYRTM,2024,121.917887754468,13.027535164606
$GNHDT,295.205,T*22
$PYRTM,2024,121.917893599329,13.027541009468
$GNGGA,220146.00,3300.31413895,N,11805.05956420,W,2,13,0.8,7.506,M,-37.225,M,7.0,0135*68
$PYRTM,2024,121.917893599329,13.027541009468
$GNHDT,295.307,T*21
$PYRTM,2024,121.917899329201,13.027546739340
$GNGGA,220146.50,3300.31460895,N,11805.06063230,W,2,13,0.8,7.700,M,-37.225,M,7.4,0135*62
$PYRTM,2024,121.917899329201,13.027546739340
$GNHDT,295.608,T*2B
$PYRTM,2024,121.917905174016,13.027552584155
$GNGGA,220147.00,3300.31509629,N,11805.06167584,W,2,13,0.8,7.920,M,-37.225,M,4.0,0135*67
$PYRTM,2024,121.917905174016,13.027552584155
$GNHDT,295.577,T*20
$PYRTM,2024,121.917910901597,13.027558311736
$GNGGA,220147.50,3300.31562112,N,11805.06273130,W,2,13,0.8,8.087,M,-37.225,M,4.4,0135*62
$PYRTM,2024,121.917910901597,13.027558311736
$GNHDT,295.545,T*21
$PYRTM,2024,121.917916745266,13.027564155405
$GNGGA,220148.00,3300.31617623,N,11805.06383115,W,2,13,0.8,8.087,M,-37.225,M,5.0,0135*60
$PYRTM,2024,121.917916745266,13.027564155405
$GNHDT,295.506,T*26
$PYRTM,2024,121.917922480775,13.027569890914
$GNGGA,220148.50,3300.31672517,N,11805.06498800,W,2,13,0.8,7.886,M,-37.225,M,5.4,0135*60
$PYRTM,2024,121.917922480775,13.027569890914
$GNHDT,295.518,T*29
$PYRTM,2024,121.917928323090,13.027575733229
$GNGGA,220149.00,3300.31724694,N,11805.06616573,W,2,13,0.8,7.567,M,-37.225,M,6.0,0135*66
$PYRTM,2024,121.917928323090,13.027575733229
$GNHDT,295.658,T*2E
$PYRTM,2024,121.917934051227,13.027581461366
$GNGGA,220149.50,3300.31772616,N,11805.06732743,W,2,13,0.8,7.290,M,-37.226,M,6.4,0135*64
$PYRTM,2024,121.917934051227,13.027581461366
$GNHDT,295.453,T*27
$PYRTM,2024,121.917939896100,13.027587306238
$GNGGA,220150.00,3300.31816986,N,11805.06844996,W,2,13,0.8,7.175,M,-37.226,M,7.0,0135*67
$PYRTM,2024,121.917939896100,13.027587306238
$GNHDT,295.513,T*22
$PYRTM,2024,121.917945625069,13.027593035208
$GNGGA,220150.50,3300.31860822,N,11805.06952152,W,2,13,0.8,7.277,M,-37.226,M,7.4,0135*6F
$PYRTM,2024,121.917945625069,13.027593035208
$GNHDT,295.648,T*2F
$PYRTM,2024,121.917951468090,13.027598878229
$GNGGA,220151.00,3300.31905163,N,11805.07057297,W,2,13,0.8,7.544,M,-37.226,M,7.0,0135*61
$PYRTM,2024,121.917951468090,13.027598878229
$GNHDT,295.668,T*2D
$PYRTM,2024,121.917957197188,13.027604607326
$GNGGA,220151.50,3300.31952434,N,11805.07162005,W,2,13,0.8,7.849,M,-37.226,M,7.4,0135*6B
$PYRTM,2024,121.917957197188,13.027604607326
$GNHDT,295.746,T*20
$PYRTM,2024,121.917963042824,13.027610452963
$GNGGA,220152.00,3300.32004300,N,11805.07268569,W,2,13,0.8,8.082,M,-37.226,M,7.0,0135*66
$PYRTM,2024,121.917963042824,13.027610452963
$GNHDT,295.603,T*20
$PYRTM,2024,121.917968771609,13.027616181748
$GNGGA,220152.50,3300.32059174,N,11805.07378200,W,2,13,0.8,8.169,M,-37.226,M,7.4,0135*62
$PYRTM,2024,121.917968771609,13.027616181748
$GNHDT,295.513,T*22
$PYRTM,2024,121.917974624144,13.027622034282
$GNGGA,220153.00,3300.32114358,N,11805.07491241,W,2,13,0.8,8.042,M,-37.226,M,4.0,0135*68
$PYRTM,2024,121.917974624144,13.027622034282
$GNHDT,295.526,T*24
$PYRTM,2024,121.917980351204,13.027627761343
$GNGGA,220153.50,3300.32166899,N,11805.07608067,W,2,13,0.8,7.733,M,-37.226,M,4.4,0135*60
$PYRTM,2024,121.917980351204,13.027627761343
$GNHDT,295.480,T*29
$PYRTM,2024,121.917986193611,13.027633603762
$GNGGA,220154.00,3300.32217686,N,11805.07725474,W,2,13,0.8,7.341,M,-37.226,M,5.0,0135*6B
$PYRTM,2024,121.917986193611,13.027633603762
$GNHDT,295.476,T*20
$PYRTM,2024,121.917991919942,13.027639330081
$GNGGA,220154.50,3300.32266095,N,11805.07839956,W,2,13,0.8,7.018,M,-37.226,M,5.4,0135*68
$PYRTM,2024,121.917991919942,13.027639330081
$GNHDT,295.449,T*2C
$PYRTM,2024,121.917997766574,13.027645176713
$GNGGA,220155.00,3300.32313419,N,11805.07949751,W,2,13,0.8,6.897,M,-37.226,M,6.0,0135*69
$PYRTM,2024,121.917997766574,13.027645176713
$GNHDT,295.490,T*28
$PYRTM,2024,121.918003495648,13.027650905787
$GNGGA,220155.50,3300.32360351,N,11805.08055060,W,2,13,0.8,7.005,M,-37.226,M,6.4,0135*6B
$PYRTM,2024,121.918003495648,13.027650905787
$GNHDT,295.469,T*2E
$PYRTM,2024,121.918009345694,13.027656755833
$GNGGA,220156.00,3300.32406339,N,11805.08159960,W,2,13,0.8,7.268,M,-37.226,M,7.0,0135*6C
$PYRTM,2024,121.918009345694,13.027656755833
$GNHDT,295.816,T*2A
$PYRTM,2024,121.918015070197,13.027662480347
$GNGGA,220156.50,3300.32455147,N,11805.08264279,W,2,13,0.8,7.583,M,-37.226,M,7.4,0135*6C
$PYRTM,2024,121.918015070197,13.027662480347
$GNHDT,295.617,T*25
$PYRTM,2024,121.918020912697,13.027668322836
$GNGGA,220157.00,3300.32505851,N,11805.08370509,W,2,13,0.8,7.854,M,-37.226,M,7.0,0135*65
$PYRTM,2024,121.918020912697,13.027668322836
$GNHDT,295.619,T*2B
$PYRTM,2024,121.918026641481,13.027674051620
$GNGGA,220157.50,3300.32558109,N,11805.08479697,W,2,13,0.8,7.992,M,-37.226,M,7.4,0135*69
$PYRTM,2024,121.918026641481,13.027674051620
$GNHDT,295.720,T*20
$PYRTM,2024,121.918032487963,13.027679898102
$GNGGA,220158.00,3300.32610739,N,11805.08591399,W,2,13,0.8,7.967,M,-37.226,M,7.0,0135*6B
$PYRTM,2024,121.918032487963,13.027679898102
$GNHDT,295.626,T*27
$PYRTM,2024,121.918038221157,13.027685631296
$GNGGA,220158.50,3300.32661701,N,11805.08705330,W,2,13,0.8,7.795,M,-37.226,M,7.4,0135*68
$PYRTM,2024,121.918038221157,13.027685631296
$GNHDT,295.582,T*2A
$PYRTM,2024,121.918044062234,13.027691472373
$GNGGA,220159.00,3300.32710171,N,11805.08820019,W,2,13,0.8,7.567,M,-37.226,M,4.0,0135*62
$PYRTM,2024,121.918044062234,13.027691472373
$GNHDT,295.555,T*20
$PYRTM,2024,121.918049789549,13.027697199688
$GNGGA,220159.50,3300.32756754,N,11805.08933720,W,2,13,0.8,7.352,M,-37.226,M,4.4,0135*6E
$PYRTM,2024,121.918049789549,13.027697199688
$GNHDT,295.661,T*24
$PYRTM,2024,121.918055642859,13.027703052998
$GNGGA,220200.00,3300.32802163,N,11805.09045366,W,2,13,0.8,7.224,M,-37.226,M,5.0,0135*62
$PYRTM,2024,121.918055642859,13.027703052998
$GNHDT,295.667,T*22
$PYRTM,2024,121.918061367488,13.027708777627
$GNGGA,220200.50,3300.32848792,N,11805.09154170,W,2,13,0.8,7.206,M,-37.226,M,5.4,0135*61
$PYRTM,2024,121.918061367488,13.027708777627
$GNHDT,295.526,T*24
$PYRTM,2024,121.918067210810,13.027714620949
$GNGGA,220201.00,3300.32896618,N,11805.09261565,W,2,13,0.8,7.290,M,-37.226,M,6.0,0135*68
$PYRTM,2024,121.918067210810,13.027714620949
$GNHDT,295.558,T*2D
$PYRTM,2024,121.918072939144,13.027720349282
$GNGGA,220201.50,3300.32947017,N,11805.09368693,W,2,13,0.8,7.411,M,-37.226,M,6.4,0135*60
$PYRTM,2024,121.918072939144,13.027720349282
$GNHDT,295.589,T*21
$PYRTM,2024,121.918078783137,13.027726193275
$GNGGA,220202.00,3300.32999781,N,11805.09477129,W,2,13,0.8,7.525,M,-37.226,M,7.0,0135*61
$PYRTM,2024,121.918078783137,13.027726193275
$GNHDT,295.527,T*25
$PYRTM,2024,121.918084512222,13.027731922373
$GNGGA,220202.50,3300.33053436,N,11805.09588623,W,2,13,0.8,7.587,M,-37.226,M,7.4,0135*65
$PYRTM,2024,121.918084512222,13.027731922373
$GNHDT,295.464,T*23
$PYRTM,2024,121.918090358171,13.027737768310
$GNGGA,220203.00,3300.33106149,N,11805.09702963,W,2,13,0.8,7.584,M,-37.226,M,7.0,0135*61
$PYRTM,2024,121.918090358171,13.027737768310
$GNHDT,295.581,T*29
$PYRTM,2024,121.918096087743,13.027743497882
$GNGGA,220203.50,3300.33156653,N,11805.09818285,W,2,13,0.8,7.544,M,-37.226,M,7.4,0135*62
$PYRTM,2024,121.918096087743,13.027743497882
$GNHDT,295.466,T*21
$PYRTM,2024,121.918101930451,13.027749340590
$GNGGA,220204.00,3300.33204711,N,11805.09933041,W,2,13,0.8,7.500,M,-37.226,M,7.0,0135*65
$PYRTM,2024,121.918101930451,13.027749340590
$GNHDT,295.443,T*26
$PYRTM,2024,121.918107659873,13.027755070012
$GNGGA,220204.50,3300.33251126,N,11805.10045909,W,2,13,0.8,7.502,M,-37.226,M,7.4,0135*61
$PYRTM,2024,121.918107659873,13.027755070012
$GNHDT,295.422,T*21
$PYRTM,2024,121.918113507627,13.027760917766
$GNGGA,220205.00,3300.33297452,N,11805.10156505,W,2,13,0.8,7.543,M,-37.226,M,4.0,0135*68
$PYRTM,2024,121.918113507627,13.027760917766
$GNHDT,295.342,T*20
$PYRTM,2024,121.918119233553,13.027766643692
$GNGGA,220205.50,3300.33346064,N,11805.10266351,W,2,13,0.8,7.576,M,-37.226,M,4.4,0135*64
$PYRTM,2024,121.918119233553,13.027766643692
$GNHDT,295.516,T*27
$PYRTM,2024,121.918125078437,13.027772488576
$GNGGA,220206.00,3300.33397484,N,11805.10377624,W,2,13,0.8,7.571,M,-37.226,M,5.0,0135*60
$PYRTM,2024,121.918125078437,13.027772488576
$GNHDT,295.445,T*20
$PYRTM,2024,121.918130808576,13.027778218715
$GNGGA,220206.50,3300.33451738,N,11805.10491748,W,2,13,0.8,7.463,M,-37.226,M,5.4,0135*6E
$PYRTM,2024,121.918130808576,13.027778218715
$GNHDT,295.464,T*23
$PYRTM,2024,121.918136654850,13.027784064988
$GNGGA,220207.00,3300.33507066,N,11805.10608742,W,2,13,0.8,7.250,M,-37.226,M,6.0,0135*6D
$PYRTM,2024,121.918136654850,13.027784064988
$GNHDT,295.380,T*2E
$PYRTM,2024,121.918142381319,13.027789791470
$GNGGA,220207.50,3300.33561974,N,11805.10723248,W,2,13,0.8,7.081,M,-37.226,M,6.4,0135*6F
$PYRTM,2024,121.918142381319,13.027789791470
$GNHDT,295.309,T*2F
$PYRTM,2024,121.918148228773,13.027795638912
$GNGGA,220208.00,3300.33613727,N,11805.10833122,W,2,13,0.8,7.055,M,-37.226,M,7.0,0135*66
$PYRTM,2024,121.918148228773,13.027795638912
$GNHDT,295.410,T*20
$PYRTM,2024,121.918153956505,13.027801366644
$GNGGA,220208.50,3300.33661518,N,11805.10939478,W,2,13,0.8,7.204,M,-37.226,M,7.4,0135*6B
$PYRTM,2024,121.918153956505,13.027801366644
$GNHDT,295.434,T*26
$PYRTM,2024,121.918159803495,13.027807213634
$GNGGA,220209.00,3300.33706953,N,11805.11044828,W,2,13,0.8,7.470,M,-37.226,M,7.0,0135*66
$PYRTM,2024,121.918159803495,13.027807213634
$GNHDT,295.368,T*28
$PYRTM,2024,121.918165535660,13.027812945799
$GNGGA,220209.50,3300.33752795,N,11805.11153273,W,2,13,0.8,7.707,M,-37.226,M,7.4,0135*62
$PYRTM,2024,121.918165535660,13.027812945799
$GNHDT,295.281,T*2E
$PYRTM,2024,121.918171380058,13.027818790208
$GNGGA,220210.00,3300.33801147,N,11805.11265156,W,2,13,0.8,7.804,M,-37.226,M,7.0,0135*65
$PYRTM,2024,121.918171380058,13.027818790208
$GNHDT,295.338,T*2D
$PYRTM,2024,121.918177103773,13.027824513912
$GNGGA,220210.50,3300.33850615,N,11805.11379021,W,2,13,0.8,7.745,M,-37.226,M,7.4,0135*67
$PYRTM,2024,121.918177103773,13.027824513912
$GNHDT,295.183,T*2F
$PYRTM,2024,121.918182950648,13.027830360787
$GNGGA,220211.00,3300.33899055,N,11805.11491754,W,2,13,0.8,7.600,M,-37.226,M,4.0,0135*67
$PYRTM,2024,121.918182950648,13.027830360787
$GNHDT,295.268,T*29
$PYRTM,2024,121.918188682743,13.027836092882
$GNGGA,220211.50,3300.33946503,N,11805.11600845,W,2,13,0.8,7.457,M,-37.226,M,4.4,0135*66
$PYRTM,2024,121.918188682743,13.027836092882
$GNHDT,295.272,T*22
$PYRTM,2024,121.918194524282,13.027841934433
$GNGGA,220212.00,3300.33993143,N,11805.11707506,W,2,13,0.8,7.361,M,-37.226,M,5.0,0135*63
$PYRTM,2024,121.918194524282,13.027841934433
$GNHDT,295.113,T*26
$PYRTM,2024,121.918200255741,13.027847665880
$GNGGA,220212.50,3300.34040288,N,11805.11815153,W,2,13,0.8,7.287,M,-37.226,M,5.4,0135*67
$PYRTM,2024,121.918200255741,13.027847665880
$GNHDT,294.958,T*20
$PYRTM,2024,121.918206098669,13.027853508808
$GNGGA,220213.00,3300.34088860,N,11805.11926814,W,2,13,0.8,7.211,M,-37.226,M,6.0,0135*68
$PYRTM,2024,121.918206098669,13.027853508808
$GNHDT,294.916,T*2A
$PYRTM,2024,121.918211831539,13.027859241678
$GNGGA,220213.50,3300.34138815,N,11805.12042587,W,2,13,0.8,7.076,M,-37.226,M,6.4,0135*6D
$PYRTM,2024,121.918211831539,13.027859241678
$GNHDT,294.969,T*22
$PYRTM,2024,121.918217671968,13.027865082106
$GNGGA,220214.00,3300.34189636,N,11805.12160974,W,2,13,0.8,6.901,M,-37.226,M,7.0,0135*66
$PYRTM,2024,121.918217671968,13.027865082106
$GNHDT,294.980,T*25
$PYRTM,2024,121.918223411238,13.027870821389
$GNGGA,220214.50,3300.34240422,N,11805.12277528,W,2,13,0.8,6.817,M,-37.226,M,7.4,0135*60
$PYRTM,2024,121.918223411238,13.027870821389
$GNHDT,294.888,T*2C
$PYRTM,2024,121.918229251910,13.027876662049
$GNGGA,220215.00,3300.34289824,N,11805.12391624,W,2,13,0.8,6.879,M,-37.226,M,7.0,0135*61
$PYRTM,2024,121.918229251910,13.027876662049
$GNHDT,294.727,T*26
$PYRTM,2024,121.918234978877,13.027882389016
$GNGGA,220215.50,3300.34337787,N,11805.12504043,W,2,13,0.8,7.112,M,-37.226,M,7.4,0135*6A
$PYRTM,2024,121.918234978877,13.027882389016
$GNHDT,294.507,T*26
$PYRTM,2024,121.918240823866,13.027888234005
$GNGGA,220216.00,3300.34385569,N,11805.12615749,W,2,13,0.8,7.454,M,-37.226,M,7.0,0135*6A
$PYRTM,2024,121.918240823866,13.027888234005
$GNHDT,294.462,T*24
$PYRTM,2024,121.918246552361,13.027893962500
$GNGGA,220216.50,3300.34435313,N,11805.12729085,W,2,13,0.8,7.760,M,-37.226,M,7.4,0135*61
$PYRTM,2024,121.918246552361,13.027893962500
$GNHDT,294.389,T*26
$PYRTM,2024,121.918252394711,13.027899804850
$GNGGA,220217.00,3300.34487294,N,11805.12844374,W,2,13,0.8,7.958,M,-37.226,M,4.0,0135*69
$PYRTM,2024,121.918252394711,13.027899804850
$GNHDT,294.230,T*25
$PYRTM,2024,121.918258124051,13.027905534190
$GNGGA,220217.50,3300.34540210,N,11805.12960285,W,2,13,0.8,7.994,M,-37.226,M,4.4,0135*66
$PYRTM,2024,121.918258124051,13.027905534190
$GNHDT,294.292,T*2D
$PYRTM,2024,121.918263978160,13.027911388299
$GNGGA,220218.00,3300.34592860,N,11805.13073755,W,2,13,0.8,7.901,M,-37.226,M,5.0,0135*65
$PYRTM,2024,121.918263978160,13.027911388299
$GNHDT,294.349,T*2A
$PYRTM,2024,121.918269698657,13.027917108796
$GNGGA,220218.50,3300.34644060,N,11805.13184292,W,2,13,0.8,7.767,M,-37.226,M,5.4,0135*6D
$PYRTM,2024,121.918269698657,13.027917108796
$GNHDT,294.398,T*26
$PYRTM,2024,121.918275544537,13.027922954687
$GNGGA,220219.00,3300.34693776,N,11805.13292624,W,2,13,0.8,7.642,M,-37.226,M,6.0,0135*6F
$PYRTM,2024,121.918275544537,13.027922954687
$GNHDT,294.440,T*24
$PYRTM,2024,121.918281271377,13.027928681516
$GNGGA,220219.50,3300.34742120,N,11805.13400960,W,2,13,0.8,7.546,M,-37.226,M,6.4,0135*63
$PYRTM,2024,121.918281271377,13.027928681516
$GNHDT,294.374,T*24
$PYRTM,2024,121.918287116146,13.027934526285
$GNGGA,220220.00,3300.34789010,N,11805.13510161,W,2,13,0.8,7.480,M,-37.226,M,7.0,0135*6E
$PYRTM,2024,121.918287116146,13.027934526285
$GNHDT,294.508,T*29
$PYRTM,2024,121.918292848044,13.027940258183
$GNGGA,220220.50,3300.34834844,N,11805.13620810,W,2,13,0.8,7.441,M,-37.226,M,7.4,0135*6D
$PYRTM,2024,121.918292848044,13.027940258183
$GNHDT,294.584,T*2D
$PYRTM,2024,121.918298692234,13.027946102373
$GNGGA,220221.00,3300.34880545,N,11805.13732801,W,2,13,0.8,7.398,M,-37.226,M,7.0,0135*6F
$PYRTM,2024,121.918298692234,13.027946102373
$GNHDT,294.616,T*25
$PYRTM,2024,121.918304419722,13.027951829861
$GNGGA,220221.50,3300.34927325,N,11805.13846808,W,2,13,0.8,7.318,M,-37.226,M,7.4,0135*6F
$PYRTM,2024,121.918304419722,13.027951829861
$GNHDT,294.710,T*22
$PYRTM,2024,121.918310265926,13.027957676065
$GNGGA,220222.00,3300.34974845,N,11805.13963245,W,2,13,0.8,7.190,M,-37.226,M,7.0,0135*61
$PYRTM,2024,121.918310265926,13.027957676065
$GNHDT,294.711,T*23
$PYRTM,2024,121.918315993021,13.027963403160
$GNGGA,220222.50,3300.35023729,N,11805.14079237,W,2,13,0.8,7.068,M,-37.226,M,7.4,0135*69
$PYRTM,2024,121.918315993021,13.027963403160
$GNHDT,294.927,T*28
$PYRTM,2024,121.918321841875,13.027969252014
$GNGGA,220223.00,3300.35073489,N,11805.14191684,W,2,13,0.8,7.028,M,-37.226,M,4.0,0135*69
$PYRTM,2024,121.918321841875,13.027969252014
$GNHDT,294.836,T*29
$PYRTM,2024,121.918327568472,13.027974978611
$GNGGA,220223.50,3300.35122068,N,11805.14302038,W,2,13,0.8,7.090,M,-37.226,M,4.4,0135*6C
$PYRTM,2024,121.918327568472,13.027974978611
$GNHDT,294.759,T*2F
$PYRTM,2024,121.918333413634,13.027980823773
$GNGGA,220224.00,3300.35169195,N,11805.14412709,W,2,13,0.8,7.240,M,-37.227,M,5.0,0135*6A
$PYRTM,2024,121.918333413634,13.027980823773
$GNHDT,294.952,T*2A
$PYRTM,2024,121.918339142234,13.027986552373
$GNGGA,220224.50,3300.35215829,N,11805.14525616,W,2,13,0.8,7.383,M,-37.227,M,5.4,0135*69
$PYRTM,2024,121.918339142234,13.027986552373
$GNHDT,294.801,T*2D
$PYRTM,2024,121.918344988079,13.027992398218
$GNGGA,220225.00,3300.35262444,N,11805.14641688,W,2,13,0.8,7.450,M,-37.227,M,6.0,0135*62
$PYRTM,2024,121.918344988079,13.027992398218
$GNHDT,294.683,T*29
$PYRTM,2024,121.918350715625,13.027998125764
$GNGGA,220225.50,3300.35309751,N,11805.14759564,W,2,13,0.8,7.423,M,-37.227,M,6.4,0135*65
$PYRTM,2024,121.918350715625,13.027998125764
$GNHDT,294.836,T*29
$PYRTM,2024,121.918356564664,13.028003974803
$GNGGA,220226.00,3300.35358263,N,11805.14877522,W,2,13,0.8,7.357,M,-37.227,M,7.0,0135*63
$PYRTM,2024,121.918356564664,13.028003974803
$GNHDT,294.727,T*26
$PYRTM,2024,121.918362294850,13.028009704988
$GNGGA,220226.50,3300.35407145,N,11805.14992793,W,2,13,0.8,7.299,M,-37.227,M,7.4,0135*69
$PYRTM,2024,121.918362294850,13.028009704988
$GNHDT,294.767,T*22
$PYRTM,2024,121.918368135752,13.028015545891
$GNGGA,220227.00,3300.35454885,N,11805.15104230,W,2,13,0.8,7.347,M,-37.227,M,7.0,0135*62
$PYRTM,2024,121.918368135752,13.028015545891
$GNHDT,294.524,T*27
$PYRTM,2024,121.918373865417,13.028021275556
$GNGGA,220227.50,3300.35501117,N,11805.15211794,W,2,13,0.8,7.519,M,-37.227,M,7.4,0135*61
$PYRTM,2024,121.918373865417,13.028021275556
$GNHDT,294.605,T*27
$PYRTM,2024,121.918379711539,13.028027121678
$GNGGA,220228.00,3300.35546674,N,11805.15317520,W,2,13,0.8,7.776,M,-37.227,M,7.0,0135*6F
$PYRTM,2024,121.918379711539,13.028027121678
$GNHDT,294.790,T*2A
$PYRTM,2024,121.918385437269,13.028032847407
$GNGGA,220228.50,3300.35594108,N,11805.15424594,W,2,13,0.8,8.008,M,-37.227,M,7.4,0135*64
$PYRTM,2024,121.918385437269,13.028032847407
$GNHDT,294.755,T*23
$PYRTM,2024,121.918391283553,13.028038693692
