$PYRTM,2024,122.667361258715,13.777008668854
$GNGGA,160100.00,3350.94592626,N,12002.49210906,W,2,13,0.8,6.881,M,-37.363,M,5.0,0135*6F
$PYRTM,2024,122.667361258715,13.777008668854
$GNHDT,70.998,T*14
$PYRTM,2024,122.667366987477,13.777014397616
$GNGGA,160100.50,3350.94632712,N,12002.49083688,W,2,13,0.8,6.933,M,-37.363,M,5.4,0135*68
$PYRTM,2024,122.667366987477,13.777014397616
$GNHDT,70.994,T*18
$PYRTM,2024,122.667372827523,13.777020237662
$GNGGA,160101.00,3350.94675905,N,12002.48953349,W,2,13,0.8,7.057,M,-37.363,M,6.0,0135*67
$PYRTM,2024,122.667372827523,13.777020237662
$GNHDT,70.827,T*11
$PYRTM,2024,122.667378563299,13.777025973438
$GNGGA,160101.50,3350.94718934,N,12002.48819009,W,2,13,0.8,7.192,M,-37.363,M,6.4,0135*6E
$PYRTM,2024,122.667378563299,13.777025973438
$GNHDT,70.591,T*11
$PYRTM,2024,122.667384397257,13.777031807396
$GNGGA,160102.00,3350.94763708,N,12002.48680993,W,2,13,0.8,7.373,M,-37.363,M,7.0,0135*69
$PYRTM,2024,122.667384397257,13.777031807396
$GNHDT,70.396,T*10
$PYRTM,2024,122.667390137014,13.777037547153
$GNGGA,160102.50,3350.94809340,N,12002.48539843,W,2,13,0.8,7.599,M,-37.363,M,7.4,0135*6C
$PYRTM,2024,122.667390137014,13.777037547153
$GNHDT,70.170,T*1A
$PYRTM,2024,122.667395975394,13.777043385532
$GNGGA,160103.00,3350.94855323,N,12002.48395655,W,2,13,0.8,7.818,M,-37.363,M,7.0,0135*6D
$PYRTM,2024,122.667395975394,13.777043385532
$GNHDT,69.769,T*1C
$PYRTM,2024,122.667401712685,13.777049122824
$GNGGA,160103.50,3350.94901157,N,12002.48249286,W,2,13,0.8,8.023,M,-37.363,M,7.4,0135*68
$PYRTM,2024,122.667401712685,13.777049122824
$GNHDT,69.366,T*17
$PYRTM,2024,122.667407549583,13.777054959722
$GNGGA,160104.00,3350.94945545,N,12002.48101433,W,2,13,0.8,8.202,M,-37.363,M,7.0,0135*6F
$PYRTM,2024,122.667407549583,13.777054959722
$GNHDT,69.188,T*15
$PYRTM,2024,122.667413280625,13.777060690764
$GNGGA,160104.50,3350.94988632,N,12002.47954179,W,2,13,0.8,8.337,M,-37.363,M,7.4,0135*67
$PYRTM,2024,122.667413280625,13.777060690764
$GNHDT,68.944,T*1C
$PYRTM,2024,122.667419121690,13.777066531829
$GNGGA,160105.00,3350.95029853,N,12002.47806525,W,2,13,0.8,8.375,M,-37.363,M,4.0,0135*63
$PYRTM,2024,122.667419121690,13.777066531829
$GNHDT,68.831,T*1F
$PYRTM,2024,122.667424854988,13.777072265127
$GNGGA,160105.50,3350.95069783,N,12002.47660833,W,2,13,0.8,8.315,M,-37.363,M,4.4,0135*66
$PYRTM,2024,122.667424854988,13.777072265127
$GNHDT,68.935,T*1A
$PYRTM,2024,122.667430695405,13.777078105544
$GNGGA,160106.00,3350.95108066,N,12002.47518642,W,2,13,0.8,8.157,M,-37.363,M,5.0,0135*6F
$PYRTM,2024,122.667430695405,13.777078105544
$GNHDT,69.246,T*14
$PYRTM,2024,122.667436418681,13.777083828831
$GNGGA,160106.50,3350.95144829,N,12002.47381464,W,2,13,0.8,7.956,M,-37.363,M,5.4,0135*63
$PYRTM,2024,122.667436418681,13.777083828831
$GNHDT,69.580,T*19
$PYRTM,2024,122.667442259282,13.777089669421
$GNGGA,160107.00,3350.95182070,N,12002.47250797,W,2,13,0.8,7.742,M,-37.363,M,6.0,0135*67
$PYRTM,2024,122.667442259282,13.777089669421
$GNHDT,70.086,T*12
$PYRTM,2024,122.667447988634,13.777095398773
$GNGGA,160107.50,3350.95218745,N,12002.47126347,W,2,13,0.8,7.519,M,-37.363,M,6.4,0135*60
$PYRTM,2024,122.667447988634,13.777095398773
$GNHDT,70.644,T*1A
$PYRTM,2024,122.667453840081,13.777101250220
$GNGGA,160108.00,3350.95256377,N,12002.47007781,W,2,13,0.8,7.300,M,-37.363,M,7.0,0135*62
$PYRTM,2024,122.667453840081,13.777101250220
$GNHDT,71.210,T*1E
$PYRTM,2024,122.667459562431,13.777106972569
$GNGGA,160108.50,3350.95294798,N,12002.46892858,W,2,13,0.8,7.083,M,-37.363,M,7.4,0135*6E
$PYRTM,2024,122.667459562431,13.777106972569
$GNHDT,71.571,T*1E
$PYRTM,2024,122.667465411493,13.777112821632
$GNGGA,160109.00,3350.95334235,N,12002.46780398,W,2,13,0.8,6.847,M,-37.363,M,7.0,0135*6D
$PYRTM,2024,122.667465411493,13.777112821632
$GNHDT,71.778,T*15
$PYRTM,2024,122.667471141817,13.777118551968
$GNGGA,160109.50,3350.95374607,N,12002.46668135,W,2,13,0.8,6.627,M,-37.363,M,7.4,0135*67
$PYRTM,2024,122.667471141817,13.777118551968
$GNHDT,72.343,T*1A
$PYRTM,2024,122.667476980498,13.777124390648
$GNGGA,160110.00,3350.95416109,N,12002.46554679,W,2,13,0.8,6.426,M,-37.363,M,7.0,0135*64
$PYRTM,2024,122.667476980498,13.777124390648
$GNHDT,72.230,T*1F
$PYRTM,2024,122.667482713970,13.777130124109
$GNGGA,160110.50,3350.95457198,N,12002.46439560,W,2,13,0.8,6.289,M,-37.363,M,7.4,0135*6A
$PYRTM,2024,122.667482713970,13.777130124109
$GNHDT,71.952,T*13
$PYRTM,2024,122.667488557697,13.777135967836
$GNGGA,160111.00,3350.95497135,N,12002.46321894,W,2,13,0.8,6.248,M,-37.363,M,4.0,0135*67
$PYRTM,2024,122.667488557697,13.777135967836
$GNHDT,71.636,T*1E
$PYRTM,2024,122.667494286655,13.777141696806
$GNGGA,160111.50,3350.95536827,N,12002.46201163,W,2,13,0.8,6.347,M,-37.363,M,4.4,0135*6A
$PYRTM,2024,122.667494286655,13.777141696806
$GNHDT,71.251,T*1B
$PYRTM,2024,122.667500130880,13.777147541019
$GNGGA,160112.00,3350.95577662,N,12002.46076112,W,2,13,0.8,6.528,M,-37.363,M,5.0,0135*68
$PYRTM,2024,122.667500130880,13.777147541019
$GNHDT,70.652,T*1D
$PYRTM,2024,122.667505865417,13.777153275556
$GNGGA,160112.50,3350.95619724,N,12002.45947049,W,2,13,0.8,6.803,M,-37.363,M,5.4,0135*62
$PYRTM,2024,122.667505865417,13.777153275556
$GNHDT,70.191,T*15
$PYRTM,2024,122.667511705509,13.777159115648
$GNGGA,160113.00,3350.95663898,N,12002.45813514,W,2,13,0.8,7.139,M,-37.363,M,6.0,0135*68
$PYRTM,2024,122.667511705509,13.777159115648
$GNHDT,69.765,T*10
$PYRTM,2024,122.667517436701,13.777164846852
$GNGGA,160113.50,3350.95706444,N,12002.45676424,W,2,13,0.8,7.452,M,-37.363,M,6.4,0135*61
$PYRTM,2024,122.667517436701,13.777164846852
$GNHDT,69.427,T*15
$PYRTM,2024,122.667523281285,13.777170691424
$GNGGA,160114.00,3350.95748860,N,12002.45535266,W,2,13,0.8,7.729,M,-37.363,M,7.0,0135*6D
$PYRTM,2024,122.667523281285,13.777170691424
$GNHDT,69.176,T*14
$PYRTM,2024,122.667529008576,13.777176418715
$GNGGA,160114.50,3350.95790920,N,12002.45391978,W,2,13,0.8,7.968,M,-37.363,M,7.4,0135*6B
$PYRTM,2024,122.667529008576,13.777176418715
$GNHDT,69.246,T*14
$PYRTM,2024,122.667534852049,13.777182262187
$GNGGA,160115.00,3350.95831164,N,12002.45247673,W,2,13,0.8,8.152,M,-37.363,M,7.0,0135*67
$PYRTM,2024,122.667534852049,13.777182262187
$GNHDT,69.309,T*1E
$PYRTM,2024,122.667540583380,13.777187993519
$GNGGA,160115.50,3350.95869959,N,12002.45104348,W,2,13,0.8,8.278,M,-37.363,M,7.4,0135*6F
$PYRTM,2024,122.667540583380,13.777187993519
$GNHDT,69.572,T*14
$PYRTM,2024,122.667546427049,13.777193837187
$GNGGA,160116.00,3350.95907461,N,12002.44963047,W,2,13,0.8,8.365,M,-37.363,M,7.0,0135*6B
$PYRTM,2024,122.667546427049,13.777193837187
$GNHDT,69.902,T*1F
$PYRTM,2024,122.667552161655,13.777199571794
$GNGGA,160116.50,3350.95945336,N,12002.44823178,W,2,13,0.8,8.388,M,-37.363,M,7.4,0135*62
$PYRTM,2024,122.667552161655,13.777199571794
$GNHDT,70.382,T*15
$PYRTM,2024,122.667558001863,13.777205412002
$GNGGA,160117.00,3350.95982630,N,12002.44685651,W,2,13,0.8,8.338,M,-37.363,M,4.0,0135*6C
$PYRTM,2024,122.667558001863,13.777205412002
$GNHDT,70.840,T*10
$PYRTM,2024,122.667563730868,13.777211141007
$GNGGA,160117.50,3350.96019875,N,12002.44549935,W,2,13,0.8,8.218,M,-37.363,M,4.4,0135*67
$PYRTM,2024,122.667563730868,13.777211141007
$GNHDT,71.031,T*1F
$PYRTM,2024,122.667569575081,13.777216985220
$GNGGA,160118.00,3350.96057324,N,12002.44416866,W,2,13,0.8,8.044,M,-37.363,M,5.0,0135*6A
$PYRTM,2024,122.667569575081,13.777216985220
$GNHDT,71.330,T*1D
$PYRTM,2024,122.667575310683,13.777222720822
$GNGGA,160118.50,3350.96095826,N,12002.44286851,W,2,13,0.8,7.855,M,-37.363,M,5.4,0135*60
$PYRTM,2024,122.667575310683,13.777222720822
$GNHDT,71.555,T*18
$PYRTM,2024,122.667581148484,13.777228558623
$GNGGA,160119.00,3350.96135332,N,12002.44158910,W,2,13,0.8,7.641,M,-37.363,M,6.0,0135*69
$PYRTM,2024,122.667581148484,13.777228558623
$GNHDT,71.812,T*16
$PYRTM,2024,122.667586884630,13.777234294769
$GNGGA,160119.50,3350.96176170,N,12002.44033237,W,2,13,0.8,7.437,M,-37.363,M,6.4,0135*6A
$PYRTM,2024,122.667586884630,13.777234294769
$GNHDT,71.925,T*13
$PYRTM,2024,122.667592729525,13.777240139664
$GNGGA,160120.00,3350.96217724,N,12002.43909813,W,2,13,0.8,7.244,M,-37.363,M,7.0,0135*6A
$PYRTM,2024,122.667592729525,13.777240139664
$GNHDT,71.942,T*12
$PYRTM,2024,122.667598453403,13.777245863553
$GNGGA,160120.50,3350.96259876,N,12002.43788167,W,2,13,0.8,7.082,M,-37.363,M,7.4,0135*6C
$PYRTM,2024,122.667598453403,13.777245863553
$GNHDT,72.107,T*18
$PYRTM,2024,122.667604300903,13.777251711042
$GNGGA,160121.00,3350.96302490,N,12002.43667889,W,2,13,0.8,6.959,M,-37.363,M,7.0,0135*60
$PYRTM,2024,122.667604300903,13.777251711042
$GNHDT,72.079,T*10
$PYRTM,2024,122.667610026134,13.777257436273
$GNGGA,160121.50,3350.96344126,N,12002.43548460,W,2,13,0.8,6.866,M,-37.363,M,7.4,0135*63
$PYRTM,2024,122.667610026134,13.777257436273
$GNHDT,71.923,T*15
$PYRTM,2024,122.667615873472,13.777263283623
$GNGGA,160122.00,3350.96383561,N,12002.43429220,W,2,13,0.8,6.811,M,-37.363,M,7.0,0135*69
$PYRTM,2024,122.667615873472,13.777263283623
$GNHDT,71.947,T*17
$PYRTM,2024,122.667621604838,13.777269014977
$GNGGA,160122.50,3350.96421473,N,12002.43308996,W,2,13,0.8,6.782,M,-37.363,M,7.4,0135*62
$PYRTM,2024,122.667621604838,13.777269014977
$GNHDT,71.957,T*16
$PYRTM,2024,122.667627447326,13.777274857465
$GNGGA,160123.00,3350.96458360,N,12002.43187490,W,2,13,0.8,6.791,M,-37.363,M,4.0,0135*66
$PYRTM,2024,122.667627447326,13.777274857465
$GNHDT,71.827,T*10
$PYRTM,2024,122.667633178970,13.777280589109
$GNGGA,160123.50,3350.96495782,N,12002.43064668,W,2,13,0.8,6.834,M,-37.363,M,4.4,0135*67
$PYRTM,2024,122.667633178970,13.777280589109
$GNHDT,71.840,T*11
$PYRTM,2024,122.667639017905,13.777286428044
$GNGGA,160124.00,3350.96534233,N,12002.42940291,W,2,13,0.8,6.927,M,-37.363,M,5.0,0135*6A
$PYRTM,2024,122.667639017905,13.777286428044
$GNHDT,71.714,T*1F
$PYRTM,2024,122.667644749144,13.777292159282
$GNGGA,160124.50,3350.96574352,N,12002.42814368,W,2,13,0.8,7.046,M,-37.363,M,5.4,0135*61
$PYRTM,2024,122.667644749144,13.777292159282
$GNHDT,71.548,T*14
$PYRTM,2024,122.667650592905,13.777298003044
$GNGGA,160125.00,3350.96616176,N,12002.42686729,W,2,13,0.8,7.186,M,-37.363,M,6.0,0135*68
$PYRTM,2024,122.667650592905,13.777298003044
$GNHDT,71.201,T*1E
$PYRTM,2024,122.667656325810,13.777303735949
$GNGGA,160125.50,3350.96659462,N,12002.42556845,W,2,13,0.8,7.325,M,-37.363,M,6.4,0135*62
$PYRTM,2024,122.667656325810,13.777303735949
$GNHDT,70.821,T*17
$PYRTM,2024,122.667662172500,13.777309582639
$GNGGA,160126.00,3350.96702781,N,12002.42424869,W,2,13,0.8,7.472,M,-37.363,M,7.0,0135*6F
$PYRTM,2024,122.667662172500,13.777309582639
$GNHDT,70.462,T*1C
$PYRTM,2024,122.667667901632,13.777315311771
$GNGGA,160126.50,3350.96745875,N,12002.42290963,W,2,13,0.8,7.615,M,-37.363,M,7.4,0135*68
$PYRTM,2024,122.667667901632,13.777315311771
$GNHDT,69.999,T*1D
$PYRTM,2024,122.667673742199,13.777321152338
$GNGGA,160127.00,3350.96787512,N,12002.42155077,W,2,13,0.8,7.735,M,-37.363,M,7.0,0135*6F
$PYRTM,2024,122.667673742199,13.777321152338
$GNHDT,69.574,T*12
$PYRTM,2024,122.667679473715,13.777326883854
$GNGGA,160127.50,3350.96826954,N,12002.42017160,W,2,13,0.8,7.825,M,-37.363,M,7.4,0135*6A
$PYRTM,2024,122.667679473715,13.777326883854
$GNHDT,69.421,T*13
$PYRTM,2024,122.667685317361,13.777332727512
$GNGGA,160128.00,3350.96864433,N,12002.41877874,W,2,13,0.8,7.880,M,-37.363,M,7.0,0135*60
$PYRTM,2024,122.667685317361,13.777332727512
$GNHDT,69.411,T*10
$PYRTM,2024,122.667691044988,13.777338455139
$GNGGA,160128.50,3350.96900863,N,12002.41738005,W,2,13,0.8,7.907,M,-37.363,M,7.4,0135*6F
$PYRTM,2024,122.667691044988,13.777338455139
$GNHDT,69.504,T*15
$PYRTM,2024,122.667696888866,13.777344299005
$GNGGA,160129.00,3350.96938281,N,12002.41598235,W,2,13,0.8,7.891,M,-37.363,M,4.0,0135*66
$PYRTM,2024,122.667696888866,13.777344299005
$GNHDT,69.764,T*11
$PYRTM,2024,122.667702616829,13.777350026968
$GNGGA,160129.50,3350.96975504,N,12002.41459767,W,2,13,0.8,7.834,M,-37.363,M,4.4,0135*65
$PYRTM,2024,122.667702616829,13.777350026968
$GNHDT,70.054,T*1D
$PYRTM,2024,122.667708464421,13.777355874572
$GNGGA,160130.00,3350.97014096,N,12002.41323710,W,2,13,0.8,7.750,M,-37.363,M,5.0,0135*6B
$PYRTM,2024,122.667708464421,13.777355874572
$GNHDT,70.548,T*15
$PYRTM,2024,122.667714195440,13.777361605579
$GNGGA,160130.50,3350.97054062,N,12002.41190766,W,2,13,0.8,7.654,M,-37.363,M,5.4,0135*6B
$PYRTM,2024,122.667714195440,13.777361605579
$GNHDT,70.943,T*12
$PYRTM,2024,122.667720039155,13.777367449294
$GNGGA,160131.00,3350.97095731,N,12002.41062061,W,2,13,0.8,7.557,M,-37.363,M,6.0,0135*68
$PYRTM,2024,122.667720039155,13.777367449294
$GNHDT,71.396,T*11
$PYRTM,2024,122.667725772280,13.777373182419
$GNGGA,160131.50,3350.97137404,N,12002.40936020,W,2,13,0.8,7.475,M,-37.363,M,6.4,0135*68
$PYRTM,2024,122.667725772280,13.777373182419
$GNHDT,72.016,T*19
$PYRTM,2024,122.667731618646,13.777379028796
$GNGGA,160132.00,3350.97178147,N,12002.40812266,W,2,13,0.8,7.388,M,-37.363,M,7.0,0135*60
$PYRTM,2024,122.667731618646,13.777379028796
$GNHDT,72.391,T*15
$PYRTM,2024,122.667737340000,13.777384750139
$GNGGA,160132.50,3350.97217358,N,12002.40689298,W,2,13,0.8,7.295,M,-37.363,M,7.4,0135*67
$PYRTM,2024,122.667737340000,13.777384750139
$GNHDT,72.690,T*11
$PYRTM,2024,122.667743188634,13.777390598773
$GNGGA,160133.00,3350.97255618,N,12002.40566597,W,2,13,0.8,7.188,M,-37.363,M,7.0,0135*65
$PYRTM,2024,122.667743188634,13.777390598773
$GNHDT,72.744,T*19
$PYRTM,2024,122.667748914549,13.777396324688
$GNGGA,160133.50,3350.97294525,N,12002.40443342,W,2,13,0.8,7.075,M,-37.363,M,7.4,0135*6F
$PYRTM,2024,122.667748914549,13.777396324688
$GNHDT,72.652,T*1F
$PYRTM,2024,122.667754761887,13.777402172025
$GNGGA,160134.00,3350.97334893,N,12002.40320294,W,2,13,0.8,6.974,M,-37.363,M,7.0,0135*63
$PYRTM,2024,122.667754761887,13.777402172025
$GNHDT,72.486,T*14
$PYRTM,2024,122.667760497824,13.777407907963
$GNGGA,160134.50,3350.97376886,N,12002.40197509,W,2,13,0.8,6.884,M,-37.363,M,7.4,0135*63
$PYRTM,2024,122.667760497824,13.777407907963
$GNHDT,72.208,T*14
$PYRTM,2024,122.667766332801,13.777413742940
$GNGGA,160135.00,3350.97420438,N,12002.40074679,W,2,13,0.8,6.868,M,-37.363,M,4.0,0135*67
$PYRTM,2024,122.667766332801,13.777413742940
$GNHDT,71.865,T*16
$PYRTM,2024,122.667772062049,13.777419472187
$GNGGA,160135.50,3350.97464824,N,12002.39951516,W,2,13,0.8,6.900,M,-37.363,M,4.4,0135*62
$PYRTM,2024,122.667772062049,13.777419472187
$GNHDT,71.261,T*18
$PYRTM,2024,122.667777913322,13.777425323461
$GNGGA,160136.00,3350.97508464,N,12002.39827569,W,2,13,0.8,7.006,M,-37.363,M,5.0,0135*64
$PYRTM,2024,122.667777913322,13.777425323461
$GNHDT,70.885,T*19
$PYRTM,2024,122.667783639676,13.777431049826
$GNGGA,160136.50,3350.97550742,N,12002.39701438,W,2,13,0.8,7.155,M,-37.363,M,5.4,0135*66
$PYRTM,2024,122.667783639676,13.777431049826
$GNHDT,70.512,T*1A
$PYRTM,2024,122.667789481111,13.777436891250
$GNGGA,160137.00,3350.97591951,N,12002.39572398,W,2,13,0.8,7.317,M,-37.363,M,6.0,0135*6B
$PYRTM,2024,122.667789481111,13.777436891250
$GNHDT,70.062,T*18
$PYRTM,2024,122.667795215139,13.777442625278
$GNGGA,160137.50,3350.97630680,N,12002.39440336,W,2,13,0.8,7.465,M,-37.363,M,6.4,0135*67
$PYRTM,2024,122.667795215139,13.777442625278
$GNHDT,69.721,T*10
$PYRTM,2024,122.667801055706,13.777448465845
$GNGGA,160138.00,3350.97667989,N,12002.39305302,W,2,13,0.8,7.567,M,-37.363,M,7.0,0135*6E
$PYRTM,2024,122.667801055706,13.777448465845
$GNHDT,69.414,T*15
$PYRTM,2024,122.667806785775,13.777454195926
$GNGGA,160138.50,3350.97705238,N,12002.39167664,W,2,13,0.8,7.631,M,-37.363,M,7.4,0135*68
$PYRTM,2024,122.667806785775,13.777454195926
$GNHDT,69.291,T*1E
$PYRTM,2024,122.667812637512,13.777460047650
$GNGGA,160139.00,3350.97742615,N,12002.39028531,W,2,13,0.8,7.657,M,-37.363,M,7.0,0135*69
$PYRTM,2024,122.667812637512,13.777460047650
$GNHDT,69.250,T*13
$PYRTM,2024,122.667818360532,13.777465770683
$GNGGA,160139.50,3350.97780753,N,12002.38889597,W,2,13,0.8,7.670,M,-37.363,M,7.4,0135*6E
$PYRTM,2024,122.667818360532,13.777465770683
$GNHDT,69.448,T*1C
$PYRTM,2024,122.667824208646,13.777471618785
$GNGGA,160140.00,3350.97818806,N,12002.38751968,W,2,13,0.8,7.692,M,-37.363,M,7.0,0135*6A
$PYRTM,2024,122.667824208646,13.777471618785
$GNHDT,69.784,T*1F
$PYRTM,2024,122.667829933368,13.777477343507
$GNGGA,160140.50,3350.97858133,N,12002.38615996,W,2,13,0.8,7.724,M,-37.363,M,7.4,0135*6C
$PYRTM,2024,122.667829933368,13.777477343507
$GNHDT,70.151,T*19
$PYRTM,2024,122.667835780370,13.777483190509
$GNGGA,160141.00,3350.97898706,N,12002.38480829,W,2,13,0.8,7.767,M,-37.363,M,4.0,0135*6F
$PYRTM,2024,122.667835780370,13.777483190509
$GNHDT,70.569,T*16
$PYRTM,2024,122.667841506088,13.777488916227
$GNGGA,160141.50,3350.97939374,N,12002.38346234,W,2,13,0.8,7.754,M,-37.363,M,4.4,0135*6E
$PYRTM,2024,122.667841506088,13.777488916227
$GNHDT,70.983,T*1E
$PYRTM,2024,122.667847352442,13.777494762581
$GNGGA,160142.00,3350.97980429,N,12002.38212395,W,2,13,0.8,7.694,M,-37.363,M,5.0,0135*67
$PYRTM,2024,122.667847352442,13.777494762581
$GNHDT,71.387,T*11
$PYRTM,2024,122.667853080891,13.777500491030
$GNGGA,160142.50,3350.98021611,N,12002.38079391,W,2,13,0.8,7.601,M,-37.363,M,5.4,0135*65
$PYRTM,2024,122.667853080891,13.777500491030
$GNHDT,71.954,T*15
$PYRTM,2024,122.667858925856,13.777506335995
$GNGGA,160143.00,3350.98062331,N,12002.37947761,W,2,13,0.8,7.478,M,-37.363,M,6.0,0135*6A
$PYRTM,2024,122.667858925856,13.777506335995
$GNHDT,72.241,T*19
$PYRTM,2024,122.667864656736,13.777512066875
$GNGGA,160143.50,3350.98103078,N,12002.37817831,W,2,13,0.8,7.381,M,-37.363,M,6.4,0135*6C
$PYRTM,2024,122.667864656736,13.777512066875
$GNHDT,72.382,T*17
$PYRTM,2024,122.667870504977,13.777517915116
$GNGGA,160144.00,3350.98144182,N,12002.37689865,W,2,13,0.8,7.324,M,-37.363,M,7.0,0135*6B
$PYRTM,2024,122.667870504977,13.777517915116
$GNHDT,72.223,T*1D
$PYRTM,2024,122.667876232245,13.777523642384
$GNGGA,160144.50,3350.98186700,N,12002.37563328,W,2,13,0.8,7.296,M,-37.363,M,7.4,0135*65
$PYRTM,2024,122.667876232245,13.777523642384
$GNHDT,72.141,T*1A
$PYRTM,2024,122.667882077407,13.777529487546
$GNGGA,160145.00,3350.98231335,N,12002.37436790,W,2,13,0.8,7.271,M,-37.363,M,7.0,0135*67
$PYRTM,2024,122.667882077407,13.777529487546
$GNHDT,71.864,T*17
$PYRTM,2024,122.667887807894,13.777535218032
$GNGGA,160145.50,3350.98276656,N,12002.37309944,W,2,13,0.8,7.256,M,-37.363,M,7.4,0135*6C
$PYRTM,2024,122.667887807894,13.777535218032
$GNHDT,71.538,T*13
$PYRTM,2024,122.667893650961,13.777541061100
$GNGGA,160146.00,3350.98321803,N,12002.37182271,W,2,13,0.8,7.215,M,-37.363,M,7.0,0135*68
$PYRTM,2024,122.667893650961,13.777541061100
$GNHDT,70.945,T*14
$PYRTM,2024,122.667899379560,13.777546789699
$GNGGA,160146.50,3350.98365438,N,12002.37054027,W,2,13,0.8,7.189,M,-37.363,M,7.4,0135*60
$PYRTM,2024,122.667899379560,13.777546789699
$GNHDT,70.461,T*1F
$PYRTM,2024,122.667905228160,13.777552638299
$GNGGA,160147.00,3350.98407992,N,12002.36925337,W,2,13,0.8,7.167,M,-37.363,M,4.0,0135*61
$PYRTM,2024,122.667905228160,13.777552638299
$GNHDT,70.122,T*1D
$PYRTM,2024,122.667910951655,13.777558361794
$GNGGA,160147.50,3350.98449160,N,12002.36796374,W,2,13,0.8,7.204,M,-37.363,M,4.4,0135*68
$PYRTM,2024,122.667910951655,13.777558361794
$GNHDT,69.885,T*11
$PYRTM,2024,122.667916804618,13.777564214757
$GNGGA,160148.00,3350.98490016,N,12002.36667048,W,2,13,0.8,7.264,M,-37.363,M,5.0,0135*66
$PYRTM,2024,122.667916804618,13.777564214757
$GNHDT,69.592,T*1A
$PYRTM,2024,122.667922524907,13.777569935046
$GNGGA,160148.50,3350.98530334,N,12002.36536955,W,2,13,0.8,7.343,M,-37.363,M,5.4,0135*69
$PYRTM,2024,122.667922524907,13.777569935046
$GNHDT,69.465,T*13
$PYRTM,2024,122.667928371042,13.777575781181
$GNGGA,160149.00,3350.98571061,N,12002.36406438,W,2,13,0.8,7.414,M,-37.363,M,6.0,0135*6D
$PYRTM,2024,122.667928371042,13.777575781181
$GNHDT,69.478,T*1F
$PYRTM,2024,122.667934101910,13.777581512049
$GNGGA,160149.50,3350.98611190,N,12002.36275027,W,2,13,0.8,7.461,M,-37.363,M,6.4,0135*6C
$PYRTM,2024,122.667934101910,13.777581512049
$GNHDT,69.596,T*1E
$PYRTM,2024,122.667939954780,13.777587364919
$GNGGA,160150.00,3350.98650910,N,12002.36143360,W,2,13,0.8,7.473,M,-37.363,M,7.0,0135*64
$PYRTM,2024,122.667939954780,13.777587364919
$GNHDT,69.851,T*18
$PYRTM,2024,122.667945673796,13.777593083935
$GNGGA,160150.50,3350.98690822,N,12002.36011361,W,2,13,0.8,7.453,M,-37.363,M,7.4,0135*6C
$PYRTM,2024,122.667945673796,13.777593083935
$GNHDT,69.986,T*13
$PYRTM,2024,122.667951519676,13.777598929815
$GNGGA,160151.00,3350.98731303,N,12002.35880182,W,2,13,0.8,7.415,M,-37.363,M,7.0,0135*60
$PYRTM,2024,122.667951519676,13.777598929815
$GNHDT,70.119,T*15
$PYRTM,2024,122.667957247095,13.777604657234
$GNGGA,160151.50,3350.98771793,N,12002.35749076,W,2,13,0.8,7.360,M,-37.363,M,7.4,0135*6D
$PYRTM,2024,122.667957247095,13.777604657234
$GNHDT,70.447,T*1B
$PYRTM,2024,122.667963093368,13.777610503507
$GNGGA,160152.00,3350.98812930,N,12002.35617639,W,2,13,0.8,7.291,M,-37.363,M,7.0,0135*6A
$PYRTM,2024,122.667963093368,13.777610503507
$GNHDT,70.711,T*1B
$PYRTM,2024,122.667968826655,13.777616236794
$GNGGA,160152.50,3350.98855095,N,12002.35485345,W,2,13,0.8,7.217,M,-37.363,M,7.4,0135*67
$PYRTM,2024,122.667968826655,13.777616236794
$GNHDT,70.823,T*15
$PYRTM,2024,122.667974668773,13.777622078912
$GNGGA,160153.00,3350.98898134,N,12002.35353251,W,2,13,0.8,7.146,M,-37.363,M,4.0,0135*60
$PYRTM,2024,122.667974668773,13.777622078912
$GNHDT,70.915,T*11
$PYRTM,2024,122.667980397141,13.777627807280
$GNGGA,160153.50,3350.98941532,N,12002.35222267,W,2,13,0.8,7.125,M,-37.363,M,4.4,0135*61
$PYRTM,2024,122.667980397141,13.777627807280
$GNHDT,71.165,T*1F
$PYRTM,2024,122.667986242396,13.777633652535
$GNGGA,160154.00,3350.98985401,N,12002.35093066,W,2,13,0.8,7.150,M,-37.363,M,5.0,0135*66
$PYRTM,2024,122.667986242396,13.777633652535
$GNHDT,71.202,T*1D
$PYRTM,2024,122.667991969699,13.777639379850
$GNGGA,160154.50,3350.99028703,N,12002.34965289,W,2,13,0.8,7.243,M,-37.363,M,5.4,0135*6A
$PYRTM,2024,122.667991969699,13.777639379850
$GNHDT,71.258,T*12
$PYRTM,2024,122.667997817060,13.777645227199
$GNGGA,160155.00,3350.99071941,N,12002.34838240,W,2,13,0.8,7.374,M,-37.363,M,6.0,0135*64
$PYRTM,2024,122.667997817060,13.777645227199
$GNHDT,71.250,T*1A
$PYRTM,2024,122.668003549803,13.777650959942
$GNGGA,160155.50,3350.99114696,N,12002.34710383,W,2,13,0.8,7.504,M,-37.363,M,6.4,0135*68
$PYRTM,2024,122.668003549803,13.777650959942
$GNHDT,71.139,T*16
$PYRTM,2024,122.668009396910,13.777656807060
$GNGGA,160156.00,3350.99156879,N,12002.34581527,W,2,13,0.8,7.576,M,-37.363,M,7.0,0135*65
$PYRTM,2024,122.668009396910,13.777656807060
$GNHDT,71.126,T*18
$PYRTM,2024,122.668015121343,13.777662531481
$GNGGA,160156.50,3350.99197724,N,12002.34452015,W,2,13,0.8,7.608,M,-37.363,M,7.4,0135*6F
$PYRTM,2024,122.668015121343,13.777662531481
$GNHDT,70.809,T*1D
$PYRTM,2024,122.668020962604,13.777668372743
$GNGGA,160157.00,3350.99238277,N,12002.34322421,W,2,13,0.8,7.575,M,-37.363,M,7.0,0135*60
$PYRTM,2024,122.668020962604,13.777668372743
$GNHDT,70.666,T*1A
$PYRTM,2024,122.668026694907,13.777674105046
$GNGGA,160157.50,3350.99278665,N,12002.34192932,W,2,13,0.8,7.519,M,-37.363,M,7.4,0135*6E
$PYRTM,2024,122.668026694907,13.777674105046
$GNHDT,70.388,T*1F
$PYRTM,2024,122.668032537604,13.777679947743
$GNGGA,160158.00,3350.99319053,N,12002.34063650,W,2,13,0.8,7.455,M,-37.363,M,7.0,0135*68
$PYRTM,2024,122.668032537604,13.777679947743
$GNHDT,70.300,T*1F
$PYRTM,2024,122.668038274549,13.777685684688
$GNGGA,160158.50,3350.99360473,N,12002.33935005,W,2,13,0.8,7.437,M,-37.363,M,7.4,0135*6E
$PYRTM,2024,122.668038274549,13.777685684688
$GNHDT,70.247,T*1D
$PYRTM,2024,122.668044113056,13.777691523206
$GNGGA,160159.00,3350.99401234,N,12002.33805387,W,2,13,0.8,7.412,M,-37.363,M,4.0,0135*64
$PYRTM,2024,122.668044113056,13.777691523206
$GNHDT,70.202,T*1C
$PYRTM,2024,122.668049841100,13.777697251238
$GNGGA,160159.50,3350.99442708,N,12002.33674649,W,2,13,0.8,7.398,M,-37.363,M,4.4,0135*62
$PYRTM,2024,122.668049841100,13.777697251238
$GNHDT,70.173,T*19
$PYRTM,2024,122.668055686586,13.777703096725
$GNGGA,160200.00,3350.99484209,N,12002.33543042,W,2,13,0.8,7.409,M,-37.363,M,5.0,0135*66
$PYRTM,2024,122.668055686586,13.777703096725
$GNHDT,70.198,T*1C
$PYRTM,2024,122.668061416505,13.777708826644
$GNGGA,160200.50,3350.99525327,N,12002.33410487,W,2,13,0.8,7.424,M,-37.363,M,5.4,0135*65
$PYRTM,2024,122.668061416505,13.777708826644
$GNHDT,70.351,T*1B
$PYRTM,2024,122.668067262373,13.777714672512
$GNGGA,160201.00,3350.99565652,N,12002.33276174,W,2,13,0.8,7.433,M,-37.363,M,6.0,0135*6C
$PYRTM,2024,122.668067262373,13.777714672512
$GNHDT,70.514,T*1C
$PYRTM,2024,122.668072994039,13.777720404190
$GNGGA,160201.50,3350.99605392,N,12002.33140475,W,2,13,0.8,7.428,M,-37.363,M,6.4,0135*69
$PYRTM,2024,122.668072994039,13.777720404190
$GNHDT,70.788,T*1B
$PYRTM,2024,122.668078840660,13.777726250799
$GNGGA,160202.00,3350.99644640,N,12002.33002809,W,2,13,0.8,7.388,M,-37.363,M,7.0,0135*68
$PYRTM,2024,122.668078840660,13.777726250799
$GNHDT,71.042,T*1B
$PYRTM,2024,122.668084566354,13.777731976493
$GNGGA,160202.50,3350.99683753,N,12002.32865136,W,2,13,0.8,7.355,M,-37.363,M,7.4,0135*6C
$PYRTM,2024,122.668084566354,13.777731976493
$GNHDT,71.115,T*18
$PYRTM,2024,122.668090410405,13.777737820556
$GNGGA,160203.00,3350.99723306,N,12002.32728139,W,2,13,0.8,7.340,M,-37.363,M,7.0,0135*6E
$PYRTM,2024,122.668090410405,13.777737820556
$GNHDT,71.164,T*1E
$PYRTM,2024,122.668096137778,13.777743547928
$GNGGA,160203.50,3350.99764426,N,12002.32592884,W,2,13,0.8,7.360,M,-37.363,M,7.4,0135*67
$PYRTM,2024,122.668096137778,13.777743547928
$GNHDT,71.348,T*12
$PYRTM,2024,122.668101986343,13.777749396481
$GNGGA,160204.00,3350.99807323,N,12002.32458799,W,2,13,0.8,7.399,M,-37.363,M,7.0,0135*6B
$PYRTM,2024,122.668101986343,13.777749396481
$GNHDT,71.440,T*1D
$PYRTM,2024,122.668107716991,13.777755127130
$GNGGA,160204.50,3350.99851807,N,12002.32326797,W,2,13,0.8,7.469,M,-37.363,M,7.4,0135*6C
$PYRTM,2024,122.668107716991,13.777755127130
$GNHDT,71.375,T*1C
$PYRTM,2024,122.668113558623,13.777760968773
$GNGGA,160205.00,3350.99896324,N,12002.32196286,W,2,13,0.8,7.496,M,-37.363,M,4.0,0135*62
$PYRTM,2024,122.668113558623,13.777760968773
$GNHDT,71.597,T*16
$PYRTM,2024,122.668119286400,13.777766696539
$GNGGA,160205.50,3350.99939684,N,12002.32067738,W,2,13,0.8,7.512,M,-37.363,M,4.4,0135*6A
$PYRTM,2024,122.668119286400,13.777766696539
$GNHDT,71.655,T*1B
$PYRTM,2024,122.668125136065,13.777772546204
$GNGGA,160206.00,3350.99980965,N,12002.31940651,W,2,13,0.8,7.477,M,-37.363,M,5.0,0135*68
$PYRTM,2024,122.668125136065,13.777772546204
$GNHDT,71.850,T*10
$PYRTM,2024,122.668130859907,13.777778270046
$GNGGA,160206.50,3351.00020563,N,12002.31815301,W,2,13,0.8,7.414,M,-37.363,M,5.4,0135*65
$PYRTM,2024,122.668130859907,13.777778270046
$GNHDT,71.843,T*12
$PYRTM,2024,122.668136704687,13.777784114826
$GNGGA,160207.00,3351.00058433,N,12002.31691047,W,2,13,0.8,7.312,M,-37.363,M,6.0,0135*6F
$PYRTM,2024,122.668136704687,13.777784114826
$GNHDT,71.942,T*12
$PYRTM,2024,122.668142434850,13.777789844988
$GNGGA,160207.50,3351.00095177,N,12002.31567648,W,2,13,0.8,7.201,M,-37.363,M,6.4,0135*6A
$PYRTM,2024,122.668142434850,13.777789844988
$GNHDT,71.807,T*12
$PYRTM,2024,122.668148284722,13.777795694861
$GNGGA,160208.00,3351.00130920,N,12002.31444041,W,2,13,0.8,7.088,M,-37.363,M,7.0,0135*6D
$PYRTM,2024,122.668148284722,13.777795694861
$GNHDT,71.791,T*12
$PYRTM,2024,122.668154010949,13.777801421088
$GNGGA,160208.50,3351.00167173,N,12002.31319731,W,2,13,0.8,6.999,M,-37.363,M,7.4,0135*67
$PYRTM,2024,122.668154010949,13.777801421088
$GNHDT,71.814,T*10
$PYRTM,2024,122.668159855532,13.777807265683
$GNGGA,160209.00,3351.00205067,N,12002.31193590,W,2,13,0.8,6.921,M,-37.363,M,7.0,0135*6E
$PYRTM,2024,122.668159855532,13.777807265683
$GNHDT,71.666,T*1B
$PYRTM,2024,122.668165582315,13.777812992454
$GNGGA,160209.50,3351.00245720,N,12002.31066238,W,2,13,0.8,6.900,M,-37.363,M,7.4,0135*62
$PYRTM,2024,122.668165582315,13.777812992454
$GNHDT,71.448,T*15
$PYRTM,2024,122.668171427674,13.777818837824
$GNGGA,160210.00,3351.00289446,N,12002.30937321,W,2,13,0.8,6.947,M,-37.363,M,7.0,0135*6E
$PYRTM,2024,122.668171427674,13.777818837824
$GNHDT,71.238,T*14
$PYRTM,2024,122.668177158565,13.777824568704
$GNGGA,160210.50,3351.00335749,N,12002.30807271,W,2,13,0.8,7.058,M,-37.363,M,7.4,0135*65
$PYRTM,2024,122.668177158565,13.777824568704
$GNHDT,71.025,T*1A
$PYRTM,2024,122.668183006956,13.777830417106
$GNGGA,160211.00,3351.00383881,N,12002.30674849,W,2,13,0.8,7.205,M,-37.363,M,4.0,0135*61
$PYRTM,2024,122.668183006956,13.777830417106
$GNHDT,70.610,T*1B
$PYRTM,2024,122.668188732535,13.777836142674
$GNGGA,160211.50,3351.00431459,N,12002.30539459,W,2,13,0.8,7.369,M,-37.363,M,4.4,0135*6B
$PYRTM,2024,122.668188732535,13.777836142674
$GNHDT,70.180,T*15
$PYRTM,2024,122.668194575914,13.777841986065
$GNGGA,160212.00,3351.00476721,N,12002.30401004,W,2,13,0.8,7.504,M,-37.363,M,5.0,0135*6C
$PYRTM,2024,122.668194575914,13.777841986065
$GNHDT,69.743,T*14
$PYRTM,2024,122.668200307824,13.777847717963
$GNGGA,160212.50,3351.00518454,N,12002.30259529,W,2,13,0.8,7.594,M,-37.363,M,5.4,0135*6D
$PYRTM,2024,122.668200307824,13.777847717963
$GNHDT,69.778,T*1C
$PYRTM,2024,122.668206157141,13.777853567292
$GNGGA,160213.00,3351.00557001,N,12002.30116338,W,2,13,0.8,7.626,M,-37.363,M,6.0,0135*65
$PYRTM,2024,122.668206157141,13.777853567292
$GNHDT,69.654,T*13
$PYRTM,2024,122.668211877743,13.777859287894
$GNGGA,160213.50,3351.00593772,N,12002.29972888,W,2,13,0.8,7.626,M,-37.363,M,6.4,0135*6D
$PYRTM,2024,122.668211877743,13.777859287894
$GNHDT,69.774,T*10
$PYRTM,2024,122.668217729803,13.777865139942
$GNGGA,160214.00,3351.00630806,N,12002.29830468,W,2,13,0.8,7.602,M,-37.363,M,7.0,0135*6F
$PYRTM,2024,122.668217729803,13.777865139942
$GNHDT,69.906,T*1B
$PYRTM,2024,122.668223453877,13.777870864016
$GNGGA,160214.50,3351.00668493,N,12002.29690847,W,2,13,0.8,7.552,M,-37.363,M,7.4,0135*60
$PYRTM,2024,122.668223453877,13.777870864016
$GNHDT,70.100,T*1D
$PYRTM,2024,122.668229299016,13.777876709155
$GNGGA,160215.00,3351.00706020,N,12002.29554986,W,2,13,0.8,7.505,M,-37.363,M,7.0,0135*60
$PYRTM,2024,122.668229299016,13.777876709155
$GNHDT,70.443,T*1F
$PYRTM,2024,122.668235029479,13.777882439618
$GNGGA,160215.50,3351.00746446,N,12002.29423308,W,2,13,0.8,7.467,M,-37.363,M,7.4,0135*69
$PYRTM,2024,122.668235029479,13.777882439618
$GNHDT,70.718,T*12
$PYRTM,2024,122.668240874063,13.777888284201
$GNGGA,160216.00,3351.00788101,N,12002.29296292,W,2,13,0.8,7.444,M,-37.363,M,7.0,0135*64
$PYRTM,2024,122.668240874063,13.777888284201
$GNHDT,71.124,T*1A
$PYRTM,2024,122.668246601088,13.777894011227
$GNGGA,160216.50,3351.00829833,N,12002.29171904,W,2,13,0.8,7.399,M,-37.363,M,7.4,0135*60
$PYRTM,2024,122.668246601088,13.777894011227
$GNHDT,71.163,T*19
$PYRTM,2024,122.668252447442,13.777899857581
$GNGGA,160217.00,3351.00870802,N,12002.29049631,W,2,13,0.8,7.326,M,-37.363,M,4.0,0135*6A
$PYRTM,2024,122.668252447442,13.777899857581
$GNHDT,71.429,T*12
$PYRTM,2024,122.668258175706,13.777905585845
$GNGGA,160217.50,3351.00911191,N,12002.28928004,W,2,13,0.8,7.209,M,-37.363,M,4.4,0135*6D
$PYRTM,2024,122.668258175706,13.777905585845
$GNHDT,71.586,T*16
$PYRTM,2024,122.668264019769,13.777911429907
$GNGGA,160218.00,3351.00950470,N,12002.28806804,W,2,13,0.8,7.071,M,-37.363,M,5.0,0135*65
$PYRTM,2024,122.668264019769,13.777911429907
$GNHDT,71.710,T*1B
$PYRTM,2024,122.668269749282,13.777917159421
$GNGGA,160218.50,3351.00989165,N,12002.28685727,W,2,13,0.8,6.933,M,-37.363,M,5.4,0135*64
$PYRTM,2024,122.668269749282,13.777917159421
$GNHDT,71.534,T*1F
$PYRTM,2024,122.668275599525,13.777923009664
$GNGGA,160219.00,3351.01026821,N,12002.28564800,W,2,13,0.8,6.837,M,-37.363,M,6.0,0135*60
$PYRTM,2024,122.668275599525,13.777923009664
$GNHDT,71.352,T*19
$PYRTM,2024,122.668281324294,13.777928734433
$GNGGA,160219.50,3351.01064477,N,12002.28442461,W,2,13,0.8,6.795,M,-37.363,M,6.4,0135*61
$PYRTM,2024,122.668281324294,13.777928734433
$GNHDT,71.066,T*1D
$PYRTM,2024,122.668287171713,13.777934581852
$GNGGA,160220.00,3351.01103458,N,12002.28318004,W,2,13,0.8,6.804,M,-37.363,M,7.0,0135*6E
$PYRTM,2024,122.668287171713,13.777934581852
$GNHDT,70.768,T*15
$PYRTM,2024,122.668292900810,13.777940310949
$GNGGA,160220.50,3351.01145034,N,12002.28191475,W,2,13,0.8,6.876,M,-37.363,M,7.4,0135*67
$PYRTM,2024,122.668292900810,13.777940310949
$GNHDT,70.486,T*16
$PYRTM,2024,122.668298748380,13.777946158519
$GNGGA,160221.00,3351.01190106,N,12002.28062817,W,2,13,0.8,7.017,M,-37.363,M,7.0,0135*64
$PYRTM,2024,122.668298748380,13.777946158519
$GNHDT,69.942,T*1B
$PYRTM,2024,122.668304472280,13.777951882419
$GNGGA,160221.50,3351.01235344,N,12002.27931559,W,2,13,0.8,7.199,M,-37.363,M,7.4,0135*6D
$PYRTM,2024,122.668304472280,13.777951882419
$GNHDT,69.686,T*1C
$PYRTM,2024,122.668310320498,13.777957730637
$GNGGA,160222.00,3351.01282435,N,12002.27796694,W,2,13,0.8,7.405,M,-37.363,M,7.0,0135*63
$PYRTM,2024,122.668310320498,13.777957730637
$GNHDT,69.239,T*1C
$PYRTM,2024,122.668316050463,13.777963460602
$GNGGA,160222.50,3351.01330905,N,12002.27658156,W,2,13,0.8,7.576,M,-37.363,M,7.4,0135*6B
$PYRTM,2024,122.668316050463,13.777963460602
$GNHDT,68.922,T*1C
$PYRTM,2024,122.668321889456,13.777969299595
$GNGGA,160223.00,3351.01379089,N,12002.27516276,W,2,13,0.8,7.709,M,-37.363,M,4.0,0135*6A
$PYRTM,2024,122.668321889456,13.777969299595
$GNHDT,68.403,T*12
$PYRTM,2024,122.668327619954,13.777975030093
$GNGGA,160223.50,3351.01425254,N,12002.27372740,W,2,13,0.8,7.800,M,-37.363,M,4.4,0135*65
$PYRTM,2024,122.668327619954,13.777975030093
$GNHDT,68.248,T*1B
$PYRTM,2024,122.668333464792,13.777980874931
$GNGGA,160224.00,3351.01468432,N,12002.27228773,W,2,13,0.8,7.862,M,-37.363,M,5.0,0135*67
$PYRTM,2024,122.668333464792,13.777980874931
$GNHDT,68.338,T*1D
$PYRTM,2024,122.668339194178,13.777986604317
$GNGGA,160224.50,3351.01509060,N,12002.27085866,W,2,13,0.8,7.924,M,-37.363,M,5.4,0135*6E
$PYRTM,2024,122.668339194178,13.777986604317
$GNHDT,68.384,T*1A
$PYRTM,2024,122.668345041157,13.777992451296
$GNGGA,160225.00,3351.01548410,N,12002.26945349,W,2,13,0.8,7.960,M,-37.363,M,6.0,0135*69
$PYRTM,2024,122.668345041157,13.777992451296
$GNHDT,68.700,T*12
$PYRTM,2024,122.668350770856,13.777998180995
$GNGGA,160225.50,3351.01587426,N,12002.26807249,W,2,13,0.8,7.947,M,-37.363,M,6.4,0135*6D
$PYRTM,2024,122.668350770856,13.777998180995
$GNHDT,69.230,T*15
$PYRTM,2024,122.668356614421,13.778004024560
$GNGGA,160226.00,3351.01626583,N,12002.26672475,W,2,13,0.8,7.879,M,-37.363,M,7.0,0135*61
$PYRTM,2024,122.668356614421,13.778004024560
$GNHDT,69.854,T*1D
$PYRTM,2024,122.668362348877,13.778009759028
$GNGGA,160226.50,3351.01666440,N,12002.26540913,W,2,13,0.8,7.743,M,-37.363,M,7.4,0135*63
$PYRTM,2024,122.668362348877,13.778009759028
$GNHDT,70.665,T*19
$PYRTM,2024,122.668368190787,13.778015600926
$GNGGA,160227.00,3351.01706795,N,12002.26412739,W,2,13,0.8,7.541,M,-37.363,M,7.0,0135*6F
$PYRTM,2024,122.668368190787,13.778015600926
$GNHDT,71.339,T*14
$PYRTM,2024,122.668373920347,13.778021330486
$GNGGA,160227.50,3351.01747501,N,12002.26288399,W,2,13,0.8,7.320,M,-37.363,M,7.4,0135*6E
$PYRTM,2024,122.668373920347,13.778021330486
$GNHDT,71.726,T*1E
$PYRTM,2024,122.668379762488,13.778027172627
$GNGGA,160228.00,3351.01788938,N,12002.26168112,W,2,13,0.8,7.092,M,-37.363,M,7.0,0135*63
$PYRTM,2024,122.668379762488,13.778027172627
$GNHDT,72.254,T*1D
$PYRTM,2024,122.668385490324,13.778032900463
$GNGGA,160228.50,3351.01831133,N,12002.26050139,W,2,13,0.8,6.899,M,-37.363,M,7.4,0135*6D
$PYRTM,2024,122.668385490324,13.778032900463
$GNHDT,72.640,T*1C
$PYRTM,2024,122.668391335914,13.778038746053
$GNGGA,160229.00,3351.01873817,N,12002.25933020,W,2,13,0.8,6.750,M,-37.363,M,4.0,0135*6B
$PYRTM,2024,122.668391335914,13.778038746053
$GNHDT,72.774,T*1A
$PYRTM,2024,122.668397063831,13.778044473981
$GNGGA,160229.50,3351.01915722,N,12002.25815261,W,2,13,0.8,6.669,M,-37.363,M,4.4,0135*6B
$PYRTM,2024,122.668397063831,13.778044473981
$GNHDT,72.763,T*1C
$PYRTM,2024,122.668402912025,13.778050322164
$GNGGA,160230.00,3351.01956996,N,12002.25695217,W,2,13,0.8,6.629,M,-37.363,M,5.0,0135*66
$PYRTM,2024,122.668402912025,13.778050322164
$GNHDT,72.494,T*17
$PYRTM,2024,122.668408640486,13.778056050625
$GNGGA,160230.50,3351.01997682,N,12002.25572509,W,2,13,0.8,6.630,M,-37.363,M,5.4,0135*6A
$PYRTM,2024,122.668408640486,13.778056050625
$GNHDT,72.244,T*1C
$PYRTM,2024,122.668414488692,13.778061898843
$GNGGA,160231.00,3351.02037949,N,12002.25446122,W,2,13,0.8,6.679,M,-37.363,M,6.0,0135*67
$PYRTM,2024,122.668414488692,13.778061898843
$GNHDT,71.775,T*18
$PYRTM,2024,122.668420214896,13.778067625035
$GNGGA,160231.50,3351.02077567,N,12002.25316755,W,2,13,0.8,6.770,M,-37.363,M,6.4,0135*6E
$PYRTM,2024,122.668420214896,13.778067625035
$GNHDT,71.448,T*15
$PYRTM,2024,122.668426063843,13.778073473981
$GNGGA,160232.00,3351.02117056,N,12002.25184332,W,2,13,0.8,6.910,M,-37.363,M,7.0,0135*69
$PYRTM,2024,122.668426063843,13.778073473981
$GNHDT,71.076,T*1C
$PYRTM,2024,122.668431789780,13.778079199919
$GNGGA,160232.50,3351.02156866,N,12002.25049648,W,2,13,0.8,7.080,M,-37.363,M,7.4,0135*6F
$PYRTM,2024,122.668431789780,13.778079199919
$GNHDT,70.354,T*1E
$PYRTM,2024,122.668437637836,13.778085047975
$GNGGA,160233.00,3351.02196177,N,12002.24912971,W,2,13,0.8,7.272,M,-37.363,M,7.0,0135*66
$PYRTM,2024,122.668437637836,13.778085047975
$GNHDT,69.974,T*1E
$PYRTM,2024,122.668443364363,13.778090774502
$GNGGA,160233.50,3351.02236334,N,12002.24774366,W,2,13,0.8,7.442,M,-37.363,M,7.4,0135*6C
$PYRTM,2024,122.668443364363,13.778090774502
$GNHDT,69.811,T*1C
$PYRTM,2024,122.668449208287,13.778096618426
$GNGGA,160234.00,3351.02275715,N,12002.24634622,W,2,13,0.8,7.590,M,-37.363,M,7.0,0135*64
$PYRTM,2024,122.668449208287,13.778096618426
$GNHDT,69.678,T*1D
$PYRTM,2024,122.668454936840,13.778102346979
$GNGGA,160234.50,3351.02312032,N,12002.24494803,W,2,13,0.8,7.703,M,-37.363,M,7.4,0135*6A
$PYRTM,2024,122.668454936840,13.778102346979
$GNHDT,69.777,T*13
$PYRTM,2024,122.668460785139,13.778108195278
$GNGGA,160235.00,3351.02345841,N,12002.24355087,W,2,13,0.8,7.762,M,-37.363,M,4.0,0135*6E
$PYRTM,2024,122.668460785139,13.778108195278
$GNHDT,69.996,T*12
$PYRTM,2024,122.668466511447,13.778113921586
$GNGGA,160235.50,3351.02379817,N,12002.24216723,W,2,13,0.8,7.787,M,-37.363,M,4.4,0135*67
$PYRTM,2024,122.668466511447,13.778113921586
$GNHDT,70.452,T*1F
$PYRTM,2024,122.668472359051,13.778119769190
$GNGGA,160236.00,3351.02413290,N,12002.24080097,W,2,13,0.8,7.752,M,-37.363,M,5.0,0135*67
$PYRTM,2024,122.668472359051,13.778119769190
$GNHDT,70.974,T*16
$PYRTM,2024,122.668478093183,13.778125503322
$GNGGA,160236.50,3351.02447821,N,12002.23946130,W,2,13,0.8,7.696,M,-37.363,M,5.4,0135*66
$PYRTM,2024,122.668478093183,13.778125503322
$GNHDT,71.398,T*1F
$PYRTM,2024,122.668483927350,13.778131337488
$GNGGA,160237.00,3351.02483220,N,12002.23814870,W,2,13,0.8,7.593,M,-37.363,M,6.0,0135*6B
$PYRTM,2024,122.668483927350,13.778131337488
$GNHDT,72.018,T*17
$PYRTM,2024,122.668489658600,13.778137068738
$GNGGA,160237.50,3351.02520053,N,12002.23685915,W,2,13,0.8,7.482,M,-37.363,M,6.4,0135*61
$PYRTM,2024,122.668489658600,13.778137068738
$GNHDT,72.489,T*1B
$PYRTM,2024,122.668495503299,13.778142913437
$GNGGA,160238.00,3351.02558263,N,12002.23558355,W,2,13,0.8,7.352,M,-37.363,M,7.0,0135*67
$PYRTM,2024,122.668495503299,13.778142913437
$GNHDT,72.713,T*1B
$PYRTM,2024,122.668501238391,13.778148648542
$GNGGA,160238.50,3351.02597744,N,12002.23431092,W,2,13,0.8,7.228,M,-37.363,M,7.4,0135*6F
$PYRTM,2024,122.668501238391,13.778148648542
$GNHDT,72.972,T*12
$PYRTM,2024,122.668507075324,13.778154485463
$GNGGA,160239.00,3351.02638637,N,12002.23304336,W,2,13,0.8,7.134,M,-37.363,M,7.0,0135*6E
$PYRTM,2024,122.668507075324,13.778154485463
$GNHDT,72.946,T*15
$PYRTM,2024,122.668512809236,13.778160219375
$GNGGA,160239.50,3351.02681320,N,12002.23177799,W,2,13,0.8,7.076,M,-37.363,M,7.4,0135*6E
$PYRTM,2024,122.668512809236,13.778160219375
$GNHDT,72.525,T*1C
$PYRTM,2024,122.668518649884,13.778166060023
$GNGGA,160240.00,3351.02725640,N,12002.23050675,W,2,13,0.8,7.070,M,-37.363,M,7.0,0135*6C
$PYRTM,2024,122.668518649884,13.778166060023
$GNHDT,72.221,T*1F
$PYRTM,2024,122.668524382477,13.778171792616
$GNGGA,160240.50,3351.02771175,N,12002.22922299,W,2,13,0.8,7.091,M,-37.363,M,7.4,0135*69
$PYRTM,2024,122.668524382477,13.778171792616
$GNHDT,71.703,T*19
$PYRTM,2024,122.668530224132,13.778177634271
$GNGGA,160241.00,3351.02817971,N,12002.22791951,W,2,13,0.8,7.112,M,-37.363,M,4.0,0135*6A
$PYRTM,2024,122.668530224132,13.778177634271
$GNHDT,71.220,T*1D
$PYRTM,2024,122.668535951806,13.778183361944
$GNGGA,160241.50,3351.02864035,N,12002.22660101,W,2,13,0.8,7.149,M,-37.363,M,4.4,0135*6A
$PYRTM,2024,122.668535951806,13.778183361944
$GNHDT,70.662,T*1E
$PYRTM,2024,122.668541799132,13.778189209271
$GNGGA,160242.00,3351.02909159,N,12002.22527607,W,2,13,0.8,7.208,M,-37.363,M,5.0,0135*6F
$PYRTM,2024,122.668541799132,13.778189209271
$GNHDT,70.079,T*12
$PYRTM,2024,122.668547530139,13.778194940278
$GNGGA,160242.50,3351.02952606,N,12002.22396146,W,2,13,0.8,7.310,M,-37.363,M,5.4,0135*6B
$PYRTM,2024,122.668547530139,13.778194940278
$GNHDT,69.868,T*12
$PYRTM,2024,122.668553372350,13.778200782488
$GNGGA,160243.00,3351.02995224,N,12002.22265554,W,2,13,0.8,7.453,M,-37.363,M,6.0,0135*6D
$PYRTM,2024,122.668553372350,13.778200782488
$GNHDT,69.553,T*17
$PYRTM,2024,122.668559102998,13.778206513137
$GNGGA,160243.50,3351.03034952,N,12002.22134821,W,2,13,0.8,7.581,M,-37.363,M,6.4,0135*63
$PYRTM,2024,122.668559102998,13.778206513137
$GNHDT,69.346,T*15
$PYRTM,2024,122.668564953345,13.778212363484
$GNGGA,160244.00,3351.03073525,N,12002.22003789,W,2,13,0.8,7.653,M,-37.363,M,7.0,0135*6F
$PYRTM,2024,122.668564953345,13.778212363484
$GNHDT,69.276,T*17
$PYRTM,2024,122.668570678171,13.778218088310
$GNGGA,160244.50,3351.03111243,N,12002.21872959,W,2,13,0.8,7.662,M,-37.363,M,7.4,0135*60
$PYRTM,2024,122.668570678171,13.778218088310
$GNHDT,69.547,T*12
$PYRTM,2024,122.668576520405,13.778223930544
$GNGGA,160245.00,3351.03146989,N,12002.21743020,W,2,13,0.8,7.590,M,-37.363,M,7.0,0135*6B
$PYRTM,2024,122.668576520405,13.778223930544
$GNHDT,69.830,T*1F
$PYRTM,2024,122.668582253125,13.778229663264
$GNGGA,160245.50,3351.03184312,N,12002.21615353,W,2,13,0.8,7.509,M,-37.363,M,7.4,0135*69
$PYRTM,2024,122.668582253125,13.778229663264
$GNHDT,70.218,T*17
$PYRTM,2024,122.668588096389,13.778235506528
$GNGGA,160246.00,3351.03223341,N,12002.21490101,W,2,13,0.8,7.429,M,-37.363,M,7.0,0135*6A
$PYRTM,2024,122.668588096389,13.778235506528
$GNHDT,70.448,T*14
$PYRTM,2024,122.668593826956,13.778241237095
$GNGGA,160246.50,3351.03261020,N,12002.21366841,W,2,13,0.8,7.395,M,-37.363,M,7.4,0135*6A
$PYRTM,2024,122.668593826956,13.778241237095
$GNHDT,70.695,T*16
$PYRTM,2024,122.668599671053,13.778247081192
$GNGGA,160247.00,3351.03299105,N,12002.21243052,W,2,13,0.8,7.371,M,-37.363,M,4.0,0135*6E
$PYRTM,2024,122.668599671053,13.778247081192
$GNHDT,70.981,T*1C
$PYRTM,2024,122.668605402176,13.778252812326
$GNGGA,160247.50,3351.03339085,N,12002.21117669,W,2,13,0.8,7.347,M,-37.363,M,4.4,0135*64
$PYRTM,2024,122.668605402176,13.778252812326
$GNHDT,71.110,T*1D
$PYRTM,2024,122.668611244306,13.778258654444
$GNGGA,160248.00,3351.03378905,N,12002.20989663,W,2,13,0.8,7.303,M,-37.363,M,5.0,0135*6B
$PYRTM,2024,122.668611244306,13.778258654444
$GNHDT,70.939,T*1F
$PYRTM,2024,122.668616974838,13.778264384977
$GNGGA,160248.50,3351.03418595,N,12002.20859115,W,2,13,0.8,7.250,M,-37.363,M,5.4,0135*63
$PYRTM,2024,122.668616974838,13.778264384977
$GNHDT,71.227,T*1A
$PYRTM,2024,122.668622817535,13.778270227674
$GNGGA,160249.00,3351.03457784,N,12002.20725991,W,2,13,0.8,7.205,M,-37.363,M,6.0,0135*69
$PYRTM,2024,122.668622817535,13.778270227674
$GNHDT,71.027,T*18
$PYRTM,2024,122.668628546343,13.778275956481
$GNGGA,160249.50,3351.03497340,N,12002.20591487,W,2,13,0.8,7.205,M,-37.363,M,6.4,0135*6F
$PYRTM,2024,122.668628546343,13.778275956481
$GNHDT,70.698,T*1B
$PYRTM,2024,122.668634394421,13.778281804560
$GNGGA,160250.00,3351.03537096,N,12002.20454973,W,2,13,0.8,7.259,M,-37.363,M,7.0,0135*63
$PYRTM,2024,122.668634394421,13.778281804560
$GNHDT,70.345,T*1E
$PYRTM,2024,122.668640118611,13.778287528750
$GNGGA,160250.50,3351.03577724,N,12002.20317015,W,2,13,0.8,7.339,M,-37.363,M,7.4,0135*66
$PYRTM,2024,122.668640118611,13.778287528750
$GNHDT,70.138,T*16
$PYRTM,2024,122.668645962292,13.778293372431
$GNGGA,160251.00,3351.03619032,N,12002.20177860,W,2,13,0.8,7.421,M,-37.363,M,7.0,0135*6D
$PYRTM,2024,122.668645962292,13.778293372431
$GNHDT,69.794,T*1E
$PYRTM,2024,122.668651694201,13.778299104352
$GNGGA,160251.50,3351.03660447,N,12002.20038132,W,2,13,0.8,7.484,M,-37.363,M,7.4,0135*6F
$PYRTM,2024,122.668651694201,13.778299104352
$GNHDT,69.581,T*18
$PYRTM,2024,122.668657542037,13.778304952176
$GNGGA,160252.00,3351.03701751,N,12002.19898733,W,2,13,0.8,7.529,M,-37.363,M,7.0,0135*66
$PYRTM,2024,122.668657542037,13.778304952176
$GNHDT,69.387,T*18
$PYRTM,2024,122.668663271007,13.778310681146
$GNGGA,160252.50,3351.03743203,N,12002.19760242,W,2,13,0.8,7.530,M,-37.363,M,7.4,0135*60
$PYRTM,2024,122.668663271007,13.778310681146
$GNHDT,69.329,T*1C
$PYRTM,2024,122.668669120116,13.778316530266
$GNGGA,160253.00,3351.03783838,N,12002.19623993,W,2,13,0.8,7.509,M,-37.363,M,4.0,0135*66
$PYRTM,2024,122.668669120116,13.778316530266
$GNHDT,69.439,T*1A
$PYRTM,2024,122.668674844421,13.778322254560
$GNGGA,160253.50,3351.03823464,N,12002.19491123,W,2,13,0.8,7.492,M,-37.363,M,4.4,0135*6C
$PYRTM,2024,122.668674844421,13.778322254560
$GNHDT,69.546,T*13
$PYRTM,2024,122.668680689352,13.778328099491
$GNGGA,160254.00,3351.03862335,N,12002.19362249,W,2,13,0.8,7.478,M,-37.363,M,5.0,0135*6D
$PYRTM,2024,122.668680689352,13.778328099491
$GNHDT,69.768,T*1D
$PYRTM,2024,122.668686419595,13.778333829734
$GNGGA,160254.50,3351.03901630,N,12002.19237653,W,2,13,0.8,7.464,M,-37.363,M,5.4,0135*6B
$PYRTM,2024,122.668686419595,13.778333829734
$GNHDT,70.333,T*1F
$PYRTM,2024,122.668692260764,13.778339670903
$GNGGA,160255.00,3351.03940671,N,12002.19117196,W,2,13,0.8,7.446,M,-37.363,M,6.0,0135*67
$PYRTM,2024,122.668692260764,13.778339670903
$GNHDT,70.765,T*18
$PYRTM,2024,122.668697990440,13.778345400579
$GNGGA,160255.50,3351.03979703,N,12002.19000129,W,2,13,0.8,7.425,M,-37.363,M,6.4,0135*6E
$PYRTM,2024,122.668697990440,13.778345400579
$GNHDT,71.140,T*18
$PYRTM,2024,122.668703839248,13.778351249387
$GNGGA,160256.00,3351.04018194,N,12002.18884244,W,2,13,0.8,7.340,M,-37.363,M,7.0,0135*65
$PYRTM,2024,122.668703839248,13.778351249387
$GNHDT,71.530,T*1B
$PYRTM,2024,122.668709562141,13.778356972280
$GNGGA,160256.50,3351.04056599,N,12002.18768922,W,2,13,0.8,7.229,M,-37.363,M,7.4,0135*6F
$PYRTM,2024,122.668709562141,13.778356972280
$GNHDT,72.122,T*1F
$PYRTM,2024,122.668715407407,13.778362817546
$GNGGA,160257.00,3351.04095114,N,12002.18653071,W,2,13,0.8,7.096,M,-37.363,M,7.0,0135*61
$PYRTM,2024,122.668715407407,13.778362817546
$GNHDT,72.407,T*1D
$PYRTM,2024,122.668721138588,13.778368548727
$GNGGA,160257.50,3351.04134570,N,12002.18536160,W,2,13,0.8,7.011,M,-37.363,M,7.4,0135*62
$PYRTM,2024,122.668721138588,13.778368548727
$GNHDT,72.598,T*1A
$PYRTM,2024,122.668726981424,13.778374391563
$GNGGA,160258.00,3351.04174916,N,12002.18417547,W,2,13,0.8,6.969,M,-37.363,M,7.0,0135*60
$PYRTM,2024,122.668726981424,13.778374391563
$GNHDT,72.645,T*19
$PYRTM,2024,122.668732716215,13.778380126354
$GNGGA,160258.50,3351.04216857,N,12002.18295579,W,2,13,0.8,7.002,M,-37.363,M,7.4,0135*66
$PYRTM,2024,122.668732716215,13.778380126354
$GNHDT,72.390,T*14
$PYRTM,2024,122.668738561840,13.778385971979
$GNGGA,160259.00,3351.04260351,N,12002.18167861,W,2,13,0.8,7.096,M,-37.363,M,4.0,0135*6E
$PYRTM,2024,122.668738561840,13.778385971979
$GNHDT,71.899,T*15
$PYRTM,2024,122.668744288785,13.778391698935
$GNGGA,160259.50,3351.04304630,N,12002.18034154,W,2,13,0.8,7.234,M,-37.363,M,4.4,0135*6C
$PYRTM,2024,122.668744288785,13.778391698935
$GNHDT,71.295,T*13
$PYRTM,2024,122.668750136690,13.778397546829
$GNGGA,160300.00,3351.04349618,N,12002.17893688,W,2,13,0.8,7.394,M,-37.363,M,5.0,0135*65
$PYRTM,2024,122.668750136690,13.778397546829
$GNHDT,70.447,T*1B
$PYRTM,2024,122.668755860590,13.778403270729
$GNGGA,160300.50,3351.04395792,N,12002.17747918,W,2,13,0.8,7.568,M,-37.363,M,5.4,0135*63
$PYRTM,2024,122.668755860590,13.778403270729
$GNHDT,69.514,T*14
$PYRTM,2024,122.668761707720,13.778409117859
$GNGGA,160301.00,3351.04440618,N,12002.17596734,W,2,13,0.8,7.704,M,-37.363,M,6.0,0135*6A
$PYRTM,2024,122.668761707720,13.778409117859
$GNHDT,68.778,T*1D
$PYRTM,2024,122.668767436366,13.778414846505
$GNGGA,160301.50,3351.04483529,N,12002.17443422,W,2,13,0.8,7.844,M,-37.363,M,6.4,0135*63
$PYRTM,2024,122.668767436366,13.778414846505
$GNHDT,68.329,T*1D
$PYRTM,2024,122.668773278449,13.778420688588
$GNGGA,160302.00,3351.04524599,N,12002.17289739,W,2,13,0.8,7.971,M,-37.363,M,7.0,0135*69
$PYRTM,2024,122.668773278449,13.778420688588
$GNHDT,67.792,T*16
$PYRTM,2024,122.668779012396,13.778426422535
$GNGGA,160302.50,3351.04564556,N,12002.17137298,W,2,13,0.8,8.105,M,-37.363,M,7.4,0135*63
$PYRTM,2024,122.668779012396,13.778426422535
$GNHDT,67.708,T*15
$PYRTM,2024,122.668784856227,13.778432266366
$GNGGA,160303.00,3351.04602841,N,12002.16986263,W,2,13,0.8,8.185,M,-37.363,M,7.0,0135*64
$PYRTM,2024,122.668784856227,13.778432266366
$GNHDT,67.934,T*14
$PYRTM,2024,122.668790587106,13.778437997257
$GNGGA,160303.50,3351.04639541,N,12002.16838568,W,2,13,0.8,8.203,M,-37.363,M,7.4,0135*65
$PYRTM,2024,122.668790587106,13.778437997257
$GNHDT,68.338,T*1D
$PYRTM,2024,122.668796431539,13.778443841678
$GNGGA,160304.00,3351.04675548,N,12002.16695621,W,2,13,0.8,8.125,M,-37.363,M,7.0,0135*62
$PYRTM,2024,122.668796431539,13.778443841678
$GNHDT,69.038,T*1F
$PYRTM,2024,122.668802157118,13.778449567257
$GNGGA,160304.50,3351.04711908,N,12002.16558813,W,2,13,0.8,7.960,M,-37.363,M,7.4,0135*63
$PYRTM,2024,122.668802157118,13.778449567257
$GNHDT,70.078,T*13
$PYRTM,2024,122.668808008044,13.778455418183
$GNGGA,160305.00,3351.04748122,N,12002.16429381,W,2,13,0.8,7.709,M,-37.363,M,4.0,0135*6A
$PYRTM,2024,122.668808008044,13.778455418183
$GNHDT,71.046,T*1F
$PYRTM,2024,122.668813734433,13.778461144583
$GNGGA,160305.50,3351.04783865,N,12002.16307711,W,2,13,0.8,7.449,M,-37.363,M,4.4,0135*67
$PYRTM,2024,122.668813734433,13.778461144583
$GNHDT,72.156,T*1C
$PYRTM,2024,122.668819582870,13.778466993009
$GNGGA,160306.00,3351.04819166,N,12002.16193341,W,2,13,0.8,7.192,M,-37.363,M,5.0,0135*6F
$PYRTM,2024,122.668819582870,13.778466993009
$GNHDT,73.210,T*1C
$PYRTM,2024,122.668825305868,13.778472716007
$GNGGA,160306.50,3351.04855098,N,12002.16082805,W,2,13,0.8,6.952,M,-37.363,M,5.4,0135*69
$PYRTM,2024,122.668825305868,13.778472716007
$GNHDT,74.111,T*19
$PYRTM,2024,122.668831149606,13.778478559757
$GNGGA,160307.00,3351.04892298,N,12002.15975051,W,2,13,0.8,6.741,M,-37.363,M,6.0,0135*64
$PYRTM,2024,122.668831149606,13.778478559757
$GNHDT,74.636,T*1B
$PYRTM,2024,122.668836885139,13.778484295278
$GNGGA,160307.50,3351.04931180,N,12002.15866088,W,2,13,0.8,6.550,M,-37.363,M,6.4,0135*62
$PYRTM,2024,122.668836885139,13.778484295278
$GNHDT,74.658,T*13
$PYRTM,2024,122.668842725914,13.778490136053
$GNGGA,160308.00,3351.04971849,N,12002.15755120,W,2,13,0.8,6.407,M,-37.363,M,7.0,0135*6A
$PYRTM,2024,122.668842725914,13.778490136053
$GNHDT,74.661,T*19
$PYRTM,2024,122.668848451771,13.778495861910
$GNGGA,160308.50,3351.05013389,N,12002.15641745,W,2,13,0.8,6.353,M,-37.363,M,7.4,0135*67
$PYRTM,2024,122.668848451771,13.778495861910
$GNHDT,74.363,T*1E
$PYRTM,2024,122.668854300139,13.778501710278
$GNGGA,160309.00,3351.05056726,N,12002.15525310,W,2,13,0.8,6.429,M,-37.363,M,7.0,0135*68
$PYRTM,2024,122.668854300139,13.778501710278
$GNHDT,73.821,T*14
$PYRTM,2024,122.668860032789,13.778507442928
$GNGGA,160309.50,3351.05100493,N,12002.15404781,W,2,13,0.8,6.637,M,-37.363,M,7.4,0135*65
$PYRTM,2024,122.668860032789,13.778507442928
$GNHDT,73.153,T*18
$PYRTM,2024,122.668865877060,13.778513287199
$GNGGA,160310.00,3351.05145114,N,12002.15278358,W,2,13,0.8,6.948,M,-37.363,M,7.0,0135*6D
$PYRTM,2024,122.668865877060,13.778513287199
$GNHDT,72.545,T*1A
$PYRTM,2024,122.668871599769,13.778519009907
$GNGGA,160310.50,3351.05188133,N,12002.15145184,W,2,13,0.8,7.279,M,-37.363,M,7.4,0135*6E
$PYRTM,2024,122.668871599769,13.778519009907
$GNHDT,71.831,T*17
$PYRTM,2024,122.668877451053,13.778524861192
$GNGGA,160311.00,3351.05228935,N,12002.15005409,W,2,13,0.8,7.603,M,-37.363,M,4.0,0135*66
$PYRTM,2024,122.668877451053,13.778524861192
$GNHDT,71.463,T*1C
$PYRTM,2024,122.668883172963,13.778530583102
$GNGGA,160311.50,3351.05267103,N,12002.14859901,W,2,13,0.8,7.862,M,-37.363,M,4.4,0135*6D
$PYRTM,2024,122.668883172963,13.778530583102
$GNHDT,70.998,T*14
$PYRTM,2024,122.668889029595,13.778536439734
$GNGGA,160312.00,3351.05303578,N,12002.14709294,W,2,13,0.8,8.062,M,-37.363,M,5.0,0135*6F
$PYRTM,2024,122.668889029595,13.778536439734
$GNHDT,70.696,T*15
$PYRTM,2024,122.668894750822,13.778542160961
$GNGGA,160312.50,3351.05337715,N,12002.14556279,W,2,13,0.8,8.184,M,-37.363,M,5.4,0135*62
$PYRTM,2024,122.668894750822,13.778542160961
$GNHDT,70.577,T*19
$PYRTM,2024,122.668900593171,13.778548003310
$GNGGA,160313.00,3351.05370708,N,12002.14403639,W,2,13,0.8,8.260,M,-37.363,M,6.0,0135*66
$PYRTM,2024,122.668900593171,13.778548003310
$GNHDT,70.586,T*17
$PYRTM,2024,122.668906323264,13.778553733403
$GNGGA,160313.50,3351.05403334,N,12002.14253249,W,2,13,0.8,8.292,M,-37.363,M,6.4,0135*62
$PYRTM,2024,122.668906323264,13.778553733403
$GNHDT,70.946,T*17
$PYRTM,2024,122.668912166678,13.778559576817
$GNGGA,160314.00,3351.05436302,N,12002.14106588,W,2,13,0.8,8.290,M,-37.363,M,7.0,0135*6D
$PYRTM,2024,122.668912166678,13.778559576817
$GNHDT,71.361,T*19
$PYRTM,2024,122.668917900810,13.778565310961
$GNGGA,160314.50,3351.05469614,N,12002.13964057,W,2,13,0.8,8.246,M,-37.363,M,7.4,0135*63
$PYRTM,2024,122.668917900810,13.778565310961
$GNHDT,71.899,T*15
$PYRTM,2024,122.668923742442,13.778571152581
$GNGGA,160315.00,3351.05502899,N,12002.13825864,W,2,13,0.8,8.152,M,-37.363,M,7.0,0135*6E
$PYRTM,2024,122.668923742442,13.778571152581
$GNHDT,72.321,T*1E
$PYRTM,2024,122.668929472303,13.778576882454
$GNGGA,160315.50,3351.05536296,N,12002.13690548,W,2,13,0.8,7.982,M,-37.363,M,7.4,0135*64
$PYRTM,2024,122.668929472303,13.778576882454
$GNHDT,72.823,T*17
$PYRTM,2024,122.668935318461,13.778582728600
$GNGGA,160316.00,3351.05570120,N,12002.13559408,W,2,13,0.8,7.761,M,-37.363,M,7.0,0135*6A
$PYRTM,2024,122.668935318461,13.778582728600
$GNHDT,73.209,T*14
$PYRTM,2024,122.668941044780,13.778588454919
$GNGGA,160316.50,3351.05604123,N,12002.13432736,W,2,13,0.8,7.535,M,-37.363,M,7.4,0135*69
$PYRTM,2024,122.668941044780,13.778588454919
$GNHDT,73.612,T*1A
$PYRTM,2024,122.668946896111,13.778594306250
$GNGGA,160317.00,3351.05638488,N,12002.13310371,W,2,13,0.8,7.313,M,-37.363,M,4.0,0135*63
$PYRTM,2024,122.668946896111,13.778594306250
$GNHDT,73.657,T*1B
$PYRTM,2024,122.668952622384,13.778600032523
$GNGGA,160317.50,3351.05674034,N,12002.13190811,W,2,13,0.8,7.115,M,-37.363,M,4.4,0135*6A
$PYRTM,2024,122.668952622384,13.778600032523
$GNHDT,73.687,T*16
$PYRTM,2024,122.668958466609,13.778605876748
$GNGGA,160318.00,3351.05710211,N,12002.13073678,W,2,13,0.8,6.960,M,-37.363,M,5.0,0135*65
$PYRTM,2024,122.668958466609,13.778605876748
$GNHDT,73.485,T*16
$PYRTM,2024,122.668964194051,13.778611604190
$GNGGA,160318.50,3351.05747296,N,12002.12958247,W,2,13,0.8,6.860,M,-37.363,M,5.4,0135*61
$PYRTM,2024,122.668964194051,13.778611604190
$GNHDT,73.439,T*11
$PYRTM,2024,122.668970039120,13.778617449259
$GNGGA,160319.00,3351.05785342,N,12002.12844215,W,2,13,0.8,6.828,M,-37.363,M,6.0,0135*63
$PYRTM,2024,122.668970039120,13.778617449259
$GNHDT,73.214,T*18
$PYRTM,2024,122.668975768981,13.778623179120
$GNGGA,160319.50,3351.05823819,N,12002.12728944,W,2,13,0.8,6.841,M,-37.363,M,6.4,0135*61
$PYRTM,2024,122.668975768981,13.778623179120
$GNHDT,72.979,T*19
$PYRTM,2024,122.668981613681,13.778629023819
$GNGGA,160320.00,3351.05861368,N,12002.12610675,W,2,13,0.8,6.888,M,-37.363,M,7.0,0135*62
$PYRTM,2024,122.668981613681,13.778629023819
$GNHDT,72.783,T*12
$PYRTM,2024,122.668987342569,13.778634752708
$GNGGA,160320.50,3351.05900694,N,12002.12490321,W,2,13,0.8,6.972,M,-37.363,M,7.4,0135*69
$PYRTM,2024,122.668987342569,13.778634752708
$GNHDT,72.577,T*1B
$PYRTM,2024,122.668993188762,13.778640598912
$GNGGA,160321.00,3351.05940937,N,12002.12367654,W,2,13,0.8,7.092,M,-37.363,M,7.0,0135*65
$PYRTM,2024,122.668993188762,13.778640598912
$GNHDT,72.335,T*1B
$PYRTM,2024,122.668998914931,13.778646325069
$GNGGA,160321.50,3351.05981882,N,12002.12241330,W,2,13,0.8,7.226,M,-37.363,M,7.4,0135*69
$PYRTM,2024,122.668998914931,13.778646325069
$GNHDT,71.959,T*18
$PYRTM,2024,122.669004761921,13.778652172060
$GNGGA,160322.00,3351.06023873,N,12002.12111186,W,2,13,0.8,7.405,M,-37.363,M,7.0,0135*69
$PYRTM,2024,122.669004761921,13.778652172060
$GNHDT,71.518,T*11
$PYRTM,2024,122.669010489294,13.778657899433
$GNGGA,160322.50,3351.06066499,N,12002.11977163,W,2,13,0.8,7.590,M,-37.363,M,7.4,0135*6C
$PYRTM,2024,122.669010489294,13.778657899433
$GNHDT,71.023,T*1C
$PYRTM,2024,122.669016335984,13.778663746123
$GNGGA,160323.00,3351.06109818,N,12002.11839992,W,2,13,0.8,7.795,M,-37.363,M,4.0,0135*68
$PYRTM,2024,122.669016335984,13.778663746123
$GNHDT,70.684,T*16
$PYRTM,2024,122.669022064329,13.778669474468
$GNGGA,160323.50,3351.06152542,N,12002.11699793,W,2,13,0.8,7.991,M,-37.363,M,4.4,0135*64
$PYRTM,2024,122.669022064329,13.778669474468
$GNHDT,70.284,T*12
$PYRTM,2024,122.669027909699,13.778675319838
$GNGGA,160324.00,3351.06194337,N,12002.11557573,W,2,13,0.8,8.198,M,-37.363,M,5.0,0135*6E
$PYRTM,2024,122.669027909699,13.778675319838
$GNHDT,69.955,T*1D
$PYRTM,2024,122.669033641354,13.778681051493
$GNGGA,160324.50,3351.06234582,N,12002.11412590,W,2,13,0.8,8.337,M,-37.363,M,5.4,0135*64
$PYRTM,2024,122.669033641354,13.778681051493
$GNHDT,69.637,T*16
$PYRTM,2024,122.669039484815,13.778686894954
$GNGGA,160325.00,3351.06273723,N,12002.11265429,W,2,13,0.8,8.420,M,-37.363,M,6.0,0135*69
$PYRTM,2024,122.669039484815,13.778686894954
$GNHDT,69.402,T*12
$PYRTM,2024,122.669045213831,13.778692623970
$GNGGA,160325.50,3351.06312512,N,12002.11117264,W,2,13,0.8,8.421,M,-37.363,M,6.4,0135*66
$PYRTM,2024,122.669045213831,13.778692623970
$GNHDT,69.238,T*1D
$PYRTM,2024,122.669051057998,13.778698468137
$GNGGA,160326.00,3351.06352424,N,12002.10969995,W,2,13,0.8,8.365,M,-37.363,M,7.0,0135*67
$PYRTM,2024,122.669051057998,13.778698468137
$GNHDT,69.165,T*16
$PYRTM,2024,122.669056790648,13.778704200787
$GNGGA,160326.50,3351.06391950,N,12002.10825890,W,2,13,0.8,8.265,M,-37.363,M,7.4,0135*6B
$PYRTM,2024,122.669056790648,13.778704200787
$GNHDT,69.205,T*13
$PYRTM,2024,122.669062634062,13.778710044201
$GNGGA,160327.00,3351.06430825,N,12002.10686270,W,2,13,0.8,8.138,M,-37.363,M,7.0,0135*6C
$PYRTM,2024,122.669062634062,13.778710044201
$GNHDT,69.538,T*1A
$PYRTM,2024,122.669068359583,13.778715769722
$GNGGA,160327.50,3351.06468148,N,12002.10550649,W,2,13,0.8,7.984,M,-37.363,M,7.4,0135*64
$PYRTM,2024,122.669068359583,13.778715769722
$GNHDT,69.829,T*17
$PYRTM,2024,122.669074204734,13.778721614873
$GNGGA,160328.00,3351.06504821,N,12002.10418797,W,2,13,0.8,7.803,M,-37.363,M,7.0,0135*66
$PYRTM,2024,122.669074204734,13.778721614873
$GNHDT,70.189,T*1C
$PYRTM,2024,122.669079939363,13.778727349514
$GNGGA,160328.50,3351.06539937,N,12002.10290351,W,2,13,0.8,7.586,M,-37.363,M,7.4,0135*67
$PYRTM,2024,122.669079939363,13.778727349514
$GNHDT,70.545,T*18
$PYRTM,2024,122.669085779919,13.778733190058
$GNGGA,160329.00,3351.06574417,N,12002.10166368,W,2,13,0.8,7.343,M,-37.363,M,4.0,0135*6D
$PYRTM,2024,122.669085779919,13.778733190058
$GNHDT,70.987,T*1A
$PYRTM,2024,122.669091506910,13.778738917049
$GNGGA,160329.50,3351.06610195,N,12002.10046992,W,2,13,0.8,7.132,M,-37.363,M,4.4,0135*6A
$PYRTM,2024,122.669091506910,13.778738917049
$GNHDT,71.446,T*1B
