$PYRTM,2024,122.583333445671,13.692980855810
$GNGGA,140000.00,3345.92338841,N,12019.61851558,W,2,13,0.9,6.079,M,-37.687,M,5.0,0135*6E
$PYRTM,2024,122.583333445671,13.692980855810
$GNHDT,313.208,T*20
$PYRTM,2024,122.583339172199,13.692986582338
$GNGGA,140000.50,3345.92381131,N,12019.61907450,W,2,13,0.9,6.162,M,-37.687,M,5.4,0135*63
$PYRTM,2024,122.583339172199,13.692986582338
$GNHDT,313.549,T*22
$PYRTM,2024,122.583345019977,13.692992430116
$GNGGA,140001.00,3345.92415460,N,12019.61963105,W,2,13,0.9,6.531,M,-37.687,M,6.0,0135*6E
$PYRTM,2024,122.583345019977,13.692992430116
$GNHDT,313.835,T*24
$PYRTM,2024,122.583350748727,13.692998158866
$GNGGA,140001.50,3345.92444835,N,12019.62016293,W,2,13,0.9,7.033,M,-37.687,M,6.4,0135*65
$PYRTM,2024,122.583350748727,13.692998158866
$GNHDT,313.898,T*23
$PYRTM,2024,122.583356589884,13.693004000023
$GNGGA,140002.00,3345.92472693,N,12019.62067734,W,2,13,0.9,7.549,M,-37.687,M,7.0,0135*67
$PYRTM,2024,122.583356589884,13.693004000023
$GNHDT,314.371,T*28
$PYRTM,2024,122.583362318113,13.693009728252
$GNGGA,140002.50,3345.92503449,N,12019.62117213,W,2,13,0.9,7.941,M,-37.687,M,7.4,0135*66
$PYRTM,2024,122.583362318113,13.693009728252
$GNHDT,314.304,T*2A
$PYRTM,2024,122.583368168160,13.693015578310
$GNGGA,140003.00,3345.92539488,N,12019.62167252,W,2,13,0.9,8.028,M,-37.687,M,7.0,0135*69
$PYRTM,2024,122.583368168160,13.693015578310
$GNHDT,314.036,T*28
$PYRTM,2024,122.583373896435,13.693021306574
$GNGGA,140003.50,3345.92583041,N,12019.62217993,W,2,13,0.9,7.756,M,-37.687,M,7.4,0135*6B
$PYRTM,2024,122.583373896435,13.693021306574
$GNHDT,313.854,T*23
$PYRTM,2024,122.583379744190,13.693027154329
$GNGGA,140004.00,3345.92629330,N,12019.62269977,W,2,13,0.9,7.283,M,-37.687,M,7.0,0135*65
$PYRTM,2024,122.583379744190,13.693027154329
$GNHDT,313.942,T*25
$PYRTM,2024,122.583385466505,13.693032876655
$GNGGA,140004.50,3345.92673274,N,12019.62321271,W,2,13,0.9,6.786,M,-37.687,M,7.4,0135*6B
$PYRTM,2024,122.583385466505,13.693032876655
$GNHDT,313.765,T*2E
$PYRTM,2024,122.583391319630,13.693038729769
$GNGGA,140005.00,3345.92714005,N,12019.62371124,W,2,13,0.9,6.408,M,-37.687,M,4.0,0135*6F
$PYRTM,2024,122.583391319630,13.693038729769
$GNHDT,313.748,T*21
$PYRTM,2024,122.583397044965,13.693044455104
$GNGGA,140005.50,3345.92752805,N,12019.62422672,W,2,13,0.9,6.192,M,-37.687,M,4.4,0135*67
$PYRTM,2024,122.583397044965,13.693044455104
$GNHDT,313.732,T*2C
$PYRTM,2024,122.583402884120,13.693050294259
$GNGGA,140006.00,3345.92792808,N,12019.62478043,W,2,13,0.9,6.072,M,-37.687,M,5.0,0135*61
$PYRTM,2024,122.583402884120,13.693050294259
$GNHDT,313.734,T*2A
$PYRTM,2024,122.583408622975,13.693056033113
$GNGGA,140006.50,3345.92835650,N,12019.62539668,W,2,13,0.9,5.977,M,-37.687,M,5.4,0135*65
$PYRTM,2024,122.583408622975,13.693056033113
$GNHDT,313.981,T*2A
$PYRTM,2024,122.583414461470,13.693061871620
$GNGGA,140007.00,3345.92879733,N,12019.62608019,W,2,13,0.9,5.922,M,-37.687,M,6.0,0135*6B
$PYRTM,2024,122.583414461470,13.693061871620
$GNHDT,314.158,T*21
$PYRTM,2024,122.583420195069,13.693067605208
$GNGGA,140007.50,3345.92925118,N,12019.62672663,W,2,13,0.9,5.984,M,-37.687,M,6.4,0135*67
$PYRTM,2024,122.583420195069,13.693067605208
$GNHDT,314.520,T*2A
$PYRTM,2024,122.583426038160,13.693073448299
$GNGGA,140008.00,3345.92968314,N,12019.62729840,W,2,13,0.9,6.286,M,-37.687,M,7.0,0135*65
$PYRTM,2024,122.583426038160,13.693073448299
$GNHDT,314.486,T*27
$PYRTM,2024,122.583431764711,13.693079174850
$GNGGA,140008.50,3345.93012734,N,12019.62773193,W,2,13,0.9,6.735,M,-37.687,M,7.4,0135*62
$PYRTM,2024,122.583431764711,13.693079174850
$GNHDT,314.491,T*21
$PYRTM,2024,122.583437607685,13.693085017824
$GNGGA,140009.00,3345.93057845,N,12019.62807274,W,2,13,0.9,7.253,M,-37.687,M,7.0,0135*68
$PYRTM,2024,122.583437607685,13.693085017824
$GNHDT,314.850,T*20
$PYRTM,2024,122.583443344306,13.693090754456
$GNGGA,140009.50,3345.93103840,N,12019.62842075,W,2,13,0.9,7.622,M,-37.687,M,7.4,0135*6C
$PYRTM,2024,122.583443344306,13.693090754456
$GNHDT,315.360,T*29
$PYRTM,2024,122.583449187917,13.693096598056
$GNGGA,140010.00,3345.93149373,N,12019.62887357,W,2,13,0.9,7.688,M,-37.687,M,7.0,0135*6A
$PYRTM,2024,122.583449187917,13.693096598056
$GNHDT,315.639,T*20
$PYRTM,2024,122.583454913553,13.693102323704
$GNGGA,140010.50,3345.93194954,N,12019.62945492,W,2,13,0.9,7.378,M,-37.687,M,7.4,0135*6F
$PYRTM,2024,122.583454913553,13.693102323704
$GNHDT,315.751,T*2F
$PYRTM,2024,122.583460768623,13.693108178762
$GNGGA,140011.00,3345.93234924,N,12019.63011117,W,2,13,0.9,6.917,M,-37.687,M,4.0,0135*61
$PYRTM,2024,122.583460768623,13.693108178762
$GNHDT,315.283,T*25
$PYRTM,2024,122.583466488368,13.693113898507
$GNGGA,140011.50,3345.93267025,N,12019.63076182,W,2,13,0.9,6.535,M,-37.687,M,4.4,0135*6F
$PYRTM,2024,122.583466488368,13.693113898507
$GNHDT,315.106,T*2B
$PYRTM,2024,122.583472334352,13.693119744491
$GNGGA,140012.00,3345.93290298,N,12019.63130471,W,2,13,0.9,6.425,M,-37.687,M,5.0,0135*6A
$PYRTM,2024,122.583472334352,13.693119744491
$GNHDT,315.137,T*29
$PYRTM,2024,122.583478062593,13.693125472731
$GNGGA,140012.50,3345.93312743,N,12019.63170920,W,2,13,0.9,6.602,M,-37.687,M,5.4,0135*69
$PYRTM,2024,122.583478062593,13.693125472731
$GNHDT,315.828,T*2E
$PYRTM,2024,122.583483910613,13.693131320752
$GNGGA,140013.00,3345.93340943,N,12019.63200336,W,2,13,0.9,6.919,M,-37.687,M,6.0,0135*6F
$PYRTM,2024,122.583483910613,13.693131320752
$GNHDT,316.818,T*2E
$PYRTM,2024,122.583489636736,13.693137046875
$GNGGA,140013.50,3345.93378984,N,12019.63226485,W,2,13,0.9,7.178,M,-37.687,M,6.4,0135*6B
$PYRTM,2024,122.583489636736,13.693137046875
$GNHDT,316.955,T*26
$PYRTM,2024,122.583495486273,13.693142896412
$GNGGA,140014.00,3345.93431398,N,12019.63251907,W,2,13,0.9,7.189,M,-37.687,M,7.0,0135*68
$PYRTM,2024,122.583495486273,13.693142896412
$GNHDT,317.270,T*2B
$PYRTM,2024,122.583501222963,13.693148633102
$GNGGA,140014.50,3345.93490540,N,12019.63282748,W,2,13,0.9,6.939,M,-37.687,M,7.4,0135*68
$PYRTM,2024,122.583501222963,13.693148633102
$GNHDT,317.372,T*28
$PYRTM,2024,122.583507061586,13.693154471725
$GNGGA,140015.00,3345.93551579,N,12019.63320483,W,2,13,0.9,6.462,M,-37.687,M,7.0,0135*60
$PYRTM,2024,122.583507061586,13.693154471725
$GNHDT,317.529,T*20
$PYRTM,2024,122.583512785845,13.693160195984
$GNGGA,140015.50,3345.93608183,N,12019.63366373,W,2,13,0.9,5.963,M,-37.687,M,7.4,0135*6A
$PYRTM,2024,122.583512785845,13.693160195984
$GNHDT,317.617,T*2E
$PYRTM,2024,122.583518632905,13.693166043044
$GNGGA,140016.00,3345.93654021,N,12019.63423399,W,2,13,0.9,5.705,M,-37.687,M,7.0,0135*64
$PYRTM,2024,122.583518632905,13.693166043044
$GNHDT,317.592,T*20
$PYRTM,2024,122.583524354491,13.693171764630
$GNGGA,140016.50,3345.93687292,N,12019.63488898,W,2,13,0.9,5.816,M,-37.687,M,7.4,0135*67
$PYRTM,2024,122.583524354491,13.693171764630
$GNHDT,317.379,T*23
$PYRTM,2024,122.583530207060,13.693177617199
$GNGGA,140017.00,3345.93713114,N,12019.63555043,W,2,13,0.9,6.207,M,-37.687,M,4.0,0135*63
$PYRTM,2024,122.583530207060,13.693177617199
$GNHDT,317.431,T*28
$PYRTM,2024,122.583535932569,13.693183342708
$GNGGA,140017.50,3345.93736571,N,12019.63615969,W,2,13,0.9,6.741,M,-37.687,M,4.4,0135*63
$PYRTM,2024,122.583535932569,13.693183342708
$GNHDT,316.714,T*2D
$PYRTM,2024,122.583541785625,13.693189195764
$GNGGA,140018.00,3345.93767302,N,12019.63666015,W,2,13,0.9,7.252,M,-37.687,M,5.0,0135*6A
$PYRTM,2024,122.583541785625,13.693189195764
$GNHDT,316.904,T*22
$PYRTM,2024,122.583547505602,13.693194915741
$GNGGA,140018.50,3345.93809265,N,12019.63706525,W,2,13,0.9,7.631,M,-37.687,M,5.4,0135*6C
$PYRTM,2024,122.583547505602,13.693194915741
$GNHDT,316.751,T*2C
$PYRTM,2024,122.583553357106,13.693200767245
$GNGGA,140019.00,3345.93862768,N,12019.63742656,W,2,13,0.9,7.735,M,-37.687,M,6.0,0135*68
$PYRTM,2024,122.583553357106,13.693200767245
$GNHDT,316.698,T*28
$PYRTM,2024,122.583559081424,13.693206491562
$GNGGA,140019.50,3345.93923805,N,12019.63780118,W,2,13,0.9,7.489,M,-37.687,M,6.4,0135*6E
$PYRTM,2024,122.583559081424,13.693206491562
$GNHDT,316.498,T*2A
$PYRTM,2024,122.583564929618,13.693212339757
$GNGGA,140020.00,3345.93984622,N,12019.63820082,W,2,13,0.9,7.058,M,-37.687,M,7.0,0135*6D
$PYRTM,2024,122.583564929618,13.693212339757
$GNHDT,316.320,T*2E
$PYRTM,2024,122.583570650590,13.693218060718
$GNGGA,140020.50,3345.94038473,N,12019.63863829,W,2,13,0.9,6.657,M,-37.687,M,7.4,0135*65
$PYRTM,2024,122.583570650590,13.693218060718
$GNHDT,316.299,T*2D
$PYRTM,2024,122.583576498044,13.693223908183
$GNGGA,140021.00,3345.94079493,N,12019.63907286,W,2,13,0.9,6.513,M,-37.687,M,7.0,0135*61
$PYRTM,2024,122.583576498044,13.693223908183
$GNHDT,316.513,T*28
$PYRTM,2024,122.583582231169,13.693229641319
$GNGGA,140021.50,3345.94108296,N,12019.63951934,W,2,13,0.9,6.670,M,-37.687,M,7.4,0135*63
$PYRTM,2024,122.583582231169,13.693229641319
$GNHDT,316.515,T*2E
$PYRTM,2024,122.583588073241,13.693235483380
$GNGGA,140022.00,3345.94129524,N,12019.63999358,W,2,13,0.9,7.021,M,-37.687,M,7.0,0135*6B
$PYRTM,2024,122.583588073241,13.693235483380
$GNHDT,316.731,T*2A
$PYRTM,2024,122.583593803079,13.693241213229
$GNGGA,140022.50,3345.94150249,N,12019.64050555,W,2,13,0.9,7.376,M,-37.687,M,7.4,0135*69
$PYRTM,2024,122.583593803079,13.693241213229
$GNHDT,316.415,T*2F
$PYRTM,2024,122.583599649039,13.693247059178
$GNGGA,140023.00,3345.94179840,N,12019.64105537,W,2,13,0.9,7.489,M,-37.687,M,4.0,0135*60
$PYRTM,2024,122.583599649039,13.693247059178
$GNHDT,316.145,T*2F
$PYRTM,2024,122.583605373623,13.693252783762
$GNGGA,140023.50,3345.94225281,N,12019.64158257,W,2,13,0.9,7.254,M,-37.687,M,4.4,0135*63
$PYRTM,2024,122.583605373623,13.693252783762
$GNHDT,316.131,T*2C
$PYRTM,2024,122.583611228796,13.693258638935
$GNGGA,140024.00,3345.94280098,N,12019.64206202,W,2,13,0.9,6.816,M,-37.687,M,5.0,0135*64
$PYRTM,2024,122.583611228796,13.693258638935
$GNHDT,315.880,T*2C
$PYRTM,2024,122.583616947083,13.693264357222
$GNGGA,140024.50,3345.94334977,N,12019.64250802,W,2,13,0.9,6.314,M,-37.687,M,5.4,0135*63
$PYRTM,2024,122.583616947083,13.693264357222
$GNHDT,315.609,T*23
$PYRTM,2024,122.583622797083,13.693270207222
$GNGGA,140025.00,3345.94382784,N,12019.64294578,W,2,13,0.9,5.971,M,-37.687,M,6.0,0135*6D
$PYRTM,2024,122.583622797083,13.693270207222
$GNHDT,315.597,T*27
$PYRTM,2024,122.583628527500,13.693275937639
$GNGGA,140025.50,3345.94419914,N,12019.64340208,W,2,13,0.9,5.917,M,-37.687,M,6.4,0135*66
$PYRTM,2024,122.583628527500,13.693275937639
$GNHDT,315.382,T*25
$PYRTM,2024,122.583634370891,13.693281781030
$GNGGA,140026.00,3345.94449388,N,12019.64387882,W,2,13,0.9,6.113,M,-37.687,M,7.0,0135*63
$PYRTM,2024,122.583634370891,13.693281781030
$GNHDT,315.093,T*26
$PYRTM,2024,122.583640095868,13.693287506007
$GNGGA,140026.50,3345.94476630,N,12019.64436546,W,2,13,0.9,6.442,M,-37.687,M,7.4,0135*61
$PYRTM,2024,122.583640095868,13.693287506007
$GNHDT,314.821,T*26
$PYRTM,2024,122.583645948519,13.693293358657
$GNGGA,140027.00,3345.94504402,N,12019.64486512,W,2,13,0.9,6.795,M,-37.687,M,7.0,0135*65
$PYRTM,2024,122.583645948519,13.693293358657
$GNHDT,315.018,T*25
$PYRTM,2024,122.583651674352,13.693299084491
$GNGGA,140027.50,3345.94537329,N,12019.64536987,W,2,13,0.9,7.044,M,-37.687,M,7.4,0135*6A
$PYRTM,2024,122.583651674352,13.693299084491
$GNHDT,315.020,T*2E
$PYRTM,2024,122.583657519016,13.693304929155
$GNGGA,140028.00,3345.94575684,N,12019.64590084,W,2,13,0.9,7.103,M,-37.687,M,7.0,0135*64
$PYRTM,2024,122.583657519016,13.693304929155
$GNHDT,315.251,T*2A
$PYRTM,2024,122.583663254907,13.693310665058
$GNGGA,140028.50,3345.94619030,N,12019.64644401,W,2,13,0.9,6.935,M,-37.687,M,7.4,0135*6A
$PYRTM,2024,122.583663254907,13.693310665058
$GNHDT,315.298,T*2F
$PYRTM,2024,122.583669088854,13.693316498993
$GNGGA,140029.00,3345.94663239,N,12019.64699513,W,2,13,0.9,6.695,M,-37.687,M,4.0,0135*68
$PYRTM,2024,122.583669088854,13.693316498993
$GNHDT,314.802,T*27
$PYRTM,2024,122.583674824005,13.693322234144
$GNGGA,140029.50,3345.94704510,N,12019.64751534,W,2,13,0.9,6.478,M,-37.687,M,4.4,0135*64
$PYRTM,2024,122.583674824005,13.693322234144
$GNHDT,314.479,T*27
$PYRTM,2024,122.583680663750,13.693328073889
$GNGGA,140030.00,3345.94739735,N,12019.64799181,W,2,13,0.9,6.489,M,-37.687,M,5.0,0135*67
$PYRTM,2024,122.583680663750,13.693328073889
$GNHDT,314.371,T*28
$PYRTM,2024,122.583686392604,13.693333802743
$GNGGA,140030.50,3345.94771330,N,12019.64841868,W,2,13,0.9,6.698,M,-37.687,M,5.4,0135*6D
$PYRTM,2024,122.583686392604,13.693333802743
$GNHDT,314.171,T*2A
$PYRTM,2024,122.583692249560,13.693339659699
$GNGGA,140031.00,3345.94803060,N,12019.64880970,W,2,13,0.9,7.063,M,-37.687,M,6.0,0135*64
$PYRTM,2024,122.583692249560,13.693339659699
$GNHDT,314.681,T*22
$PYRTM,2024,122.583697966875,13.693345377025
$GNGGA,140031.50,3345.94838523,N,12019.64921979,W,2,13,0.9,7.379,M,-37.687,M,6.4,0135*64
$PYRTM,2024,122.583697966875,13.693345377025
$GNHDT,314.167,T*2D
$PYRTM,2024,122.583703816400,13.693351226539
$GNGGA,140032.00,3345.94879548,N,12019.64967061,W,2,13,0.9,7.560,M,-37.687,M,7.0,0135*63
$PYRTM,2024,122.583703816400,13.693351226539
$GNHDT,313.857,T*20
$PYRTM,2024,122.583709543461,13.693356953600
$GNGGA,140032.50,3345.94924097,N,12019.65014294,W,2,13,0.9,7.565,M,-37.687,M,7.4,0135*6D
$PYRTM,2024,122.583709543461,13.693356953600
$GNHDT,313.990,T*2A
$PYRTM,2024,122.583715385822,13.693362795961
$GNGGA,140033.00,3345.94968667,N,12019.65060451,W,2,13,0.9,7.465,M,-37.687,M,7.0,0135*61
$PYRTM,2024,122.583715385822,13.693362795961
$GNHDT,314.318,T*27
$PYRTM,2024,122.583721114757,13.693368524896
$GNGGA,140033.50,3345.95011384,N,12019.65104019,W,2,13,0.9,7.309,M,-37.687,M,7.4,0135*68
$PYRTM,2024,122.583721114757,13.693368524896
$GNHDT,314.413,T*2B
$PYRTM,2024,122.583726958889,13.693374369039
$GNGGA,140034.00,3345.95052992,N,12019.65147383,W,2,13,0.9,7.135,M,-37.687,M,7.0,0135*6E
$PYRTM,2024,122.583726958889,13.693374369039
$GNHDT,314.588,T*28
$PYRTM,2024,122.583732693194,13.693380103333
$GNGGA,140034.50,3345.95094441,N,12019.65194976,W,2,13,0.9,6.926,M,-37.687,M,7.4,0135*63
$PYRTM,2024,122.583732693194,13.693380103333
$GNHDT,314.348,T*22
$PYRTM,2024,122.583738533588,13.693385943727
$GNGGA,140035.00,3345.95134161,N,12019.65251135,W,2,13,0.9,6.730,M,-37.687,M,4.0,0135*60
$PYRTM,2024,122.583738533588,13.693385943727
$GNHDT,314.170,T*2B
$PYRTM,2024,122.583744264572,13.693391674711
$GNGGA,140035.50,3345.95171711,N,12019.65313796,W,2,13,0.9,6.572,M,-37.687,M,4.4,0135*6D
$PYRTM,2024,122.583744264572,13.693391674711
$GNHDT,313.774,T*2E
$PYRTM,2024,122.583750113368,13.693397523519
$GNGGA,140036.00,3345.95207020,N,12019.65380158,W,2,13,0.9,6.518,M,-37.687,M,5.0,0135*6B
$PYRTM,2024,122.583750113368,13.693397523519
$GNHDT,313.311,T*29
$PYRTM,2024,122.583755843657,13.693403253796
$GNGGA,140036.50,3345.95243243,N,12019.65440795,W,2,13,0.9,6.561,M,-37.687,M,5.4,0135*6F
$PYRTM,2024,122.583755843657,13.693403253796
$GNHDT,313.627,T*29
$PYRTM,2024,122.583761688530,13.693409098669
$GNGGA,140037.00,3345.95279522,N,12019.65493301,W,2,13,0.9,6.760,M,-37.687,M,6.0,0135*61
$PYRTM,2024,122.583761688530,13.693409098669
$GNHDT,314.137,T*28
$PYRTM,2024,122.583767422049,13.693414832187
$GNGGA,140037.50,3345.95318111,N,12019.65536825,W,2,13,0.9,7.071,M,-37.687,M,6.4,0135*67
$PYRTM,2024,122.583767422049,13.693414832187
$GNHDT,314.156,T*2F
$PYRTM,2024,122.583773269074,13.693420679213
$GNGGA,140038.00,3345.95360928,N,12019.65572571,W,2,13,0.9,7.444,M,-37.687,M,7.0,0135*6B
$PYRTM,2024,122.583773269074,13.693420679213
$GNHDT,314.303,T*2D
$PYRTM,2024,122.583778988900,13.693426399039
$GNGGA,140038.50,3345.95407577,N,12019.65607009,W,2,13,0.9,7.747,M,-37.687,M,7.4,0135*61
$PYRTM,2024,122.583778988900,13.693426399039
$GNHDT,314.403,T*2A
$PYRTM,2024,122.583784830521,13.693432240660
$GNGGA,140039.00,3345.95455330,N,12019.65641563,W,2,13,0.9,7.935,M,-37.687,M,7.0,0135*63
$PYRTM,2024,122.583784830521,13.693432240660
$GNHDT,314.506,T*2E
$PYRTM,2024,122.583790560475,13.693437970613
$GNGGA,140039.50,3345.95498032,N,12019.65681090,W,2,13,0.9,8.032,M,-37.687,M,7.4,0135*66
$PYRTM,2024,122.583790560475,13.693437970613
$GNHDT,314.454,T*28
$PYRTM,2024,122.583796411829,13.693443821968
$GNGGA,140040.00,3345.95533753,N,12019.65727046,W,2,13,0.9,7.997,M,-37.687,M,7.0,0135*66
$PYRTM,2024,122.583796411829,13.693443821968
$GNHDT,314.628,T*21
$PYRTM,2024,122.583802132940,13.693449543079
$GNGGA,140040.50,3345.95564089,N,12019.65780326,W,2,13,0.9,7.815,M,-37.687,M,7.4,0135*66
$PYRTM,2024,122.583802132940,13.693449543079
$GNHDT,314.562,T*2C
$PYRTM,2024,122.583807985370,13.693455395521
$GNGGA,140041.00,3345.95592962,N,12019.65840121,W,2,13,0.9,7.492,M,-37.687,M,4.0,0135*65
$PYRTM,2024,122.583807985370,13.693455395521
$GNHDT,314.929,T*2F
$PYRTM,2024,122.583813711134,13.693461121273
$GNGGA,140041.50,3345.95625076,N,12019.65902501,W,2,13,0.9,7.038,M,-37.687,M,4.4,0135*62
$PYRTM,2024,122.583813711134,13.693461121273
$GNHDT,314.678,T*24
$PYRTM,2024,122.583819555845,13.693466965984
$GNGGA,140042.00,3345.95664588,N,12019.65959261,W,2,13,0.9,6.525,M,-37.687,M,5.0,0135*67
$PYRTM,2024,122.583819555845,13.693466965984
$GNHDT,315.188,T*2D
$PYRTM,2024,122.583825281644,13.693472691782
$GNGGA,140042.50,3345.95707812,N,12019.66011117,W,2,13,0.9,6.140,M,-37.687,M,5.4,0135*6F
$PYRTM,2024,122.583825281644,13.693472691782
$GNHDT,314.726,T*2E
$PYRTM,2024,122.583831133715,13.693478543854
$GNGGA,140043.00,3345.95754527,N,12019.66054806,W,2,13,0.9,5.947,M,-37.687,M,6.0,0135*65
$PYRTM,2024,122.583831133715,13.693478543854
$GNHDT,314.686,T*25
$PYRTM,2024,122.583836865602,13.693484275741
$GNGGA,140043.50,3345.95800720,N,12019.66098460,W,2,13,0.9,5.969,M,-37.687,M,6.4,0135*6F
$PYRTM,2024,122.583836865602,13.693484275741
$GNHDT,314.401,T*28
$PYRTM,2024,122.583842705336,13.693490115475
$GNGGA,140044.00,3345.95849515,N,12019.66140584,W,2,13,0.9,6.117,M,-37.687,M,7.0,0135*6C
$PYRTM,2024,122.583842705336,13.693490115475
$GNHDT,314.069,T*22
$PYRTM,2024,122.583848437350,13.693495847488
$GNGGA,140044.50,3345.95893710,N,12019.66191450,W,2,13,0.9,6.343,M,-37.687,M,7.4,0135*6A
$PYRTM,2024,122.583848437350,13.693495847488
$GNHDT,314.090,T*24
$PYRTM,2024,122.583854274850,13.693501684988
$GNGGA,140045.00,3345.95933981,N,12019.66244913,W,2,13,0.9,6.674,M,-37.687,M,7.0,0135*67
$PYRTM,2024,122.583854274850,13.693501684988
$GNHDT,314.190,T*25
$PYRTM,2024,122.583860006088,13.693507416227
$GNGGA,140045.50,3345.95969721,N,12019.66292987,W,2,13,0.9,7.100,M,-37.687,M,7.4,0135*6E
$PYRTM,2024,122.583860006088,13.693507416227
$GNHDT,314.787,T*25
$PYRTM,2024,122.583865851771,13.693513261910
$GNGGA,140046.00,3345.96003435,N,12019.66333509,W,2,13,0.9,7.518,M,-37.687,M,7.0,0135*61
$PYRTM,2024,122.583865851771,13.693513261910
$GNHDT,315.160,T*2B
$PYRTM,2024,122.583871580069,13.693518990208
$GNGGA,140046.50,3345.96038412,N,12019.66371001,W,2,13,0.9,7.834,M,-37.687,M,7.4,0135*65
$PYRTM,2024,122.583871580069,13.693518990208
$GNHDT,315.617,T*2C
$PYRTM,2024,122.583877425012,13.693524835150
$GNGGA,140047.00,3345.96077057,N,12019.66413097,W,2,13,0.9,7.818,M,-37.687,M,4.0,0135*6A
$PYRTM,2024,122.583877425012,13.693524835150
$GNHDT,315.926,T*21
$PYRTM,2024,122.583883160301,13.693530570440
$GNGGA,140047.50,3345.96118989,N,12019.66465043,W,2,13,0.9,7.427,M,-37.687,M,4.4,0135*61
$PYRTM,2024,122.583883160301,13.693530570440
$GNHDT,315.722,T*2B
$PYRTM,2024,122.583889008241,13.693536418380
$GNGGA,140048.00,3345.96162359,N,12019.66522245,W,2,13,0.9,6.815,M,-37.687,M,5.0,0135*6E
$PYRTM,2024,122.583889008241,13.693536418380
$GNHDT,315.813,T*26
$PYRTM,2024,122.583894725880,13.693542136019
$GNGGA,140048.50,3345.96206582,N,12019.66576727,W,2,13,0.9,6.198,M,-37.687,M,5.4,0135*62
$PYRTM,2024,122.583894725880,13.693542136019
$GNHDT,315.389,T*2E
$PYRTM,2024,122.583900569456,13.693547979606
$GNGGA,140049.00,3345.96246515,N,12019.66625992,W,2,13,0.9,5.872,M,-37.687,M,6.0,0135*60
$PYRTM,2024,122.583900569456,13.693547979606
$GNHDT,315.466,T*28
$PYRTM,2024,122.583906311759,13.693553721898
$GNGGA,140049.50,3345.96279263,N,12019.66669561,W,2,13,0.9,6.025,M,-37.687,M,6.4,0135*6A
$PYRTM,2024,122.583906311759,13.693553721898
$GNHDT,315.879,T*2A
$PYRTM,2024,122.583912151840,13.693559561991
$GNGGA,140050.00,3345.96308613,N,12019.66707030,W,2,13,0.9,6.533,M,-37.687,M,7.0,0135*6C
$PYRTM,2024,122.583912151840,13.693559561991
$GNHDT,316.302,T*2E
$PYRTM,2024,122.583917882118,13.693565292257
$GNGGA,140050.50,3345.96343503,N,12019.66737877,W,2,13,0.9,7.128,M,-37.687,M,7.4,0135*67
$PYRTM,2024,122.583917882118,13.693565292257
$GNHDT,316.871,T*21
$PYRTM,2024,122.583923726852,13.693571136991
$GNGGA,140051.00,3345.96387415,N,12019.66766717,W,2,13,0.9,7.635,M,-37.687,M,7.0,0135*6F
$PYRTM,2024,122.583923726852,13.693571136991
$GNHDT,317.337,T*29
$PYRTM,2024,122.583929453148,13.693576863287
$GNGGA,140051.50,3345.96438761,N,12019.66800073,W,2,13,0.9,7.882,M,-37.687,M,7.4,0135*65
$PYRTM,2024,122.583929453148,13.693576863287
$GNHDT,317.063,T*2B
$PYRTM,2024,122.583935300243,13.693582710382
$GNGGA,140052.00,3345.96492823,N,12019.66844810,W,2,13,0.9,7.762,M,-37.687,M,7.0,0135*62
$PYRTM,2024,122.583935300243,13.693582710382
$GNHDT,317.392,T*26
$PYRTM,2024,122.583941028831,13.693588438970
$GNGGA,140052.50,3345.96542577,N,12019.66900820,W,2,13,0.9,7.327,M,-37.687,M,7.4,0135*64
$PYRTM,2024,122.583941028831,13.693588438970
$GNHDT,317.229,T*27
$PYRTM,2024,122.583946878241,13.693594288380
$GNGGA,140053.00,3345.96583971,N,12019.66966390,W,2,13,0.9,6.751,M,-37.687,M,4.0,0135*64
$PYRTM,2024,122.583946878241,13.693594288380
$GNHDT,316.961,T*21
$PYRTM,2024,122.583952596030,13.693600006169
$GNGGA,140053.50,3345.96618783,N,12019.67032962,W,2,13,0.9,6.258,M,-37.687,M,4.4,0135*65
$PYRTM,2024,122.583952596030,13.693600006169
$GNHDT,316.490,T*22
$PYRTM,2024,122.583958444988,13.693605855127
$GNGGA,140054.00,3345.96651081,N,12019.67089753,W,2,13,0.9,5.999,M,-37.687,M,5.0,0135*63
$PYRTM,2024,122.583958444988,13.693605855127
$GNHDT,316.565,T*29
$PYRTM,2024,122.583964182431,13.693611592569
$GNGGA,140054.50,3345.96683796,N,12019.67128396,W,2,13,0.9,6.089,M,-37.687,M,5.4,0135*60
$PYRTM,2024,122.583964182431,13.693611592569
$GNHDT,317.550,T*2E
$PYRTM,2024,122.583970019722,13.693617429861
$GNGGA,140055.00,3345.96719299,N,12019.67150742,W,2,13,0.9,6.506,M,-37.687,M,6.0,0135*6B
$PYRTM,2024,122.583970019722,13.693617429861
$GNHDT,318.250,T*26
$PYRTM,2024,122.583975750313,13.693623160451
$GNGGA,140055.50,3345.96759150,N,12019.67166078,W,2,13,0.9,7.026,M,-37.687,M,6.4,0135*65
$PYRTM,2024,122.583975750313,13.693623160451
$GNHDT,318.544,T*24
$PYRTM,2024,122.583981595255,13.693629005405
$GNGGA,140056.00,3345.96804408,N,12019.67183938,W,2,13,0.9,7.443,M,-37.687,M,7.0,0135*68
$PYRTM,2024,122.583981595255,13.693629005405
$GNHDT,318.596,T*2B
$PYRTM,2024,122.583987318831,13.693634728970
$GNGGA,140056.50,3345.96854139,N,12019.67214158,W,2,13,0.9,7.560,M,-37.687,M,7.4,0135*68
$PYRTM,2024,122.583987318831,13.693634728970
$GNHDT,318.533,T*24
$PYRTM,2024,122.583993171655,13.693640581794
$GNGGA,140057.00,3345.96903164,N,12019.67259552,W,2,13,0.9,7.330,M,-37.687,M,7.0,0135*67
$PYRTM,2024,122.583993171655,13.693640581794
$GNHDT,318.632,T*26
$PYRTM,2024,122.583998899525,13.693646309676
$GNGGA,140057.50,3345.96945814,N,12019.67314736,W,2,13,0.9,6.878,M,-37.687,M,7.4,0135*64
$PYRTM,2024,122.583998899525,13.693646309676
$GNHDT,318.237,T*27
$PYRTM,2024,122.584004743924,13.693652154062
$GNGGA,140058.00,3345.96980352,N,12019.67376007,W,2,13,0.9,6.391,M,-37.687,M,7.0,0135*67
$PYRTM,2024,122.584004743924,13.693652154062
$GNHDT,318.353,T*24
$PYRTM,2024,122.584010466933,13.693657877072
$GNGGA,140058.50,3345.97009321,N,12019.67436890,W,2,13,0.9,6.062,M,-37.687,M,7.4,0135*61
$PYRTM,2024,122.584010466933,13.693657877072
$GNHDT,318.637,T*23
$PYRTM,2024,122.584016315787,13.693663725926
$GNGGA,140059.00,3345.97037506,N,12019.67490182,W,2,13,0.9,5.993,M,-37.687,M,4.0,0135*6E
$PYRTM,2024,122.584016315787,13.693663725926
$GNHDT,318.668,T*29
$PYRTM,2024,122.584022039479,13.693669449618
$GNGGA,140059.50,3345.97069813,N,12019.67531857,W,2,13,0.9,6.133,M,-37.687,M,4.4,0135*67
$PYRTM,2024,122.584022039479,13.693669449618
$GNHDT,319.252,T*25
$PYRTM,2024,122.584027895035,13.693675305174
$GNGGA,140100.00,3345.97107685,N,12019.67564533,W,2,13,0.9,6.405,M,-37.687,M,5.0,0135*6D
$PYRTM,2024,122.584027895035,13.693675305174
$GNHDT,319.371,T*25
$PYRTM,2024,122.584033618021,13.693681028160
$GNGGA,140100.50,3345.97150946,N,12019.67594373,W,2,13,0.9,6.666,M,-37.687,M,5.4,0135*64
$PYRTM,2024,122.584033618021,13.693681028160
$GNHDT,319.146,T*23
$PYRTM,2024,122.584039464468,13.693686874618
$GNGGA,140101.00,3345.97197370,N,12019.67625328,W,2,13,0.9,6.839,M,-37.687,M,6.0,0135*60
$PYRTM,2024,122.584039464468,13.693686874618
$GNHDT,319.374,T*20
$PYRTM,2024,122.584045191968,13.693692602106
$GNGGA,140101.50,3345.97245325,N,12019.67661764,W,2,13,0.9,6.867,M,-37.687,M,6.4,0135*6A
$PYRTM,2024,122.584045191968,13.693692602106
$GNHDT,319.603,T*25
$PYRTM,2024,122.584051038530,13.693698448669
$GNGGA,140102.00,3345.97295181,N,12019.67705374,W,2,13,0.9,6.733,M,-37.687,M,7.0,0135*60
$PYRTM,2024,122.584051038530,13.693698448669
$GNHDT,319.889,T*29
$PYRTM,2024,122.584056761829,13.693704171968
$GNGGA,140102.50,3345.97345103,N,12019.67754220,W,2,13,0.9,6.554,M,-37.687,M,7.4,0135*60
$PYRTM,2024,122.584056761829,13.693704171968
$GNHDT,319.941,T*2C
$PYRTM,2024,122.584062618183,13.693710028322
$GNGGA,140103.00,3345.97391912,N,12019.67804124,W,2,13,0.9,6.475,M,-37.687,M,7.0,0135*6E
$PYRTM,2024,122.584062618183,13.693710028322
$GNHDT,319.728,T*2D
$PYRTM,2024,122.584068337454,13.693715747593
$GNGGA,140103.50,3345.97433528,N,12019.67849580,W,2,13,0.9,6.596,M,-37.687,M,7.4,0135*6A
$PYRTM,2024,122.584068337454,13.693715747593
$GNHDT,319.597,T*2B
$PYRTM,2024,122.584074189606,13.693721599745
$GNGGA,140104.00,3345.97469995,N,12019.67889606,W,2,13,0.9,6.936,M,-37.687,M,7.0,0135*6E
$PYRTM,2024,122.584074189606,13.693721599745
$GNHDT,319.787,T*28
$PYRTM,2024,122.584079915579,13.693727325718
$GNGGA,140104.50,3345.97504052,N,12019.67924762,W,2,13,0.9,7.337,M,-37.687,M,7.4,0135*68
$PYRTM,2024,122.584079915579,13.693727325718
$GNHDT,320.144,T*2B
$PYRTM,2024,122.584085760197,13.693733170336
$GNGGA,140105.00,3345.97537081,N,12019.67958115,W,2,13,0.9,7.697,M,-37.687,M,4.0,0135*67
$PYRTM,2024,122.584085760197,13.693733170336
$GNHDT,320.398,T*28
$PYRTM,2024,122.584091486701,13.693738896840
$GNGGA,140105.50,3345.97571878,N,12019.67994193,W,2,13,0.9,7.878,M,-37.687,M,4.4,0135*6B
$PYRTM,2024,122.584091486701,13.693738896840
$GNHDT,320.549,T*22
$PYRTM,2024,122.584097330856,13.693744740995
$GNGGA,140106.00,3345.97609020,N,12019.68034509,W,2,13,0.9,7.838,M,-37.687,M,5.0,0135*6E
$PYRTM,2024,122.584097330856,13.693744740995
$GNHDT,320.418,T*27
$PYRTM,2024,122.584103059155,13.693750469294
$GNGGA,140106.50,3345.97649370,N,12019.68078484,W,2,13,0.9,7.594,M,-37.687,M,5.4,0135*6A
$PYRTM,2024,122.584103059155,13.693750469294
$GNHDT,319.908,T*21
$PYRTM,2024,122.584108903391,13.693756313519
$GNGGA,140107.00,3345.97692269,N,12019.68124581,W,2,13,0.9,7.196,M,-37.687,M,6.0,0135*6C
$PYRTM,2024,122.584108903391,13.693756313519
$GNHDT,319.877,T*28
$PYRTM,2024,122.584114637153,13.693762047292
$GNGGA,140107.50,3345.97736773,N,12019.68170319,W,2,13,0.9,6.743,M,-37.687,M,6.4,0135*65
$PYRTM,2024,122.584114637153,13.693762047292
$GNHDT,319.817,T*2E
$PYRTM,2024,122.584120484954,13.693767895093
$GNGGA,140108.00,3345.97782363,N,12019.68212075,W,2,13,0.9,6.378,M,-37.687,M,7.0,0135*62
$PYRTM,2024,122.584120484954,13.693767895093
$GNHDT,319.879,T*26
$PYRTM,2024,122.584126206713,13.693773616852
$GNGGA,140108.50,3345.97828659,N,12019.68250328,W,2,13,0.9,6.162,M,-37.687,M,7.4,0135*64
$PYRTM,2024,122.584126206713,13.693773616852
$GNHDT,319.808,T*20
$PYRTM,2024,122.584132059282,13.693779469433
$GNGGA,140109.00,3345.97874360,N,12019.68287134,W,2,13,0.9,6.170,M,-37.687,M,7.0,0135*64
$PYRTM,2024,122.584132059282,13.693779469433
$GNHDT,320.080,T*22
$PYRTM,2024,122.584137785637,13.693785195775
$GNGGA,140109.50,3345.97917966,N,12019.68327991,W,2,13,0.9,6.325,M,-37.687,M,7.4,0135*63
$PYRTM,2024,122.584137785637,13.693785195775
$GNHDT,319.856,T*2B
$PYRTM,2024,122.584143631516,13.693791041655
$GNGGA,140110.00,3345.97960684,N,12019.68374285,W,2,13,0.9,6.544,M,-37.687,M,7.0,0135*60
$PYRTM,2024,122.584143631516,13.693791041655
$GNHDT,320.059,T*26
$PYRTM,2024,122.584149359062,13.693796769213
$GNGGA,140110.50,3345.98004126,N,12019.68424446,W,2,13,0.9,6.720,M,-37.687,M,7.4,0135*61
$PYRTM,2024,122.584149359062,13.693796769213
$GNHDT,320.109,T*22
$PYRTM,2024,122.584155202743,13.693802612882
$GNGGA,140111.00,3345.98047883,N,12019.68476244,W,2,13,0.9,6.873,M,-37.687,M,4.0,0135*69
$PYRTM,2024,122.584155202743,13.693802612882
$GNHDT,320.137,T*2F
$PYRTM,2024,122.584160933681,13.693808343819
$GNGGA,140111.50,3345.98091988,N,12019.68525934,W,2,13,0.9,7.004,M,-37.687,M,4.4,0135*6B
$PYRTM,2024,122.584160933681,13.693808343819
$GNHDT,320.100,T*2B
$PYRTM,2024,122.584166781100,13.693814191250
$GNGGA,140112.00,3345.98138246,N,12019.68571822,W,2,13,0.9,7.126,M,-37.687,M,5.0,0135*65
$PYRTM,2024,122.584166781100,13.693814191250
$GNHDT,320.255,T*28
$PYRTM,2024,122.584172504641,13.693819914780
$GNGGA,140112.50,3345.98189022,N,12019.68613479,W,2,13,0.9,7.197,M,-37.687,M,5.4,0135*61
$PYRTM,2024,122.584172504641,13.693819914780
$GNHDT,320.320,T*2B
$PYRTM,2024,122.584178352801,13.693825762940
$GNGGA,140113.00,3345.98242440,N,12019.68651275,W,2,13,0.9,7.252,M,-37.687,M,6.0,0135*60
$PYRTM,2024,122.584178352801,13.693825762940
$GNHDT,320.089,T*2B
$PYRTM,2024,122.584184086238,13.693831496377
$GNGGA,140113.50,3345.98294511,N,12019.68684401,W,2,13,0.9,7.322,M,-37.687,M,6.4,0135*64
$PYRTM,2024,122.584184086238,13.693831496377
$GNHDT,319.886,T*26
$PYRTM,2024,122.584189926979,13.693837337118
$GNGGA,140114.00,3345.98340903,N,12019.68715323,W,2,13,0.9,7.482,M,-37.687,M,7.0,0135*67
$PYRTM,2024,122.584189926979,13.693837337118
$GNHDT,319.859,T*24
$PYRTM,2024,122.584195654225,13.693843064375
$GNGGA,140114.50,3345.98379191,N,12019.68748305,W,2,13,0.9,7.722,M,-37.687,M,7.4,0135*6A
$PYRTM,2024,122.584195654225,13.693843064375
$GNHDT,319.754,T*26
$PYRTM,2024,122.584201503079,13.693848913218
$GNGGA,140115.00,3345.98409988,N,12019.68786393,W,2,13,0.9,8.007,M,-37.687,M,7.0,0135*68
$PYRTM,2024,122.584201503079,13.693848913218
$GNHDT,319.688,T*26
$PYRTM,2024,122.584207228785,13.693854638924
$GNGGA,140115.50,3345.98437996,N,12019.68829534,W,2,13,0.9,8.216,M,-37.687,M,7.4,0135*68
$PYRTM,2024,122.584207228785,13.693854638924
$GNHDT,319.724,T*21
$PYRTM,2024,122.584213076574,13.693860486713
$GNGGA,140116.00,3345.98467244,N,12019.68878015,W,2,13,0.9,8.252,M,-37.687,M,7.0,0135*69
$PYRTM,2024,122.584213076574,13.693860486713
$GNHDT,319.680,T*2E
$PYRTM,2024,122.584218809433,13.693866219572
$GNGGA,140116.50,3345.98503098,N,12019.68930037,W,2,13,0.9,7.984,M,-37.687,M,7.4,0135*6A
$PYRTM,2024,122.584218809433,13.693866219572
$GNHDT,319.635,T*20
$PYRTM,2024,122.584224648947,13.693872059086
$GNGGA,140117.00,3345.98548199,N,12019.68981369,W,2,13,0.9,7.435,M,-37.687,M,4.0,0135*63
$PYRTM,2024,122.584224648947,13.693872059086
$GNHDT,319.696,T*29
$PYRTM,2024,122.584230376296,13.693877786435
$GNGGA,140117.50,3345.98599439,N,12019.69029240,W,2,13,0.9,6.767,M,-37.687,M,4.4,0135*64
$PYRTM,2024,122.584230376296,13.693877786435
$GNHDT,319.763,T*22
$PYRTM,2024,122.584236221285,13.693883631424
$GNGGA,140118.00,3345.98652865,N,12019.69072383,W,2,13,0.9,6.129,M,-37.687,M,5.0,0135*66
$PYRTM,2024,122.584236221285,13.693883631424
$GNHDT,319.727,T*22
$PYRTM,2024,122.584241956597,13.693889366736
$GNGGA,140118.50,3345.98705382,N,12019.69114303,W,2,13,0.9,5.675,M,-37.687,M,5.4,0135*62
$PYRTM,2024,122.584241956597,13.693889366736
$GNHDT,319.288,T*22
$PYRTM,2024,122.584247801979,13.693895212118
$GNGGA,140119.00,3345.98752820,N,12019.69159160,W,2,13,0.9,5.565,M,-37.687,M,6.0,0135*6C
$PYRTM,2024,122.584247801979,13.693895212118
$GNHDT,318.714,T*23
$PYRTM,2024,122.584253529387,13.693900939525
$GNGGA,140119.50,3345.98793638,N,12019.69208280,W,2,13,0.9,5.759,M,-37.687,M,6.4,0135*60
$PYRTM,2024,122.584253529387,13.693900939525
$GNHDT,318.015,T*25
$PYRTM,2024,122.584259377141,13.693906787280
$GNGGA,140120.00,3345.98829578,N,12019.69258452,W,2,13,0.9,6.175,M,-37.687,M,7.0,0135*64
$PYRTM,2024,122.584259377141,13.693906787280
$GNHDT,317.836,T*23
$PYRTM,2024,122.584265096863,13.693912507014
$GNGGA,140120.50,3345.98864264,N,12019.69309498,W,2,13,0.9,6.684,M,-37.687,M,7.4,0135*6C
$PYRTM,2024,122.584265096863,13.693912507014
$GNHDT,318.339,T*28
$PYRTM,2024,122.584270948484,13.693918358623
$GNGGA,140121.00,3345.98901574,N,12019.69360604,W,2,13,0.9,7.162,M,-37.687,M,7.0,0135*6E
$PYRTM,2024,122.584270948484,13.693918358623
$GNHDT,318.551,T*20
$PYRTM,2024,122.584276674919,13.693924085058
$GNGGA,140121.50,3345.98945178,N,12019.69411471,W,2,13,0.9,7.469,M,-37.687,M,7.4,0135*68
$PYRTM,2024,122.584276674919,13.693924085058
$GNHDT,318.782,T*2C
$PYRTM,2024,122.584282516644,13.693929926782
$GNGGA,140122.00,3345.98994422,N,12019.69460924,W,2,13,0.9,7.564,M,-37.687,M,7.0,0135*6B
$PYRTM,2024,122.584282516644,13.693929926782
$GNHDT,318.741,T*23
$PYRTM,2024,122.584288250660,13.693935660799
$GNGGA,140122.50,3345.99045735,N,12019.69506303,W,2,13,0.9,7.476,M,-37.687,M,7.4,0135*67
$PYRTM,2024,122.584288250660,13.693935660799
$GNHDT,318.860,T*2F
$PYRTM,2024,122.584294098356,13.693941508495
$GNGGA,140123.00,3345.99095052,N,12019.69546534,W,2,13,0.9,7.306,M,-37.687,M,4.0,0135*69
$PYRTM,2024,122.584294098356,13.693941508495
$GNHDT,318.876,T*28
$PYRTM,2024,122.584299824005,13.693947234144
$GNGGA,140123.50,3345.99139332,N,12019.69582704,W,2,13,0.9,7.230,M,-37.687,M,4.4,0135*67
$PYRTM,2024,122.584299824005,13.693947234144
$GNHDT,318.580,T*2C
$PYRTM,2024,122.584305668310,13.693953078449
$GNGGA,140124.00,3345.99177400,N,12019.69617840,W,2,13,0.9,7.326,M,-37.687,M,5.0,0135*6A
$PYRTM,2024,122.584305668310,13.693953078449
$GNHDT,318.406,T*23
$PYRTM,2024,122.584311399630,13.693958809769
$GNGGA,140124.50,3345.99211256,N,12019.69655619,W,2,13,0.9,7.549,M,-37.687,M,5.4,0135*66
$PYRTM,2024,122.584311399630,13.693958809769
$GNHDT,318.291,T*2B
$PYRTM,2024,122.584317243981,13.693964654120
$GNGGA,140125.00,3345.99244883,N,12019.69696937,W,2,13,0.9,7.823,M,-37.687,M,6.0,0135*6A
$PYRTM,2024,122.584317243981,13.693964654120
$GNHDT,318.084,T*2D
$PYRTM,2024,122.584322971852,13.693970381991
$GNGGA,140125.50,3345.99281146,N,12019.69741826,W,2,13,0.9,7.997,M,-37.687,M,6.4,0135*66
$PYRTM,2024,122.584322971852,13.693970381991
$GNHDT,318.077,T*21
$PYRTM,2024,122.584328815926,13.693976226065
$GNGGA,140126.00,3345.99321739,N,12019.69789245,W,2,13,0.9,8.019,M,-37.687,M,7.0,0135*6B
$PYRTM,2024,122.584328815926,13.693976226065
$GNHDT,318.025,T*26
$PYRTM,2024,122.584334542801,13.693981952940
$GNGGA,140126.50,3345.99364683,N,12019.69835351,W,2,13,0.9,7.937,M,-37.687,M,7.4,0135*6D
$PYRTM,2024,122.584334542801,13.693981952940
$GNHDT,318.125,T*27
$PYRTM,2024,122.584340394977,13.693987805116
$GNGGA,140127.00,3345.99408395,N,12019.69877295,W,2,13,0.9,7.803,M,-37.687,M,7.0,0135*6B
$PYRTM,2024,122.584340394977,13.693987805116
$GNHDT,318.348,T*2E
$PYRTM,2024,122.584346122708,13.693993532847
$GNGGA,140127.50,3345.99452178,N,12019.69915290,W,2,13,0.9,7.651,M,-37.687,M,7.4,0135*6D
$PYRTM,2024,122.584346122708,13.693993532847
$GNHDT,318.419,T*2D
$PYRTM,2024,122.584351963241,13.693999373380
$GNGGA,140128.00,3345.99497010,N,12019.69952902,W,2,13,0.9,7.449,M,-37.687,M,7.0,0135*6D
$PYRTM,2024,122.584351963241,13.693999373380
$GNHDT,318.269,T*2C
$PYRTM,2024,122.584357690150,13.694005100289
$GNGGA,140128.50,3345.99543135,N,12019.69994792,W,2,13,0.9,7.184,M,-37.687,M,7.4,0135*6B
$PYRTM,2024,122.584357690150,13.694005100289
$GNHDT,318.204,T*27
$PYRTM,2024,122.584363537894,13.694010948032
$GNGGA,140129.00,3345.99590154,N,12019.70042114,W,2,13,0.9,6.870,M,-37.687,M,4.0,0135*60
$PYRTM,2024,122.584363537894,13.694010948032
$GNHDT,317.980,T*2F
$PYRTM,2024,122.584369269861,13.694016680000
$GNGGA,140129.50,3345.99636413,N,12019.70094812,W,2,13,0.9,6.577,M,-37.687,M,4.4,0135*66
$PYRTM,2024,122.584369269861,13.694016680000
$GNHDT,317.944,T*27
$PYRTM,2024,122.584375114028,13.694022524167
$GNGGA,140130.00,3345.99681279,N,12019.70151349,W,2,13,0.9,6.352,M,-37.687,M,5.0,0135*64
$PYRTM,2024,122.584375114028,13.694022524167
$GNHDT,317.853,T*20
$PYRTM,2024,122.584380845162,13.694028255301
$GNGGA,140130.50,3345.99724301,N,12019.70210082,W,2,13,0.9,6.258,M,-37.687,M,5.4,0135*6C
$PYRTM,2024,122.584380845162,13.694028255301
$GNHDT,318.206,T*25
$PYRTM,2024,122.584386694282,13.694034104421
$GNGGA,140131.00,3345.99766114,N,12019.70266504,W,2,13,0.9,6.337,M,-37.687,M,6.0,0135*6D
$PYRTM,2024,122.584386694282,13.694034104421
$GNHDT,318.399,T*22
$PYRTM,2024,122.584392417222,13.694039827361
$GNGGA,140131.50,3345.99808367,N,12019.70316275,W,2,13,0.9,6.534,M,-37.687,M,6.4,0135*6F
$PYRTM,2024,122.584392417222,13.694039827361
$GNHDT,318.480,T*2D
$PYRTM,2024,122.584398268831,13.694045678970
$GNGGA,140132.00,3345.99852041,N,12019.70360214,W,2,13,0.9,6.851,M,-37.687,M,7.0,0135*6C
$PYRTM,2024,122.584398268831,13.694045678970
$GNHDT,318.677,T*27
$PYRTM,2024,122.584403989062,13.694051399201
$GNGGA,140132.50,3345.99898661,N,12019.70402083,W,2,13,0.9,7.140,M,-37.687,M,7.4,0135*68
$PYRTM,2024,122.584403989062,13.694051399201
$GNHDT,318.942,T*2E
$PYRTM,2024,122.584409835845,13.694057245984
$GNGGA,140133.00,3345.99948645,N,12019.70447578,W,2,13,0.9,7.282,M,-37.687,M,7.0,0135*6F
$PYRTM,2024,122.584409835845,13.694057245984
$GNHDT,318.768,T*28
$PYRTM,2024,122.584415566852,13.694062976991
$GNGGA,140133.50,3346.00000578,N,12019.70497171,W,2,13,0.9,7.278,M,-37.687,M,7.4,0135*60
$PYRTM,2024,122.584415566852,13.694062976991
$GNHDT,318.551,T*20
$PYRTM,2024,122.584421403576,13.694068813715
$GNGGA,140134.00,3346.00048212,N,12019.70548738,W,2,13,0.9,7.203,M,-37.687,M,7.0,0135*65
$PYRTM,2024,122.584421403576,13.694068813715
$GNHDT,318.351,T*26
$PYRTM,2024,122.584427135845,13.694074545984
$GNGGA,140134.50,3346.00087018,N,12019.70596977,W,2,13,0.9,7.268,M,-37.687,M,7.4,0135*64
$PYRTM,2024,122.584427135845,13.694074545984
$GNHDT,318.736,T*23
$PYRTM,2024,122.584432980324,13.694080390463
$GNGGA,140135.00,3346.00116339,N,12019.70639394,W,2,13,0.9,7.515,M,-37.687,M,4.0,0135*62
$PYRTM,2024,122.584432980324,13.694080390463
$GNHDT,318.990,T*21
$PYRTM,2024,122.584438712870,13.694086123009
$GNGGA,140135.50,3346.00143259,N,12019.70674864,W,2,13,0.9,7.838,M,-37.687,M,4.4,0135*6B
$PYRTM,2024,122.584438712870,13.694086123009
$GNHDT,319.604,T*22
$PYRTM,2024,122.584444554225,13.694091964363
$GNGGA,140136.00,3346.00174006,N,12019.70706675,W,2,13,0.9,8.073,M,-37.687,M,5.0,0135*66
$PYRTM,2024,122.584444554225,13.694091964363
$GNHDT,320.004,T*2E
$PYRTM,2024,122.584450284294,13.694097694433
$GNGGA,140136.50,3346.00214718,N,12019.70739227,W,2,13,0.9,8.005,M,-37.687,M,5.4,0135*64
$PYRTM,2024,122.584450284294,13.694097694433
$GNHDT,320.268,T*26
$PYRTM,2024,122.584456130162,13.694103540301
$GNGGA,140137.00,3346.00262210,N,12019.70776500,W,2,13,0.9,7.672,M,-37.687,M,6.0,0135*6B
$PYRTM,2024,122.584456130162,13.694103540301
$GNHDT,320.124,T*2D
$PYRTM,2024,122.584461860972,13.694109271111
$GNGGA,140137.50,3346.00311046,N,12019.70818741,W,2,13,0.9,7.123,M,-37.687,M,6.4,0135*6D
$PYRTM,2024,122.584461860972,13.694109271111
$GNHDT,320.000,T*2A
$PYRTM,2024,122.584467705208,13.694115115347
$GNGGA,140138.00,3346.00355986,N,12019.70866313,W,2,13,0.9,6.572,M,-37.687,M,7.0,0135*6C
$PYRTM,2024,122.584467705208,13.694115115347
$GNHDT,319.910,T*28
$PYRTM,2024,122.584473429630,13.694120839769
$GNGGA,140138.50,3346.00397328,N,12019.70919522,W,2,13,0.9,6.125,M,-37.687,M,7.4,0135*66
$PYRTM,2024,122.584473429630,13.694120839769
$GNHDT,320.001,T*2B
$PYRTM,2024,122.584479276632,13.694126686771
$GNGGA,140139.00,3346.00437704,N,12019.70976460,W,2,13,0.9,5.877,M,-37.687,M,7.0,0135*62
$PYRTM,2024,122.584479276632,13.694126686771
$GNHDT,319.983,T*22
$PYRTM,2024,122.584485009456,13.694132419606
$GNGGA,140139.50,3346.00480261,N,12019.71035059,W,2,13,0.9,5.802,M,-37.687,M,7.4,0135*6A
$PYRTM,2024,122.584485009456,13.694132419606
$GNHDT,319.949,T*24
$PYRTM,2024,122.584490852697,13.694138262836
$GNGGA,140140.00,3346.00525277,N,12019.71094391,W,2,13,0.9,5.954,M,-37.687,M,7.0,0135*62
$PYRTM,2024,122.584490852697,13.694138262836
$GNHDT,319.707,T*20
$PYRTM,2024,122.584496581875,13.694143992014
$GNGGA,140140.50,3346.00571887,N,12019.71149444,W,2,13,0.9,6.315,M,-37.687,M,7.4,0135*65
$PYRTM,2024,122.584496581875,13.694143992014
$GNHDT,319.587,T*2A
$PYRTM,2024,122.584502431238,13.694149841377
$GNGGA,140141.00,3346.00618594,N,12019.71195069,W,2,13,0.9,6.894,M,-37.688,M,4.0,0135*62
$PYRTM,2024,122.584502431238,13.694149841377
$GNHDT,319.774,T*24
$PYRTM,2024,122.584508160567,13.694155570706
$GNGGA,140141.50,3346.00665500,N,12019.71232259,W,2,13,0.9,7.522,M,-37.688,M,4.4,0135*6A
$PYRTM,2024,122.584508160567,13.694155570706
$GNHDT,320.312,T*2A
$PYRTM,2024,122.584514003507,13.694161413646
$GNGGA,140142.00,3346.00712814,N,12019.71264365,W,2,13,0.9,8.113,M,-37.688,M,5.0,0135*64
$PYRTM,2024,122.584514003507,13.694161413646
$GNHDT,320.799,T*2D
$PYRTM,2024,122.584519735093,13.694167145231
$GNGGA,140142.50,3346.00762728,N,12019.71297893,W,2,13,0.9,8.460,M,-37.688,M,5.4,0135*6D
$PYRTM,2024,122.584519735093,13.694167145231
$GNHDT,320.917,T*25
$PYRTM,2024,122.584525580868,13.694172991007
$GNGGA,140143.00,3346.00815503,N,12019.71338113,W,2,13,0.9,8.499,M,-37.688,M,6.0,0135*69
$PYRTM,2024,122.584525580868,13.694172991007
$GNHDT,321.261,T*2E
$PYRTM,2024,122.584531304271,13.694178714410
$GNGGA,140143.50,3346.00867914,N,12019.71384251,W,2,13,0.9,8.253,M,-37.688,M,6.4,0135*65
$PYRTM,2024,122.584531304271,13.694178714410
$GNHDT,321.351,T*2C
$PYRTM,2024,122.584537146516,13.694184556655
$GNGGA,140144.00,3346.00916365,N,12019.71433267,W,2,13,0.9,7.933,M,-37.688,M,7.0,0135*65
$PYRTM,2024,122.584537146516,13.694184556655
$GNHDT,321.127,T*2F
$PYRTM,2024,122.584542876863,13.694190287002
$GNGGA,140144.50,3346.00957172,N,12019.71480700,W,2,13,0.9,7.677,M,-37.688,M,7.4,0135*66
$PYRTM,2024,122.584542876863,13.694190287002
$GNHDT,321.163,T*2F
$PYRTM,2024,122.584548720509,13.694196130648
$GNGGA,140145.00,3346.00990476,N,12019.71523143,W,2,13,0.9,7.608,M,-37.688,M,7.0,0135*6D
$PYRTM,2024,122.584548720509,13.694196130648
$GNHDT,321.139,T*20
$PYRTM,2024,122.584554456331,13.694201866470
$GNGGA,140145.50,3346.01022617,N,12019.71560418,W,2,13,0.9,7.684,M,-37.688,M,7.4,0135*60
$PYRTM,2024,122.584554456331,13.694201866470
$GNHDT,321.134,T*2D
$PYRTM,2024,122.584560300012,13.694207710150
$GNGGA,140146.00,3346.01059043,N,12019.71593684,W,2,13,0.9,7.769,M,-37.688,M,7.0,0135*60
$PYRTM,2024,122.584560300012,13.694207710150
$GNHDT,321.533,T*2E
$PYRTM,2024,122.584566023264,13.694213433403
$GNGGA,140146.50,3346.01104980,N,12019.71626282,W,2,13,0.9,7.678,M,-37.688,M,7.4,0135*60
$PYRTM,2024,122.584566023264,13.694213433403
$GNHDT,321.596,T*21
$PYRTM,2024,122.584571874051,13.694219284190
$GNGGA,140147.00,3346.01159850,N,12019.71661486,W,2,13,0.9,7.383,M,-37.688,M,4.0,0135*67
$PYRTM,2024,122.584571874051,13.694219284190
$GNHDT,321.589,T*2F
$PYRTM,2024,122.584577597847,13.694225007986
$GNGGA,140147.50,3346.01219708,N,12019.71700997,W,2,13,0.9,6.924,M,-37.688,M,4.4,0135*6E
$PYRTM,2024,122.584577597847,13.694225007986
$GNHDT,321.628,T*27
$PYRTM,2024,122.584583442616,13.694230852755
$GNGGA,140148.00,3346.01278483,N,12019.71744837,W,2,13,0.9,6.466,M,-37.688,M,5.0,0135*66
$PYRTM,2024,122.584583442616,13.694230852755
$GNHDT,321.710,T*2D
$PYRTM,2024,122.584589174931,13.694236585069
$GNGGA,140148.50,3346.01329137,N,12019.71792315,W,2,13,0.9,6.234,M,-37.688,M,5.4,0135*69
$PYRTM,2024,122.584589174931,13.694236585069
$GNHDT,321.630,T*2E
$PYRTM,2024,122.584595021354,13.694242431505
$GNGGA,140149.00,3346.01371099,N,12019.71840221,W,2,13,0.9,6.316,M,-37.688,M,6.0,0135*65
$PYRTM,2024,122.584595021354,13.694242431505
$GNHDT,321.638,T*26
$PYRTM,2024,122.584600749965,13.694248160104
$GNGGA,140149.50,3346.01407355,N,12019.71887645,W,2,13,0.9,6.632,M,-37.688,M,6.4,0135*6F
$PYRTM,2024,122.584600749965,13.694248160104
$GNHDT,321.771,T*2A
$PYRTM,2024,122.584606595440,13.694254005579
$GNGGA,140150.00,3346.01443664,N,12019.71936150,W,2,13,0.9,7.041,M,-37.688,M,7.0,0135*6B
$PYRTM,2024,122.584606595440,13.694254005579
$GNHDT,321.800,T*23
$PYRTM,2024,122.584612321551,13.694259731690
$GNGGA,140150.50,3346.01485755,N,12019.71989823,W,2,13,0.9,7.311,M,-37.688,M,7.4,0135*6C
$PYRTM,2024,122.584612321551,13.694259731690
$GNHDT,322.056,T*2B
$PYRTM,2024,122.584618165544,13.694265575683
$GNGGA,140151.00,3346.01534535,N,12019.72047868,W,2,13,0.9,7.335,M,-37.688,M,7.0,0135*62
$PYRTM,2024,122.584618165544,13.694265575683
$GNHDT,321.871,T*25
$PYRTM,2024,122.584623894236,13.694271304375
$GNGGA,140151.50,3346.01585173,N,12019.72102102,W,2,13,0.9,7.259,M,-37.688,M,7.4,0135*61
$PYRTM,2024,122.584623894236,13.694271304375
$GNHDT,322.042,T*2E
$PYRTM,2024,122.584629743484,13.694277153623
$GNGGA,140152.00,3346.01633763,N,12019.72145704,W,2,13,0.9,7.223,M,-37.688,M,7.0,0135*64
$PYRTM,2024,122.584629743484,13.694277153623
$GNHDT,321.903,T*21
$PYRTM,2024,122.584635474931,13.694282885069
$GNGGA,140152.50,3346.01676525,N,12019.72175058,W,2,13,0.9,7.353,M,-37.688,M,7.4,0135*6F
$PYRTM,2024,122.584635474931,13.694282885069
$GNHDT,322.384,T*27
$PYRTM,2024,122.584641316076,13.694288726215
$GNGGA,140153.00,3346.01715579,N,12019.72193852,W,2,13,0.9,7.675,M,-37.688,M,4.0,0135*6A
$PYRTM,2024,122.584641316076,13.694288726215
$GNHDT,323.132,T*29
$PYRTM,2024,122.584647045694,13.694294455833
$GNGGA,140153.50,3346.01754546,N,12019.72211025,W,2,13,0.9,8.011,M,-37.688,M,4.4,0135*68
$PYRTM,2024,122.584647045694,13.694294455833
$GNHDT,323.720,T*2C
$PYRTM,2024,122.584652886644,13.694300296782
$GNGGA,140154.00,3346.01800103,N,12019.72234557,W,2,13,0.9,8.125,M,-37.688,M,5.0,0135*65
$PYRTM,2024,122.584652886644,13.694300296782
$GNHDT,323.968,T*2E
$PYRTM,2024,122.584658617442,13.694306027581
$GNGGA,140154.50,3346.01853643,N,12019.72271042,W,2,13,0.9,7.823,M,-37.688,M,5.4,0135*61
$PYRTM,2024,122.584658617442,13.694306027581
$GNHDT,324.095,T*22
$PYRTM,2024,122.584664468438,13.694311878576
$GNGGA,140155.00,3346.01909245,N,12019.72315965,W,2,13,0.9,7.295,M,-37.688,M,6.0,0135*66
$PYRTM,2024,122.584664468438,13.694311878576
$GNHDT,324.029,T*25
$PYRTM,2024,122.584670189282,13.694317599421
$GNGGA,140155.50,3346.01960126,N,12019.72362540,W,2,13,0.9,6.802,M,-37.688,M,6.4,0135*60
$PYRTM,2024,122.584670189282,13.694317599421
$GNHDT,323.846,T*23
$PYRTM,2024,122.584676035822,13.694323445972
$GNGGA,140156.00,3346.02002921,N,12019.72406088,W,2,13,0.9,6.567,M,-37.688,M,7.0,0135*68
$PYRTM,2024,122.584676035822,13.694323445972
$GNHDT,324.041,T*2B
$PYRTM,2024,122.584681768565,13.694329178704
$GNGGA,140156.50,3346.02039679,N,12019.72445205,W,2,13,0.9,6.636,M,-37.688,M,7.4,0135*64
$PYRTM,2024,122.584681768565,13.694329178704
$GNHDT,323.925,T*27
$PYRTM,2024,122.584687609931,13.694335020069
$GNGGA,140157.00,3346.02075171,N,12019.72481547,W,2,13,0.9,6.898,M,-37.688,M,7.0,0135*60
$PYRTM,2024,122.584687609931,13.694335020069
$GNHDT,323.672,T*2A
$PYRTM,2024,122.584693337894,13.694340748032
$GNGGA,140157.50,3346.02115439,N,12019.72518572,W,2,13,0.9,7.153,M,-37.688,M,7.4,0135*67
$PYRTM,2024,122.584693337894,13.694340748032
$GNHDT,323.919,T*28
$PYRTM,2024,122.584699188773,13.694346598912
$GNGGA,140158.00,3346.02163892,N,12019.72559974,W,2,13,0.9,7.218,M,-37.688,M,7.0,0135*66
$PYRTM,2024,122.584699188773,13.694346598912
$GNHDT,323.796,T*21
$PYRTM,2024,122.584704917743,13.694352327882
$GNGGA,140158.50,3346.02219103,N,12019.72605315,W,2,13,0.9,7.074,M,-37.688,M,7.4,0135*67
$PYRTM,2024,122.584704917743,13.694352327882
$GNHDT,323.790,T*27
$PYRTM,2024,122.584710761736,13.694358171887
$GNGGA,140159.00,3346.02276584,N,12019.72648536,W,2,13,0.9,6.824,M,-37.688,M,4.0,0135*64
$PYRTM,2024,122.584710761736,13.694358171887
$GNHDT,323.994,T*2D
$PYRTM,2024,122.584716489144,13.694363899282
$GNGGA,140159.50,3346.02330656,N,12019.72684552,W,2,13,0.9,6.699,M,-37.688,M,4.4,0135*60
$PYRTM,2024,122.584716489144,13.694363899282
$GNHDT,324.279,T*22
$PYRTM,2024,122.584722334468,13.694369744606
$GNGGA,140200.00,3346.02378546,N,12019.72711522,W,2,13,0.9,6.817,M,-37.688,M,5.0,0135*63
$PYRTM,2024,122.584722334468,13.694369744606
$GNHDT,324.180,T*27
$PYRTM,2024,122.584728069653,13.694375479792
$GNGGA,140200.50,3346.02419725,N,12019.72730909,W,2,13,0.9,7.216,M,-37.688,M,5.4,0135*69
$PYRTM,2024,122.584728069653,13.694375479792
$GNHDT,324.583,T*20
$PYRTM,2024,122.584733904722,13.694381314861
$GNGGA,140201.00,3346.02456350,N,12019.72747931,W,2,13,0.9,7.788,M,-37.688,M,6.0,0135*6E
$PYRTM,2024,122.584733904722,13.694381314861
$GNHDT,324.842,T*20
$PYRTM,2024,122.584739636100,13.694387046238
$GNGGA,140201.50,3346.02492100,N,12019.72769348,W,2,13,0.9,8.296,M,-37.688,M,6.4,0135*6D
$PYRTM,2024,122.584739636100,13.694387046238
$GNHDT,325.327,T*29
$PYRTM,2024,122.584745488171,13.694392898322
$GNGGA,140202.00,3346.02530972,N,12019.72797617,W,2,13,0.9,8.514,M,-37.688,M,7.0,0135*69
$PYRTM,2024,122.584745488171,13.694392898322
$GNHDT,325.404,T*2F
$PYRTM,2024,122.584751207847,13.694398617986
$GNGGA,140202.50,3346.02575051,N,12019.72833522,W,2,13,0.9,8.319,M,-37.688,M,7.4,0135*6E
$PYRTM,2024,122.584751207847,13.694398617986
$GNHDT,325.389,T*2D
$PYRTM,2024,122.584757062650,13.694404472789
$GNGGA,140203.00,3346.02621547,N,12019.72877063,W,2,13,0.9,7.747,M,-37.688,M,7.0,0135*6E
$PYRTM,2024,122.584757062650,13.694404472789
$GNHDT,325.550,T*2F
$PYRTM,2024,122.584762786493,13.694410196632
$GNGGA,140203.50,3346.02667179,N,12019.72924301,W,2,13,0.9,7.057,M,-37.688,M,7.4,0135*62
$PYRTM,2024,122.584762786493,13.694410196632
$GNHDT,325.576,T*2B
$PYRTM,2024,122.584768631123,13.694416041262
$GNGGA,140204.00,3346.02711171,N,12019.72969854,W,2,13,0.9,6.422,M,-37.688,M,7.0,0135*69
$PYRTM,2024,122.584768631123,13.694416041262
$GNHDT,325.255,T*2D
$PYRTM,2024,122.584774358194,13.694421768333
$GNGGA,140204.50,3346.02753847,N,12019.73008099,W,2,13,0.9,6.079,M,-37.688,M,7.4,0135*6E
$PYRTM,2024,122.584774358194,13.694421768333
$GNHDT,325.066,T*2F
$PYRTM,2024,122.584780212512,13.694427622650
$GNGGA,140205.00,3346.02797296,N,12019.73034647,W,2,13,0.9,6.072,M,-37.688,M,4.0,0135*62
$PYRTM,2024,122.584780212512,13.694427622650
$GNHDT,325.054,T*2E
$PYRTM,2024,122.584785942465,13.694433352604
$GNGGA,140205.50,3346.02842768,N,12019.73053461,W,2,13,0.9,6.288,M,-37.688,M,4.4,0135*60
$PYRTM,2024,122.584785942465,13.694433352604
$GNHDT,325.141,T*2B
$PYRTM,2024,122.584791777766,13.694439187917
$GNGGA,140206.00,3346.02891301,N,12019.73073555,W,2,13,0.9,6.562,M,-37.688,M,5.0,0135*61
$PYRTM,2024,122.584791777766,13.694439187917
$GNHDT,324.808,T*2E
$PYRTM,2024,122.584797508252,13.694444918403
$GNGGA,140206.50,3346.02944752,N,12019.73101538,W,2,13,0.9,6.712,M,-37.688,M,5.4,0135*61
$PYRTM,2024,122.584797508252,13.694444918403
$GNHDT,324.889,T*27
$PYRTM,2024,122.584803352998,13.694450763137
$GNGGA,140207.00,3346.03000479,N,12019.73142275,W,2,13,0.9,6.686,M,-37.688,M,6.0,0135*65
$PYRTM,2024,122.584803352998,13.694450763137
$GNHDT,325.068,T*21
$PYRTM,2024,122.584809086053,13.694456496192
$GNGGA,140207.50,3346.03051738,N,12019.73191398,W,2,13,0.9,6.576,M,-37.688,M,6.4,0135*66
$PYRTM,2024,122.584809086053,13.694456496192
$GNHDT,325.376,T*2D
$PYRTM,2024,122.584814936435,13.694462346574
$GNGGA,140208.00,3346.03095930,N,12019.73244152,W,2,13,0.9,6.517,M,-37.688,M,7.0,0135*6F
$PYRTM,2024,122.584814936435,13.694462346574
$GNHDT,325.591,T*22
$PYRTM,2024,122.584820657986,13.694468068125
$GNGGA,140208.50,3346.03133596,N,12019.73296577,W,2,13,0.9,6.563,M,-37.688,M,7.4,0135*6C
$PYRTM,2024,122.584820657986,13.694468068125
$GNHDT,325.404,T*2F
$PYRTM,2024,122.584826503345,13.694473913484
$GNGGA,140209.00,3346.03167696,N,12019.73345372,W,2,13,0.9,6.761,M,-37.688,M,7.0,0135*62
$PYRTM,2024,122.584826503345,13.694473913484
$GNHDT,325.466,T*2B
$PYRTM,2024,122.584832229687,13.694479639826
$GNGGA,140209.50,3346.03202788,N,12019.73387908,W,2,13,0.9,7.000,M,-37.688,M,7.4,0135*65
$PYRTM,2024,122.584832229687,13.694479639826
$GNHDT,325.185,T*23
$PYRTM,2024,122.584838073137,13.694485483287
$GNGGA,140210.00,3346.03242587,N,12019.73422580,W,2,13,0.9,7.224,M,-37.688,M,7.0,0135*65
$PYRTM,2024,122.584838073137,13.694485483287
$GNHDT,325.056,T*2C
$PYRTM,2024,122.584843806736,13.694491216875
$GNGGA,140210.50,3346.03287445,N,12019.73450919,W,2,13,0.9,7.383,M,-37.688,M,7.4,0135*67
$PYRTM,2024,122.584843806736,13.694491216875
$GNHDT,324.893,T*2C
$PYRTM,2024,122.584849652153,13.694497062292
$GNGGA,140211.00,3346.03334889,N,12019.73473375,W,2,13,0.9,7.481,M,-37.688,M,4.0,0135*65
$PYRTM,2024,122.584849652153,13.694497062292
$GNHDT,324.551,T*2F
$PYRTM,2024,122.584855381748,13.694502791887
$GNGGA,140211.50,3346.03382802,N,12019.73489566,W,2,13,0.9,7.576,M,-37.688,M,4.4,0135*62
$PYRTM,2024,122.584855381748,13.694502791887
$GNHDT,324.579,T*25
$PYRTM,2024,122.584861222569,13.694508632720
$GNGGA,140212.00,3346.03428019,N,12019.73501074,W,2,13,0.9,7.697,M,-37.688,M,5.0,0135*6F
$PYRTM,2024,122.584861222569,13.694508632720
$GNHDT,325.064,T*2D
$PYRTM,2024,122.584866949537,13.694514359676
$GNGGA,140212.50,3346.03471201,N,12019.73513100,W,2,13,0.9,7.797,M,-37.688,M,5.4,0135*69
$PYRTM,2024,122.584866949537,13.694514359676
$GNHDT,325.329,T*27
$PYRTM,2024,122.584872797338,13.694520207488
$GNGGA,140213.00,3346.03513033,N,12019.73534613,W,2,13,0.9,7.798,M,-37.688,M,6.0,0135*63
$PYRTM,2024,122.584872797338,13.694520207488
$GNHDT,325.606,T*2F
$PYRTM,2024,122.584878527199,13.694525937338
$GNGGA,140213.50,3346.03556756,N,12019.73572361,W,2,13,0.9,7.550,M,-37.688,M,6.4,0135*63
$PYRTM,2024,122.584878527199,13.694525937338
$GNHDT,325.486,T*25
$PYRTM,2024,122.584884380648,13.694531790787
$GNGGA,140214.00,3346.03604214,N,12019.73624574,W,2,13,0.9,7.014,M,-37.688,M,7.0,0135*64
$PYRTM,2024,122.584884380648,13.694531790787
$GNHDT,325.098,T*2E
$PYRTM,2024,122.584890105428,13.694537515567
$GNGGA,140214.50,3346.03653622,N,12019.73686691,W,2,13,0.9,6.296,M,-37.688,M,7.4,0135*6F
$PYRTM,2024,122.584890105428,13.694537515567
$GNHDT,325.214,T*28
$PYRTM,2024,122.584895950127,13.694543360266
$GNGGA,140215.00,3346.03701507,N,12019.73747938,W,2,13,0.9,5.729,M,-37.688,M,7.0,0135*6F
$PYRTM,2024,122.584895950127,13.694543360266
$GNHDT,324.778,T*26
$PYRTM,2024,122.584901687025,13.694549097164
$GNGGA,140215.50,3346.03743322,N,12019.73796080,W,2,13,0.9,5.622,M,-37.688,M,7.4,0135*65
$PYRTM,2024,122.584901687025,13.694549097164
$GNHDT,324.067,T*2F
$PYRTM,2024,122.584907519688,13.694554929826
$GNGGA,140216.00,3346.03779535,N,12019.73826799,W,2,13,0.9,6.047,M,-37.688,M,7.0,0135*63
$PYRTM,2024,122.584907519688,13.694554929826
$GNHDT,323.633,T*2F
$PYRTM,2024,122.584913257882,13.694560668021
$GNGGA,140216.50,3346.03815891,N,12019.73839874,W,2,13,0.9,6.767,M,-37.688,M,7.4,0135*63
$PYRTM,2024,122.584913257882,13.694560668021
$GNHDT,324.312,T*2E
$PYRTM,2024,122.584919106516,13.694566516667
$GNGGA,140217.00,3346.03858005,N,12019.73844788,W,2,13,0.9,7.525,M,-37.688,M,4.0,0135*6F
$PYRTM,2024,122.584919106516,13.694566516667
$GNHDT,325.028,T*25
$PYRTM,2024,122.584924820174,13.694572230313
$GNGGA,140217.50,3346.03909615,N,12019.73851216,W,2,13,0.9,8.066,M,-37.688,M,4.4,0135*67
$PYRTM,2024,122.584924820174,13.694572230313
$GNHDT,325.174,T*2D
$PYRTM,2024,122.584930670567,13.694578080706
$GNGGA,140218.00,3346.03968623,N,12019.73866582,W,2,13,0.9,8.124,M,-37.688,M,5.0,0135*63
$PYRTM,2024,122.584930670567,13.694578080706
$GNHDT,325.455,T*2B
$PYRTM,2024,122.584936397315,13.694583807454
$GNGGA,140218.50,3346.04027306,N,12019.73894544,W,2,13,0.9,7.788,M,-37.688,M,5.4,0135*6D
$PYRTM,2024,122.584936397315,13.694583807454
$GNHDT,325.917,T*20
$PYRTM,2024,122.584942250012,13.694589660150
$GNGGA,140219.00,3346.04079035,N,12019.73935497,W,2,13,0.9,7.254,M,-37.688,M,6.0,0135*67
$PYRTM,2024,122.584942250012,13.694589660150
$GNHDT,325.675,T*2B
$PYRTM,2024,122.584947972604,13.694595382743
$GNGGA,140219.50,3346.04118036,N,12019.73986707,W,2,13,0.9,6.812,M,-37.688,M,6.4,0135*68
$PYRTM,2024,122.584947972604,13.694595382743
$GNHDT,325.743,T*2F
$PYRTM,2024,122.584953824884,13.694601235023
$GNGGA,140220.00,3346.04145535,N,12019.74037608,W,2,13,0.9,6.656,M,-37.688,M,7.0,0135*68
$PYRTM,2024,122.584953824884,13.694601235023
$GNHDT,325.822,T*27
$PYRTM,2024,122.584959551412,13.694606961551
$GNGGA,140220.50,3346.04165541,N,12019.74079817,W,2,13,0.9,6.819,M,-37.688,M,7.4,0135*67
$PYRTM,2024,122.584959551412,13.694606961551
$GNHDT,325.895,T*2B
$PYRTM,2024,122.584965391667,13.694612801806
$GNGGA,140221.00,3346.04184944,N,12019.74107281,W,2,13,0.9,7.197,M,-37.688,M,7.0,0135*62
$PYRTM,2024,122.584965391667,13.694612801806
$GNHDT,326.051,T*28
$PYRTM,2024,122.584971127187,13.694618537326
$GNGGA,140221.50,3346.04213287,N,12019.74122569,W,2,13,0.9,7.574,M,-37.688,M,7.4,0135*65
$PYRTM,2024,122.584971127187,13.694618537326
$GNHDT,325.990,T*2F
$PYRTM,2024,122.584976967199,13.694624377338
$GNGGA,140222.00,3346.04255589,N,12019.74133098,W,2,13,0.9,7.757,M,-37.688,M,7.0,0135*64
$PYRTM,2024,122.584976967199,13.694624377338
$GNHDT,325.827,T*22
$PYRTM,2024,122.584982695810,13.694630105949
$GNGGA,140222.50,3346.04310681,N,12019.74146518,W,2,13,0.9,7.638,M,-37.688,M,7.4,0135*69
$PYRTM,2024,122.584982695810,13.694630105949
$GNHDT,325.604,T*2D
$PYRTM,2024,122.584988543530,13.694635953669
$GNGGA,140223.00,3346.04370605,N,12019.74166800,W,2,13,0.9,7.220,M,-37.688,M,4.0,0135*6B
$PYRTM,2024,122.584988543530,13.694635953669
$GNHDT,325.194,T*23
$PYRTM,2024,122.584994271667,13.694641681806
$GNGGA,140223.50,3346.04425342,N,12019.74195457,W,2,13,0.9,6.738,M,-37.688,M,4.4,0135*64
$PYRTM,2024,122.584994271667,13.694641681806
$GNHDT,325.137,T*2A
$PYRTM,2024,122.585000116354,13.694647526493
$GNGGA,140224.00,3346.04468013,N,12019.74229739,W,2,13,0.9,6.453,M,-37.688,M,5.0,0135*6C
$PYRTM,2024,122.585000116354,13.694647526493
$GNHDT,324.918,T*2E
$PYRTM,2024,122.585005843854,13.694653253993
$GNGGA,140224.50,3346.04499619,N,12019.74265373,W,2,13,0.9,6.444,M,-37.688,M,5.4,0135*6B
$PYRTM,2024,122.585005843854,13.694653253993
$GNHDT,324.968,T*29
$PYRTM,2024,122.585011690567,13.694659100706
$GNGGA,140225.00,3346.04525984,N,12019.74299970,W,2,13,0.9,6.696,M,-37.688,M,6.0,0135*62
$PYRTM,2024,122.585011690567,13.694659100706
$GNHDT,325.054,T*2E
$PYRTM,2024,122.585017418542,13.694664828681
$GNGGA,140225.50,3346.04551682,N,12019.74334484,W,2,13,0.9,6.990,M,-37.688,M,6.4,0135*60
$PYRTM,2024,122.585017418542,13.694664828681
$GNHDT,325.232,T*2C
$PYRTM,2024,122.585023260243,13.694670670382
$GNGGA,140226.00,3346.04582687,N,12019.74372709,W,2,13,0.9,7.179,M,-37.688,M,7.0,0135*62
$PYRTM,2024,122.585023260243,13.694670670382
$GNHDT,325.002,T*2D
$PYRTM,2024,122.585028989178,13.694676399317
$GNGGA,140226.50,3346.04623676,N,12019.74414810,W,2,13,0.9,7.085,M,-37.688,M,7.4,0135*67
$PYRTM,2024,122.585028989178,13.694676399317
$GNHDT,324.710,T*28
$PYRTM,2024,122.585034835810,13.694682245949
$GNGGA,140227.00,3346.04671779,N,12019.74458656,W,2,13,0.9,6.745,M,-37.688,M,7.0,0135*60
$PYRTM,2024,122.585034835810,13.694682245949
$GNHDT,324.229,T*27
$PYRTM,2024,122.585040567720,13.694687977859
$GNGGA,140227.50,3346.04721571,N,12019.74498634,W,2,13,0.9,6.387,M,-37.688,M,7.4,0135*6D
$PYRTM,2024,122.585040567720,13.694687977859
$GNHDT,323.796,T*21
$PYRTM,2024,122.585046408727,13.694693818877
$GNGGA,140228.00,3346.04769091,N,12019.74530610,W,2,13,0.9,6.174,M,-37.688,M,7.0,0135*6F
$PYRTM,2024,122.585046408727,13.694693818877
$GNHDT,323.745,T*2F
$PYRTM,2024,122.585052136759,13.694699546898
$GNGGA,140228.50,3346.04811755,N,12019.74555237,W,2,13,0.9,6.293,M,-37.688,M,7.4,0135*69
$PYRTM,2024,122.585052136759,13.694699546898
$GNHDT,323.959,T*2C
$PYRTM,2024,122.585057985463,13.694705395590
