$PYRTM,2024,125.916666749676,17.026314159815
$GNGGA,220000.00,3451.17398259,N,12142.40696920,W,2,13,0.8,6.285,M,-38.718,M,4.0,0131*6A
$PYRTM,2024,125.916666749676,17.026314159815
$GNHDT,118.717,T*22
$PYRTM,2024,125.916672484248,17.026319894387
$GNGGA,220000.50,3451.17354786,N,12142.40605860,W,2,13,0.8,6.118,M,-38.718,M,4.4,0131*64
$PYRTM,2024,125.916672484248,17.026319894387
$GNHDT,119.124,T*25
$PYRTM,2024,125.916678323553,17.026325733692
$GNGGA,220001.00,3451.17305869,N,12142.40516097,W,2,13,0.8,6.069,M,-38.718,M,5.0,0131*69
$PYRTM,2024,125.916678323553,17.026325733692
$GNHDT,119.673,T*20
$PYRTM,2024,125.916684053507,17.026331463646
$GNGGA,220001.50,3451.17255135,N,12142.40423491,W,2,13,0.8,6.074,M,-38.718,M,5.4,0131*65
$PYRTM,2024,125.916684053507,17.026331463646
$GNHDT,120.313,T*29
$PYRTM,2024,125.916689906042,17.026337316181
$GNGGA,220002.00,3451.17199988,N,12142.40326864,W,2,13,0.8,6.169,M,-38.718,M,6.0,0131*60
$PYRTM,2024,125.916689906042,17.026337316181
$GNHDT,120.413,T*2E
$PYRTM,2024,125.916695632813,17.026343042951
$GNGGA,220002.50,3451.17142052,N,12142.40225212,W,2,13,0.8,6.346,M,-38.718,M,6.4,0131*6F
$PYRTM,2024,125.916695632813,17.026343042951
$GNHDT,120.492,T*27
$PYRTM,2024,125.916701471076,17.026348881227
$GNGGA,220003.00,3451.17083534,N,12142.40114977,W,2,13,0.8,6.562,M,-38.718,M,7.0,0131*6E
$PYRTM,2024,125.916701471076,17.026348881227
$GNHDT,119.887,T*25
$PYRTM,2024,125.916707205544,17.026354615683
$GNGGA,220003.50,3451.17023408,N,12142.39997409,W,2,13,0.8,6.809,M,-38.718,M,7.4,0131*62
$PYRTM,2024,125.916707205544,17.026354615683
$GNHDT,119.171,T*25
$PYRTM,2024,125.916713050116,17.026360460266
$GNGGA,220004.00,3451.16961209,N,12142.39873482,W,2,13,0.8,7.083,M,-38.718,M,7.0,0131*6E
$PYRTM,2024,125.916713050116,17.026360460266
$GNHDT,118.174,T*21
$PYRTM,2024,125.916718777234,17.026366187373
$GNGGA,220004.50,3451.16897186,N,12142.39745460,W,2,13,0.8,7.357,M,-38.718,M,7.4,0131*6F
$PYRTM,2024,125.916718777234,17.026366187373
$GNHDT,117.117,T*2B
$PYRTM,2024,125.916724621620,17.026372031759
$GNGGA,220005.00,3451.16831019,N,12142.39617618,W,2,13,0.8,7.632,M,-38.718,M,7.0,0131*69
$PYRTM,2024,125.916724621620,17.026372031759
$GNHDT,116.185,T*21
$PYRTM,2024,125.916730348634,17.026377758773
$GNGGA,220005.50,3451.16761381,N,12142.39493150,W,2,13,0.8,7.868,M,-38.718,M,7.4,0131*64
$PYRTM,2024,125.916730348634,17.026377758773
$GNHDT,115.640,T*2C
$PYRTM,2024,125.916736195000,17.026383605139
$GNGGA,220006.00,3451.16688312,N,12142.39374673,W,2,13,0.8,8.053,M,-38.718,M,4.0,0131*6E
$PYRTM,2024,125.916736195000,17.026383605139
$GNHDT,115.277,T*2C
$PYRTM,2024,125.916741924479,17.026389334630
$GNGGA,220006.50,3451.16613723,N,12142.39264106,W,2,13,0.8,8.152,M,-38.718,M,4.4,0131*6E
$PYRTM,2024,125.916741924479,17.026389334630
$GNHDT,115.334,T*2A
$PYRTM,2024,125.916747767222,17.026395177373
$GNGGA,220007.00,3451.16539678,N,12142.39160662,W,2,13,0.8,8.101,M,-38.718,M,5.0,0131*6F
$PYRTM,2024,125.916747767222,17.026395177373
$GNHDT,115.805,T*23
$PYRTM,2024,125.916753497384,17.026400907523
$GNGGA,220007.50,3451.16468708,N,12142.39063812,W,2,13,0.8,7.937,M,-38.718,M,5.4,0131*64
$PYRTM,2024,125.916753497384,17.026400907523
$GNHDT,116.682,T*21
$PYRTM,2024,125.916759341377,17.026406751516
$GNGGA,220008.00,3451.16402982,N,12142.38973654,W,2,13,0.8,7.619,M,-38.718,M,6.0,0131*6F
$PYRTM,2024,125.916759341377,17.026406751516
$GNHDT,117.867,T*25
$PYRTM,2024,125.916765074641,17.026412484780
$GNGGA,220008.50,3451.16342948,N,12142.38887404,W,2,13,0.8,7.273,M,-38.718,M,6.4,0131*6E
$PYRTM,2024,125.916765074641,17.026412484780
$GNHDT,119.093,T*28
$PYRTM,2024,125.916770925694,17.026418335845
$GNGGA,220009.00,3451.16290217,N,12142.38800956,W,2,13,0.8,6.833,M,-38.718,M,7.0,0131*6A
$PYRTM,2024,125.916770925694,17.026418335845
$GNHDT,120.117,T*2F
$PYRTM,2024,125.916776647118,17.026424057257
$GNGGA,220009.50,3451.16241934,N,12142.38711152,W,2,13,0.8,6.387,M,-38.718,M,7.4,0131*6A
$PYRTM,2024,125.916776647118,17.026424057257
$GNHDT,120.684,T*22
$PYRTM,2024,125.916782494132,17.026429904271
$GNGGA,220010.00,3451.16195830,N,12142.38618869,W,2,13,0.8,6.015,M,-38.717,M,7.0,0131*62
$PYRTM,2024,125.916782494132,17.026429904271
$GNHDT,120.949,T*2C
$PYRTM,2024,125.916788221944,17.026435632083
$GNGGA,220010.50,3451.16150362,N,12142.38523867,W,2,13,0.8,5.766,M,-38.717,M,7.4,0131*63
$PYRTM,2024,125.916788221944,17.026435632083
$GNHDT,120.720,T*2D
$PYRTM,2024,125.916794069687,17.026441479826
$GNGGA,220011.00,3451.16103300,N,12142.38426943,W,2,13,0.8,5.692,M,-38.717,M,7.0,0131*68
$PYRTM,2024,125.916794069687,17.026441479826
$GNHDT,120.321,T*28
$PYRTM,2024,125.916799796782,17.026447206921
$GNGGA,220011.50,3451.16053641,N,12142.38326719,W,2,13,0.8,5.766,M,-38.717,M,7.4,0131*61
$PYRTM,2024,125.916799796782,17.026447206921
$GNHDT,119.733,T*25
$PYRTM,2024,125.916805643414,17.026453053553
$GNGGA,220012.00,3451.15998249,N,12142.38223823,W,2,13,0.8,5.964,M,-38.717,M,4.0,0131*6F
$PYRTM,2024,125.916805643414,17.026453053553
$GNHDT,118.718,T*2D
$PYRTM,2024,125.916811369421,17.026458779560
$GNGGA,220012.50,3451.15938465,N,12142.38118135,W,2,13,0.8,6.219,M,-38.717,M,4.4,0131*6B
$PYRTM,2024,125.916811369421,17.026458779560
$GNHDT,118.104,T*26
$PYRTM,2024,125.916817216898,17.026464627037
$GNGGA,220013.00,3451.15875808,N,12142.38009027,W,2,13,0.8,6.498,M,-38.717,M,5.0,0131*69
$PYRTM,2024,125.916817216898,17.026464627037
$GNHDT,117.505,T*2C
$PYRTM,2024,125.916822942558,17.026470352708
$GNGGA,220013.50,3451.15809879,N,12142.37899852,W,2,13,0.8,6.754,M,-38.717,M,5.4,0131*62
$PYRTM,2024,125.916822942558,17.026470352708
$GNHDT,117.337,T*2B
$PYRTM,2024,125.916828791701,17.026476201840
$GNGGA,220014.00,3451.15737974,N,12142.37792896,W,2,13,0.8,7.039,M,-38.717,M,6.0,0131*68
$PYRTM,2024,125.916828791701,17.026476201840
$GNHDT,117.541,T*2C
$PYRTM,2024,125.916834518831,17.026481928970
$GNGGA,220014.50,3451.15666634,N,12142.37684933,W,2,13,0.8,7.254,M,-38.717,M,6.4,0131*66
$PYRTM,2024,125.916834518831,17.026481928970
$GNHDT,117.713,T*29
$PYRTM,2024,125.916840364537,17.026487774676
$GNGGA,220015.00,3451.15597995,N,12142.37577260,W,2,13,0.8,7.412,M,-38.717,M,7.0,0131*68
$PYRTM,2024,125.916840364537,17.026487774676
$GNHDT,118.066,T*23
$PYRTM,2024,125.916846090532,17.026493500671
$GNGGA,220015.50,3451.15533113,N,12142.37469122,W,2,13,0.8,7.453,M,-38.717,M,7.4,0131*6F
$PYRTM,2024,125.916846090532,17.026493500671
$GNHDT,118.353,T*26
$PYRTM,2024,125.916851933229,17.026499343368
$GNGGA,220016.00,3451.15470136,N,12142.37363679,W,2,13,0.8,7.421,M,-38.717,M,7.0,0131*6D
$PYRTM,2024,125.916851933229,17.026499343368
$GNHDT,118.637,T*21
$PYRTM,2024,125.916857664375,17.026505074514
$GNGGA,220016.50,3451.15406535,N,12142.37263727,W,2,13,0.8,7.314,M,-38.717,M,7.4,0131*60
$PYRTM,2024,125.916857664375,17.026505074514
$GNHDT,119.056,T*21
$PYRTM,2024,125.916863511308,17.026510921447
$GNGGA,220017.00,3451.15343991,N,12142.37168886,W,2,13,0.8,7.139,M,-38.717,M,7.0,0131*65
$PYRTM,2024,125.916863511308,17.026510921447
$GNHDT,119.233,T*20
$PYRTM,2024,125.916869236296,17.026516646435
$GNGGA,220017.50,3451.15282761,N,12142.37077275,W,2,13,0.8,6.942,M,-38.717,M,7.4,0131*65
$PYRTM,2024,125.916869236296,17.026516646435
$GNHDT,119.079,T*2C
$PYRTM,2024,125.916875086667,17.026522496806
$GNGGA,220018.00,3451.15224168,N,12142.36986235,W,2,13,0.8,6.740,M,-38.717,M,4.0,0131*65
$PYRTM,2024,125.916875086667,17.026522496806
$GNHDT,118.873,T*2F
$PYRTM,2024,125.916880812859,17.026528222998
$GNGGA,220018.50,3451.15170918,N,12142.36893290,W,2,13,0.8,6.566,M,-38.717,M,4.4,0131*65
$PYRTM,2024,125.916880812859,17.026528222998
$GNHDT,118.322,T*20
$PYRTM,2024,125.916886659745,17.026534069884
$GNGGA,220019.00,3451.15122371,N,12142.36798539,W,2,13,0.8,6.461,M,-38.717,M,5.0,0131*60
$PYRTM,2024,125.916886659745,17.026534069884
$GNHDT,117.783,T*20
$PYRTM,2024,125.916892393391,17.026539803530
$GNGGA,220019.50,3451.15077767,N,12142.36703338,W,2,13,0.8,6.440,M,-38.717,M,5.4,0131*65
$PYRTM,2024,125.916892393391,17.026539803530
$GNHDT,117.327,T*2A
$PYRTM,2024,125.916898234479,17.026545644618
$GNGGA,220020.00,3451.15035526,N,12142.36608455,W,2,13,0.8,6.498,M,-38.717,M,6.0,0131*6F
$PYRTM,2024,125.916898234479,17.026545644618
$GNHDT,116.957,T*26
$PYRTM,2024,125.916903962199,17.026551372350
$GNGGA,220020.50,3451.14992000,N,12142.36512634,W,2,13,0.8,6.568,M,-38.717,M,6.4,0131*69
$PYRTM,2024,125.916903962199,17.026551372350
$GNHDT,116.572,T*2D
$PYRTM,2024,125.916909806806,17.026557216944
$GNGGA,220021.00,3451.14946228,N,12142.36413948,W,2,13,0.8,6.607,M,-38.717,M,7.0,0131*67
$PYRTM,2024,125.916909806806,17.026557216944
$GNHDT,116.195,T*20
$PYRTM,2024,125.916915537882,17.026562948021
$GNGGA,220021.50,3451.14895265,N,12142.36314214,W,2,13,0.8,6.637,M,-38.717,M,7.4,0131*61
$PYRTM,2024,125.916915537882,17.026562948021
$GNHDT,115.894,T*2B
$PYRTM,2024,125.916921384757,17.026568794896
$GNGGA,220022.00,3451.14835548,N,12142.36215518,W,2,13,0.8,6.698,M,-38.717,M,7.0,0131*6F
$PYRTM,2024,125.916921384757,17.026568794896
$GNHDT,115.524,T*2D
$PYRTM,2024,125.916927115637,17.026574525775
$GNGGA,220022.50,3451.14774470,N,12142.36113775,W,2,13,0.8,6.761,M,-38.717,M,7.4,0131*65
$PYRTM,2024,125.916927115637,17.026574525775
$GNHDT,115.434,T*2D
$PYRTM,2024,125.916932955718,17.026580365856
$GNGGA,220023.00,3451.14712177,N,12142.36008837,W,2,13,0.8,6.854,M,-38.717,M,7.0,0131*6C
$PYRTM,2024,125.916932955718,17.026580365856
$GNHDT,115.630,T*2B
$PYRTM,2024,125.916938683287,17.026586093426
$GNGGA,220023.50,3451.14650986,N,12142.35902894,W,2,13,0.8,7.008,M,-38.717,M,7.4,0131*65
$PYRTM,2024,125.916938683287,17.026586093426
$GNHDT,116.075,T*2F
$PYRTM,2024,125.916944527535,17.026591937674
$GNGGA,220024.00,3451.14592095,N,12142.35794239,W,2,13,0.8,7.209,M,-38.717,M,4.0,0131*69
$PYRTM,2024,125.916944527535,17.026591937674
$GNHDT,117.089,T*2D
$PYRTM,2024,125.916950259977,17.026597670116
$GNGGA,220024.50,3451.14533805,N,12142.35686605,W,2,13,0.8,7.464,M,-38.717,M,4.4,0131*66
$PYRTM,2024,125.916950259977,17.026597670116
$GNHDT,117.687,T*25
$PYRTM,2024,125.916956110405,17.026603520544
$GNGGA,220025.00,3451.14475499,N,12142.35579969,W,2,13,0.8,7.732,M,-38.717,M,5.0,0131*6B
$PYRTM,2024,125.916956110405,17.026603520544
$GNHDT,118.490,T*2E
$PYRTM,2024,125.916961830544,17.026609240683
$GNGGA,220025.50,3451.14421359,N,12142.35471875,W,2,13,0.8,7.917,M,-38.717,M,5.4,0131*6C
$PYRTM,2024,125.916961830544,17.026609240683
$GNHDT,119.056,T*21
$PYRTM,2024,125.916967679086,17.026615089225
$GNGGA,220026.00,3451.14369749,N,12142.35363601,W,2,13,0.8,7.970,M,-38.717,M,6.0,0131*6B
$PYRTM,2024,125.916967679086,17.026615089225
$GNHDT,119.554,T*26
$PYRTM,2024,125.916973406100,17.026620816238
$GNGGA,220026.50,3451.14316603,N,12142.35256395,W,2,13,0.8,7.878,M,-38.717,M,6.4,0131*6B
$PYRTM,2024,125.916973406100,17.026620816238
$GNHDT,119.697,T*2A
$PYRTM,2024,125.916979248715,17.026626658854
$GNGGA,220027.00,3451.14257049,N,12142.35153389,W,2,13,0.8,7.730,M,-38.716,M,7.0,0131*6F
$PYRTM,2024,125.916979248715,17.026626658854
$GNHDT,119.687,T*2B
$PYRTM,2024,125.916984979549,17.026632389687
$GNGGA,220027.50,3451.14198328,N,12142.35048657,W,2,13,0.8,7.430,M,-38.716,M,7.4,0131*64
$PYRTM,2024,125.916984979549,17.026632389687
$GNHDT,119.382,T*2B
$PYRTM,2024,125.916990826204,17.026638236343
$GNGGA,220028.00,3451.14138539,N,12142.34946035,W,2,13,0.8,7.090,M,-38.716,M,7.0,0131*6C
$PYRTM,2024,125.916990826204,17.026638236343
$GNHDT,118.880,T*23
$PYRTM,2024,125.916996554699,17.026643964838
$GNGGA,220028.50,3451.14079592,N,12142.34845775,W,2,13,0.8,6.777,M,-38.716,M,7.4,0131*66
$PYRTM,2024,125.916996554699,17.026643964838
$GNHDT,118.520,T*24
$PYRTM,2024,125.917002399630,17.026649809769
$GNGGA,220029.00,3451.14022666,N,12142.34748162,W,2,13,0.8,6.582,M,-38.716,M,7.0,0131*6A
$PYRTM,2024,125.917002399630,17.026649809769
$GNHDT,118.023,T*22
$PYRTM,2024,125.917008128380,17.026655538519
$GNGGA,220029.50,3451.13967375,N,12142.34652438,W,2,13,0.8,6.521,M,-38.716,M,7.4,0131*6A
$PYRTM,2024,125.917008128380,17.026655538519
$GNHDT,117.397,T*21
$PYRTM,2024,125.917013972396,17.026661382535
$GNGGA,220030.00,3451.13914598,N,12142.34557265,W,2,13,0.8,6.557,M,-38.716,M,4.0,0131*68
$PYRTM,2024,125.917013972396,17.026661382535
$GNHDT,117.249,T*23
$PYRTM,2024,125.917019703877,17.026667114028
$GNGGA,220030.50,3451.13863076,N,12142.34462070,W,2,13,0.8,6.626,M,-38.716,M,4.4,0131*69
$PYRTM,2024,125.917019703877,17.026667114028
$GNHDT,117.117,T*2B
$PYRTM,2024,125.917025549433,17.026672959572
$GNGGA,220031.00,3451.13809521,N,12142.34367925,W,2,13,0.8,6.706,M,-38.716,M,5.0,0131*6B
$PYRTM,2024,125.917025549433,17.026672959572
$GNHDT,117.169,T*22
$PYRTM,2024,125.917031280255,17.026678690394
$GNGGA,220031.50,3451.13754349,N,12142.34273684,W,2,13,0.8,6.743,M,-38.716,M,5.4,0131*64
$PYRTM,2024,125.917031280255,17.026678690394
$GNHDT,117.350,T*2A
$PYRTM,2024,125.917037124792,17.026684534942
$GNGGA,220032.00,3451.13697652,N,12142.34178064,W,2,13,0.8,6.786,M,-38.716,M,6.0,0131*6D
$PYRTM,2024,125.917037124792,17.026684534942
$GNHDT,117.466,T*28
$PYRTM,2024,125.917042851134,17.026690261273
$GNGGA,220032.50,3451.13642466,N,12142.34080072,W,2,13,0.8,6.805,M,-38.716,M,6.4,0131*64
$PYRTM,2024,125.917042851134,17.026690261273
$GNHDT,117.644,T*2A
$PYRTM,2024,125.917048693750,17.026696103889
$GNGGA,220033.00,3451.13589632,N,12142.33978845,W,2,13,0.8,6.838,M,-38.716,M,7.0,0131*69
$PYRTM,2024,125.917048693750,17.026696103889
$GNHDT,117.720,T*29
$PYRTM,2024,125.917054423623,17.026701833762
$GNGGA,220033.50,3451.13537095,N,12142.33877702,W,2,13,0.8,6.935,M,-38.716,M,7.4,0131*68
$PYRTM,2024,125.917054423623,17.026701833762
$GNHDT,117.877,T*24
$PYRTM,2024,125.917060270093,17.026707680231
$GNGGA,220034.00,3451.13485522,N,12142.33775514,W,2,13,0.8,7.079,M,-38.716,M,7.0,0131*67
$PYRTM,2024,125.917060270093,17.026707680231
$GNHDT,117.857,T*26
$PYRTM,2024,125.917065998079,17.026713408218
$GNGGA,220034.50,3451.13432963,N,12142.33674559,W,2,13,0.8,7.259,M,-38.716,M,7.4,0131*6A
$PYRTM,2024,125.917065998079,17.026713408218
$GNHDT,118.104,T*26
$PYRTM,2024,125.917071842488,17.026719252627
$GNGGA,220035.00,3451.13379719,N,12142.33573071,W,2,13,0.8,7.424,M,-38.716,M,7.0,0131*66
$PYRTM,2024,125.917071842488,17.026719252627
$GNHDT,118.364,T*22
$PYRTM,2024,125.917077575162,17.026724985301
$GNGGA,220035.50,3451.13324787,N,12142.33471300,W,2,13,0.8,7.508,M,-38.716,M,7.4,0131*61
$PYRTM,2024,125.917077575162,17.026724985301
$GNHDT,118.448,T*2B
$PYRTM,2024,125.917083418079,17.026730828218
$GNGGA,220036.00,3451.13268796,N,12142.33367754,W,2,13,0.8,7.501,M,-38.716,M,4.0,0131*65
$PYRTM,2024,125.917083418079,17.026730828218
$GNHDT,118.536,T*23
$PYRTM,2024,125.917089147847,17.026736557986
$GNGGA,220036.50,3451.13213288,N,12142.33262684,W,2,13,0.8,7.443,M,-38.716,M,4.4,0131*6D
$PYRTM,2024,125.917089147847,17.026736557986
$GNHDT,119.070,T*25
$PYRTM,2024,125.917094990579,17.026742400729
$GNGGA,220037.00,3451.13159832,N,12142.33155201,W,2,13,0.8,7.361,M,-38.716,M,5.0,0131*63
$PYRTM,2024,125.917094990579,17.026742400729
$GNHDT,119.156,T*20
$PYRTM,2024,125.917100722199,17.026748132338
$GNGGA,220037.50,3451.13106613,N,12142.33048004,W,2,13,0.8,7.320,M,-38.716,M,5.4,0131*6A
$PYRTM,2024,125.917100722199,17.026748132338
$GNHDT,118.981,T*23
$PYRTM,2024,125.917106565231,17.026753975370
$GNGGA,220038.00,3451.13051299,N,12142.32942082,W,2,13,0.8,7.315,M,-38.716,M,6.0,0131*68
$PYRTM,2024,125.917106565231,17.026753975370
$GNHDT,119.058,T*2F
$PYRTM,2024,125.917112300463,17.026759710602
$GNGGA,220038.50,3451.12992553,N,12142.32838248,W,2,13,0.8,7.332,M,-38.716,M,6.4,0131*62
$PYRTM,2024,125.917112300463,17.026759710602
$GNHDT,119.069,T*2D
$PYRTM,2024,125.917118140752,17.026765550903
$GNGGA,220039.00,3451.12931416,N,12142.32735035,W,2,13,0.8,7.335,M,-38.716,M,7.0,0131*67
$PYRTM,2024,125.917118140752,17.026765550903
$GNHDT,118.924,T*2C
$PYRTM,2024,125.917123871100,17.026771281238
$GNGGA,220039.50,3451.12869853,N,12142.32631199,W,2,13,0.8,7.307,M,-38.716,M,7.4,0131*64
$PYRTM,2024,125.917123871100,17.026771281238
$GNHDT,118.647,T*26
$PYRTM,2024,125.917129713299,17.026777123438
$GNGGA,220040.00,3451.12810079,N,12142.32525338,W,2,13,0.8,7.213,M,-38.716,M,7.0,0131*6E
$PYRTM,2024,125.917129713299,17.026777123438
$GNHDT,118.265,T*22
$PYRTM,2024,125.917135445058,17.026782855197
$GNGGA,220040.50,3451.12751731,N,12142.32417586,W,2,13,0.8,7.077,M,-38.716,M,7.4,0131*6D
$PYRTM,2024,125.917135445058,17.026782855197
$GNHDT,118.056,T*20
$PYRTM,2024,125.917141289120,17.026788699259
$GNGGA,220041.00,3451.12693937,N,12142.32308905,W,2,13,0.8,6.918,M,-38.716,M,7.0,0131*65
$PYRTM,2024,125.917141289120,17.026788699259
$GNHDT,117.718,T*22
$PYRTM,2024,125.917147017060,17.026794427199
$GNGGA,220041.50,3451.12635627,N,12142.32201438,W,2,13,0.8,6.784,M,-38.716,M,7.4,0131*66
$PYRTM,2024,125.917147017060,17.026794427199
$GNHDT,117.033,T*2C
$PYRTM,2024,125.917152861644,17.026800271782
$GNGGA,220042.00,3451.12577258,N,12142.32095011,W,2,13,0.8,6.681,M,-38.716,M,4.0,0131*6A
$PYRTM,2024,125.917152861644,17.026800271782
$GNHDT,116.675,T*29
$PYRTM,2024,125.917158593588,17.026806003727
$GNGGA,220042.50,3451.12519384,N,12142.31989426,W,2,13,0.8,6.611,M,-38.716,M,4.4,0131*6D
$PYRTM,2024,125.917158593588,17.026806003727
$GNHDT,116.504,T*2C
$PYRTM,2024,125.917164435752,17.026811845891
$GNGGA,220043.00,3451.12462273,N,12142.31885189,W,2,13,0.8,6.563,M,-38.716,M,5.0,0131*63
$PYRTM,2024,125.917164435752,17.026811845891
$GNHDT,116.410,T*28
$PYRTM,2024,125.917170164595,17.026817574734
$GNGGA,220043.50,3451.12405830,N,12142.31782718,W,2,13,0.8,6.526,M,-38.716,M,5.4,0131*69
$PYRTM,2024,125.917170164595,17.026817574734
$GNHDT,116.232,T*2E
$PYRTM,2024,125.917176007593,17.026823417731
$GNGGA,220044.00,3451.12349777,N,12142.31682965,W,2,13,0.8,6.490,M,-38.715,M,6.0,0131*65
$PYRTM,2024,125.917176007593,17.026823417731
$GNHDT,116.471,T*2F
$PYRTM,2024,125.917181741435,17.026829151574
$GNGGA,220044.50,3451.12293890,N,12142.31586867,W,2,13,0.8,6.506,M,-38.715,M,6.4,0131*6E
$PYRTM,2024,125.917181741435,17.026829151574
$GNHDT,116.913,T*26
$PYRTM,2024,125.917187582616,17.026834992755
$GNGGA,220045.00,3451.12238737,N,12142.31493246,W,2,13,0.8,6.527,M,-38.715,M,7.0,0131*63
$PYRTM,2024,125.917187582616,17.026834992755
$GNHDT,117.527,T*2C
$PYRTM,2024,125.917193312164,17.026840722315
$GNGGA,220045.50,3451.12182543,N,12142.31402810,W,2,13,0.8,6.609,M,-38.715,M,7.4,0131*6F
$PYRTM,2024,125.917193312164,17.026840722315
$GNHDT,118.269,T*2E
$PYRTM,2024,125.917199158333,17.026846568472
$GNGGA,220046.00,3451.12125827,N,12142.31311559,W,2,13,0.8,6.688,M,-38.715,M,7.0,0131*63
$PYRTM,2024,125.917199158333,17.026846568472
$GNHDT,118.866,T*2B
$PYRTM,2024,125.917204890556,17.026852300694
$GNGGA,220046.50,3451.12068886,N,12142.31217764,W,2,13,0.8,6.747,M,-38.715,M,7.4,0131*68
$PYRTM,2024,125.917204890556,17.026852300694
$GNHDT,119.423,T*27
$PYRTM,2024,125.917210733773,17.026858143912
$GNGGA,220047.00,3451.12012832,N,12142.31119580,W,2,13,0.8,6.813,M,-38.715,M,7.0,0131*61
$PYRTM,2024,125.917210733773,17.026858143912
$GNHDT,119.719,T*2D
$PYRTM,2024,125.917216460995,17.026863871134
$GNGGA,220047.50,3451.11959072,N,12142.31016145,W,2,13,0.8,6.837,M,-38.715,M,7.4,0131*6C
$PYRTM,2024,125.917216460995,17.026863871134
$GNHDT,120.087,T*27
$PYRTM,2024,125.917222309433,17.026869719572
$GNGGA,220048.00,3451.11907096,N,12142.30908308,W,2,13,0.8,6.885,M,-38.715,M,4.0,0131*65
$PYRTM,2024,125.917222309433,17.026869719572
$GNHDT,119.871,T*2C
$PYRTM,2024,125.917228034618,17.026875444757
$GNGGA,220048.50,3451.11855433,N,12142.30796712,W,2,13,0.8,6.943,M,-38.715,M,4.4,0131*64
$PYRTM,2024,125.917228034618,17.026875444757
$GNHDT,119.293,T*2A
$PYRTM,2024,125.917233876991,17.026881287130
$GNGGA,220049.00,3451.11801883,N,12142.30682213,W,2,13,0.8,6.996,M,-38.715,M,5.0,0131*6B
$PYRTM,2024,125.917233876991,17.026881287130
$GNHDT,118.807,T*2C
$PYRTM,2024,125.917239611597,17.026887021736
$GNGGA,220049.50,3451.11744365,N,12142.30566840,W,2,13,0.8,7.066,M,-38.715,M,5.4,0131*65
$PYRTM,2024,125.917239611597,17.026887021736
$GNHDT,118.235,T*27
$PYRTM,2024,125.917245450914,17.026892861053
$GNGGA,220050.00,3451.11682837,N,12142.30450940,W,2,13,0.8,7.093,M,-38.715,M,6.0,0131*67
$PYRTM,2024,125.917245450914,17.026892861053
$GNHDT,117.483,T*23
$PYRTM,2024,125.917251184502,17.026898594641
$GNGGA,220050.50,3451.11616549,N,12142.30336740,W,2,13,0.8,7.104,M,-38.715,M,6.4,0131*69
$PYRTM,2024,125.917251184502,17.026898594641
$GNHDT,117.016,T*2B
$PYRTM,2024,125.917257028113,17.026904438252
$GNGGA,220051.00,3451.11547403,N,12142.30223129,W,2,13,0.8,7.082,M,-38.715,M,7.0,0131*63
$PYRTM,2024,125.917257028113,17.026904438252
$GNHDT,116.628,T*21
$PYRTM,2024,125.917262757245,17.026910167384
$GNGGA,220051.50,3451.11478530,N,12142.30110323,W,2,13,0.8,7.040,M,-38.715,M,7.4,0131*6B
$PYRTM,2024,125.917262757245,17.026910167384
$GNHDT,116.439,T*23
$PYRTM,2024,125.917268597928,17.026916008067
$GNGGA,220052.00,3451.11412737,N,12142.29998224,W,2,13,0.8,6.979,M,-38.715,M,7.0,0131*64
$PYRTM,2024,125.917268597928,17.026916008067
$GNHDT,116.390,T*27
$PYRTM,2024,125.917274332986,17.026921743125
$GNGGA,220052.50,3451.11349030,N,12142.29889985,W,2,13,0.8,6.908,M,-38.715,M,7.4,0131*6B
$PYRTM,2024,125.917274332986,17.026921743125
$GNHDT,116.799,T*2A
$PYRTM,2024,125.917280176134,17.026927586273
$GNGGA,220053.00,3451.11287890,N,12142.29785238,W,2,13,0.8,6.832,M,-38.715,M,7.0,0131*6C
$PYRTM,2024,125.917280176134,17.026927586273
$GNHDT,117.135,T*2B
$PYRTM,2024,125.917285903981,17.026933314132
$GNGGA,220053.50,3451.11230020,N,12142.29684337,W,2,13,0.8,6.755,M,-38.715,M,7.4,0131*62
$PYRTM,2024,125.917285903981,17.026933314132
$GNHDT,117.833,T*24
$PYRTM,2024,125.917291751215,17.026939161366
$GNGGA,220054.00,3451.11172604,N,12142.29587710,W,2,13,0.8,6.689,M,-38.715,M,4.0,0131*63
$PYRTM,2024,125.917291751215,17.026939161366
$GNHDT,118.275,T*23
$PYRTM,2024,125.917297479086,17.026944889225
$GNGGA,220054.50,3451.11119120,N,12142.29490359,W,2,13,0.8,6.603,M,-38.715,M,4.4,0131*62
$PYRTM,2024,125.917297479086,17.026944889225
$GNHDT,118.606,T*23
$PYRTM,2024,125.917303325081,17.026950735220
$GNGGA,220055.00,3451.11066119,N,12142.29393666,W,2,13,0.8,6.497,M,-38.715,M,5.0,0131*62
$PYRTM,2024,125.917303325081,17.026950735220
$GNHDT,118.994,T*27
$PYRTM,2024,125.917309053472,17.026956463623
$GNGGA,220055.50,3451.11011117,N,12142.29299357,W,2,13,0.8,6.427,M,-38.715,M,5.4,0131*6A
$PYRTM,2024,125.917309053472,17.026956463623
$GNHDT,119.430,T*25
$PYRTM,2024,125.917314898148,17.026962308287
$GNGGA,220056.00,3451.10955169,N,12142.29206091,W,2,13,0.8,6.409,M,-38.715,M,6.0,0131*69
$PYRTM,2024,125.917314898148,17.026962308287
$GNHDT,119.673,T*20
$PYRTM,2024,125.917320629074,17.026968039213
$GNGGA,220056.50,3451.10898913,N,12142.29113896,W,2,13,0.8,6.445,M,-38.715,M,6.4,0131*6D
$PYRTM,2024,125.917320629074,17.026968039213
$GNHDT,119.779,T*2B
$PYRTM,2024,125.917326470313,17.026973880451
$GNGGA,220057.00,3451.10841992,N,12142.29021604,W,2,13,0.8,6.547,M,-38.715,M,7.0,0131*67
$PYRTM,2024,125.917326470313,17.026973880451
$GNHDT,119.824,T*2C
$PYRTM,2024,125.917332207350,17.026979617488
$GNGGA,220057.50,3451.10787474,N,12142.28923514,W,2,13,0.8,6.609,M,-38.715,M,7.4,0131*67
$PYRTM,2024,125.917332207350,17.026979617488
$GNHDT,120.052,T*2F
$PYRTM,2024,125.917338048507,17.026985458646
$GNGGA,220058.00,3451.10729486,N,12142.28822553,W,2,13,0.8,6.691,M,-38.715,M,7.0,0131*62
$PYRTM,2024,125.917338048507,17.026985458646
$GNHDT,119.863,T*2F
$PYRTM,2024,125.917343777199,17.026991187338
$GNGGA,220058.50,3451.10670193,N,12142.28716588,W,2,13,0.8,6.723,M,-38.714,M,7.4,0131*68
$PYRTM,2024,125.917343777199,17.026991187338
$GNHDT,119.625,T*23
$PYRTM,2024,125.917349621319,17.026997031458
$GNGGA,220059.00,3451.10606580,N,12142.28607224,W,2,13,0.8,6.773,M,-38.714,M,7.0,0131*6A
$PYRTM,2024,125.917349621319,17.026997031458
$GNHDT,119.276,T*21
$PYRTM,2024,125.917355357188,17.027002767326
$GNGGA,220059.50,3451.10540076,N,12142.28495184,W,2,13,0.8,6.852,M,-38.714,M,7.4,0131*6A
$PYRTM,2024,125.917355357188,17.027002767326
$GNHDT,118.707,T*23
$PYRTM,2024,125.917361197512,17.027008607650
$GNGGA,220100.00,3451.10470164,N,12142.28380830,W,2,13,0.8,6.998,M,-38.714,M,4.0,0131*67
$PYRTM,2024,125.917361197512,17.027008607650
$GNHDT,118.047,T*20
$PYRTM,2024,125.917366926597,17.027014336748
$GNGGA,220100.50,3451.10399833,N,12142.28264064,W,2,13,0.8,7.182,M,-38.714,M,4.4,0131*6D
$PYRTM,2024,125.917366926597,17.027014336748
$GNHDT,117.560,T*2F
$PYRTM,2024,125.917372766273,17.027020176424
$GNGGA,220101.00,3451.10328150,N,12142.28146471,W,2,13,0.8,7.391,M,-38.714,M,5.0,0131*69
$PYRTM,2024,125.917372766273,17.027020176424
$GNHDT,117.156,T*2E
$PYRTM,2024,125.917378500949,17.027025911100
$GNGGA,220101.50,3451.10260358,N,12142.28027401,W,2,13,0.8,7.580,M,-38.714,M,5.4,0131*68
$PYRTM,2024,125.917378500949,17.027025911100
$GNHDT,116.847,T*26
$PYRTM,2024,125.917384344549,17.027031754687
$GNGGA,220102.00,3451.10195664,N,12142.27908619,W,2,13,0.8,7.732,M,-38.714,M,6.0,0131*61
$PYRTM,2024,125.917384344549,17.027031754687
$GNHDT,116.808,T*2D
$PYRTM,2024,125.917390071701,17.027037481840
$GNGGA,220102.50,3451.10134747,N,12142.27790652,W,2,13,0.8,7.791,M,-38.714,M,6.4,0131*62
$PYRTM,2024,125.917390071701,17.027037481840
$GNHDT,116.900,T*24
$PYRTM,2024,125.917395916076,17.027043326215
$GNGGA,220103.00,3451.10075029,N,12142.27674374,W,2,13,0.8,7.730,M,-38.714,M,7.0,0131*69
$PYRTM,2024,125.917395916076,17.027043326215
$GNHDT,117.114,T*28
$PYRTM,2024,125.917401648391,17.027049058530
$GNGGA,220103.50,3451.10015142,N,12142.27561469,W,2,13,0.8,7.550,M,-38.714,M,7.4,0131*6A
$PYRTM,2024,125.917401648391,17.027049058530
$GNHDT,117.155,T*2D
$PYRTM,2024,125.917407492581,17.027054902720
$GNGGA,220104.00,3451.09953994,N,12142.27453530,W,2,13,0.8,7.309,M,-38.714,M,7.0,0131*6B
$PYRTM,2024,125.917407492581,17.027054902720
$GNHDT,117.333,T*2F
$PYRTM,2024,125.917413219306,17.027060629444
$GNGGA,220104.50,3451.09891713,N,12142.27351584,W,2,13,0.8,7.060,M,-38.714,M,7.4,0131*62
$PYRTM,2024,125.917413219306,17.027060629444
$GNHDT,117.578,T*26
$PYRTM,2024,125.917419064514,17.027066474653
$GNGGA,220105.00,3451.09826631,N,12142.27259121,W,2,13,0.8,6.892,M,-38.714,M,7.0,0131*69
$PYRTM,2024,125.917419064514,17.027066474653
$GNHDT,117.826,T*20
$PYRTM,2024,125.917424795382,17.027072205532
$GNGGA,220105.50,3451.09771660,N,12142.27163419,W,2,13,0.8,6.706,M,-38.714,M,7.4,0131*67
$PYRTM,2024,125.917424795382,17.027072205532
$GNHDT,117.887,T*2B
$PYRTM,2024,125.917430638924,17.027078049074
$GNGGA,220106.00,3451.09721632,N,12142.27067947,W,2,13,0.8,6.574,M,-38.714,M,4.0,0131*60
$PYRTM,2024,125.917430638924,17.027078049074
$GNHDT,117.852,T*23
$PYRTM,2024,125.917436370833,17.027083780984
$GNGGA,220106.50,3451.09674880,N,12142.26971049,W,2,13,0.8,6.514,M,-38.714,M,4.4,0131*69
$PYRTM,2024,125.917436370833,17.027083780984
$GNHDT,117.947,T*26
$PYRTM,2024,125.917442216644,17.027089626782
$GNGGA,220107.00,3451.09633657,N,12142.26868140,W,2,13,0.8,6.472,M,-38.714,M,5.0,0131*6F
$PYRTM,2024,125.917442216644,17.027089626782
$GNHDT,117.629,T*21
$PYRTM,2024,125.917447945706,17.027095355845
$GNGGA,220107.50,3451.09590967,N,12142.26762378,W,2,13,0.8,6.451,M,-38.714,M,5.4,0131*65
$PYRTM,2024,125.917447945706,17.027095355845
$GNHDT,117.852,T*23
$PYRTM,2024,125.917453793507,17.027101203657
$GNGGA,220108.00,3451.09544436,N,12142.26653581,W,2,13,0.8,6.467,M,-38.714,M,6.0,0131*6E
$PYRTM,2024,125.917453793507,17.027101203657
$GNHDT,117.487,T*27
$PYRTM,2024,125.917459516019,17.027106926157
$GNGGA,220108.50,3451.09490736,N,12142.26544293,W,2,13,0.8,6.548,M,-38.714,M,6.4,0131*69
$PYRTM,2024,125.917459516019,17.027106926157
$GNHDT,117.179,T*23
$PYRTM,2024,125.917465359178,17.027112769317
$GNGGA,220109.00,3451.09431524,N,12142.26432456,W,2,13,0.8,6.726,M,-38.714,M,7.0,0131*67
$PYRTM,2024,125.917465359178,17.027112769317
$GNHDT,116.858,T*28
$PYRTM,2024,125.917471097130,17.027118507269
$GNGGA,220109.50,3451.09366073,N,12142.26321088,W,2,13,0.8,6.994,M,-38.714,M,7.4,0131*61
$PYRTM,2024,125.917471097130,17.027118507269
$GNHDT,116.319,T*26
$PYRTM,2024,125.917476934201,17.027124344340
$GNGGA,220110.00,3451.09299088,N,12142.26206505,W,2,13,0.8,7.318,M,-38.714,M,7.0,0131*66
$PYRTM,2024,125.917476934201,17.027124344340
$GNHDT,115.650,T*2D
$PYRTM,2024,125.917482664942,17.027130075081
$GNGGA,220110.50,3451.09231533,N,12142.26090201,W,2,13,0.8,7.636,M,-38.714,M,7.4,0131*67
$PYRTM,2024,125.917482664942,17.027130075081
$GNHDT,115.513,T*29
$PYRTM,2024,125.917488511667,17.027135921806
$GNGGA,220111.00,3451.09165034,N,12142.25971779,W,2,13,0.8,7.891,M,-38.714,M,7.0,0131*6B
$PYRTM,2024,125.917488511667,17.027135921806
$GNHDT,115.760,T*2F
$PYRTM,2024,125.917494241435,17.027141651586
$GNGGA,220111.50,3451.09099540,N,12142.25852643,W,2,13,0.8,8.053,M,-38.714,M,7.4,0131*6F
$PYRTM,2024,125.917494241435,17.027141651586
$GNHDT,116.093,T*27
$PYRTM,2024,125.917500084618,17.027147494757
$GNGGA,220112.00,3451.09031943,N,12142.25736615,W,2,13,0.8,8.150,M,-38.714,M,4.0,0131*6F
$PYRTM,2024,125.917500084618,17.027147494757
$GNHDT,116.453,T*2F
$PYRTM,2024,125.917505813970,17.027153224109
$GNGGA,220112.50,3451.08968156,N,12142.25618107,W,2,13,0.8,8.063,M,-38.714,M,4.4,0131*6E
$PYRTM,2024,125.917505813970,17.027153224109
$GNHDT,117.086,T*22
$PYRTM,2024,125.917511655914,17.027159066053
$GNGGA,220113.00,3451.08905007,N,12142.25500378,W,2,13,0.8,7.848,M,-38.714,M,5.0,0131*6F
$PYRTM,2024,125.917511655914,17.027159066053
$GNHDT,117.503,T*2A
$PYRTM,2024,125.917517385683,17.027164795822
$GNGGA,220113.50,3451.08841733,N,12142.25385709,W,2,13,0.8,7.561,M,-38.714,M,5.4,0131*60
$PYRTM,2024,125.917517385683,17.027164795822
$GNHDT,117.753,T*2D
$PYRTM,2024,125.917523230845,17.027170640984
$GNGGA,220114.00,3451.08780436,N,12142.25273893,W,2,13,0.8,7.269,M,-38.713,M,6.0,0131*6D
$PYRTM,2024,125.917523230845,17.027170640984
$GNHDT,117.843,T*23
$PYRTM,2024,125.917528961563,17.027176371701
$GNGGA,220114.50,3451.08722607,N,12142.25165672,W,2,13,0.8,7.043,M,-38.713,M,6.4,0131*6B
$PYRTM,2024,125.917528961563,17.027176371701
$GNHDT,117.817,T*22
$PYRTM,2024,125.917534804039,17.027182214178
$GNGGA,220115.00,3451.08670206,N,12142.25061456,W,2,13,0.8,6.936,M,-38.713,M,7.0,0131*62
$PYRTM,2024,125.917534804039,17.027182214178
$GNHDT,117.902,T*27
$PYRTM,2024,125.917540538565,17.027187948704
$GNGGA,220115.50,3451.08621155,N,12142.24961545,W,2,13,0.8,6.922,M,-38.713,M,7.4,0131*6C
$PYRTM,2024,125.917540538565,17.027187948704
$GNHDT,118.051,T*27
$PYRTM,2024,125.917546380683,17.027193790822
$GNGGA,220116.00,3451.08572804,N,12142.24864183,W,2,13,0.8,6.922,M,-38.713,M,7.0,0131*6C
$PYRTM,2024,125.917546380683,17.027193790822
$GNHDT,118.386,T*2E
$PYRTM,2024,125.917552109201,17.027199519340
$GNGGA,220116.50,3451.08522288,N,12142.24767137,W,2,13,0.8,6.867,M,-38.713,M,7.4,0131*65
$PYRTM,2024,125.917552109201,17.027199519340
$GNHDT,118.722,T*24
$PYRTM,2024,125.917557956238,17.027205366389
$GNGGA,220117.00,3451.08469290,N,12142.24668804,W,2,13,0.8,6.706,M,-38.713,M,7.0,0131*6D
$PYRTM,2024,125.917557956238,17.027205366389
$GNHDT,118.956,T*29
$PYRTM,2024,125.917563686794,17.027211096933
$GNGGA,220117.50,3451.08414888,N,12142.24567794,W,2,13,0.8,6.463,M,-38.713,M,7.4,0131*6F
$PYRTM,2024,125.917563686794,17.027211096933
$GNHDT,118.905,T*2F
$PYRTM,2024,125.917569525891,17.027216936030
$GNGGA,220118.00,3451.08355790,N,12142.24466380,W,2,13,0.8,6.266,M,-38.713,M,4.0,0131*64
$PYRTM,2024,125.917569525891,17.027216936030
$GNHDT,118.814,T*2E
$PYRTM,2024,125.917575261701,17.027222671840
$GNGGA,220118.50,3451.08298137,N,12142.24360916,W,2,13,0.8,6.129,M,-38.713,M,4.4,0131*62
$PYRTM,2024,125.917575261701,17.027222671840
$GNHDT,117.674,T*29
$PYRTM,2024,125.917581101863,17.027228512002
$GNGGA,220119.00,3451.08241505,N,12142.24252437,W,2,13,0.8,6.142,M,-38.713,M,5.0,0131*61
$PYRTM,2024,125.917581101863,17.027228512002
$GNHDT,117.189,T*2C
$PYRTM,2024,125.917586831377,17.027234241528
$GNGGA,220119.50,3451.08182484,N,12142.24142538,W,2,13,0.8,6.353,M,-38.713,M,5.4,0131*6A
$PYRTM,2024,125.917586831377,17.027234241528
$GNHDT,116.850,T*20
$PYRTM,2024,125.917592680891,17.027240091030
$GNGGA,220120.00,3451.08122176,N,12142.24029787,W,2,13,0.8,6.695,M,-38.713,M,6.0,0131*65
$PYRTM,2024,125.917592680891,17.027240091030
$GNHDT,116.438,T*22
$PYRTM,2024,125.917598410440,17.027245820579
$GNGGA,220120.50,3451.08060537,N,12142.23914682,W,2,13,0.8,7.073,M,-38.713,M,6.4,0131*69
$PYRTM,2024,125.917598410440,17.027245820579
$GNHDT,116.104,T*28
$PYRTM,2024,125.917604248472,17.027251658611
$GNGGA,220121.00,3451.07995359,N,12142.23798753,W,2,13,0.8,7.405,M,-38.713,M,7.0,0131*68
$PYRTM,2024,125.917604248472,17.027251658611
$GNHDT,116.260,T*29
$PYRTM,2024,125.917609981181,17.027257391319
$GNGGA,220121.50,3451.07928209,N,12142.23682535,W,2,13,0.8,7.614,M,-38.713,M,7.4,0131*61
$PYRTM,2024,125.917609981181,17.027257391319
$GNHDT,116.537,T*2C
$PYRTM,2024,125.917615829201,17.027263239340
$GNGGA,220122.00,3451.07859400,N,12142.23568336,W,2,13,0.8,7.705,M,-38.713,M,7.0,0131*68
$PYRTM,2024,125.917615829201,17.027263239340
$GNHDT,117.136,T*28
$PYRTM,2024,125.917621557130,17.027268967269
$GNGGA,220122.50,3451.07789535,N,12142.23457984,W,2,13,0.8,7.691,M,-38.713,M,7.4,0131*6E
$PYRTM,2024,125.917621557130,17.027268967269
$GNHDT,117.720,T*29
$PYRTM,2024,125.917627402917,17.027274813056
$GNGGA,220123.00,3451.07720626,N,12142.23350309,W,2,13,0.8,7.621,M,-38.713,M,7.0,0131*68
$PYRTM,2024,125.917627402917,17.027274813056
$GNHDT,118.104,T*26
$PYRTM,2024,125.917633128970,17.027280539109
$GNGGA,220123.50,3451.07655536,N,12142.23242523,W,2,13,0.8,7.508,M,-38.713,M,7.4,0131*6C
$PYRTM,2024,125.917633128970,17.027280539109
$GNHDT,118.630,T*26
$PYRTM,2024,125.917638970116,17.027286380255
$GNGGA,220124.00,3451.07595998,N,12142.23132786,W,2,13,0.8,7.349,M,-38.713,M,4.0,0131*64
$PYRTM,2024,125.917638970116,17.027286380255
$GNHDT,118.678,T*2A
$PYRTM,2024,125.917644705046,17.027292115185
$GNGGA,220124.50,3451.07541853,N,12142.23021025,W,2,13,0.8,7.195,M,-38.713,M,4.4,0131*64
$PYRTM,2024,125.917644705046,17.027292115185
$GNHDT,118.676,T*24
$PYRTM,2024,125.917650545914,17.027297956053
$GNGGA,220125.00,3451.07491979,N,12142.22908470,W,2,13,0.8,7.036,M,-38.713,M,5.0,0131*6F
$PYRTM,2024,125.917650545914,17.027297956053
$GNHDT,118.251,T*25
$PYRTM,2024,125.917656276759,17.027303686898
$GNGGA,220125.50,3451.07443894,N,12142.22797008,W,2,13,0.8,6.914,M,-38.713,M,5.4,0131*68
$PYRTM,2024,125.917656276759,17.027303686898
$GNHDT,117.970,T*22
$PYRTM,2024,125.917662122593,17.027309532731
$GNGGA,220126.00,3451.07396224,N,12142.22687774,W,2,13,0.8,6.796,M,-38.713,M,6.0,0131*6F
$PYRTM,2024,125.917662122593,17.027309532731
$GNHDT,117.694,T*27
$PYRTM,2024,125.917667852662,17.027315262813
$GNGGA,220126.50,3451.07347438,N,12142.22581134,W,2,13,0.8,6.707,M,-38.713,M,6.4,0131*66
$PYRTM,2024,125.917667852662,17.027315262813
$GNHDT,117.274,T*2D
$PYRTM,2024,125.917673696319,17.027321106458
$GNGGA,220127.00,3451.07296284,N,12142.22476599,W,2,13,0.8,6.664,M,-38.713,M,7.0,0131*65
$PYRTM,2024,125.917673696319,17.027321106458
$GNHDT,116.994,T*29
$PYRTM,2024,125.917679428958,17.027326839097
$GNGGA,220127.50,3451.07242292,N,12142.22374321,W,2,13,0.8,6.655,M,-38.713,M,7.4,0131*68
$PYRTM,2024,125.917679428958,17.027326839097
$GNHDT,117.054,T*2D
$PYRTM,2024,125.917685271319,17.027332681458
$GNGGA,220128.00,3451.07186418,N,12142.22272690,W,2,13,0.8,6.682,M,-38.713,M,7.0,0131*6B
$PYRTM,2024,125.917685271319,17.027332681458
$GNHDT,117.089,T*2D
$PYRTM,2024,125.917691003426,17.027338413565
$GNGGA,220128.50,3451.07130012,N,12142.22169778,W,2,13,0.8,6.703,M,-38.713,M,7.4,0131*6F
$PYRTM,2024,125.917691003426,17.027338413565
$GNHDT,117.325,T*28
$PYRTM,2024,125.917696845220,17.027344255359
$GNGGA,220129.00,3451.07072494,N,12142.22064940,W,2,13,0.8,6.756,M,-38.713,M,7.0,0131*6B
$PYRTM,2024,125.917696845220,17.027344255359
$GNHDT,117.538,T*22
$PYRTM,2024,125.917702572801,17.027349982940
$GNGGA,220129.50,3451.07014191,N,12142.21956570,W,2,13,0.8,6.813,M,-38.713,M,7.4,0131*60
$PYRTM,2024,125.917702572801,17.027349982940
$GNHDT,117.404,T*2C
$PYRTM,2024,125.917708419618,17.027355829757
$GNGGA,220130.00,3451.06953037,N,12142.21845606,W,2,13,0.8,6.876,M,-38.713,M,4.0,0131*6E
$PYRTM,2024,125.917708419618,17.027355829757
$GNHDT,117.461,T*2F
$PYRTM,2024,125.917714149329,17.027361559468
$GNGGA,220130.50,3451.06889413,N,12142.21732977,W,2,13,0.8,6.942,M,-38.712,M,4.4,0131*6A
$PYRTM,2024,125.917714149329,17.027361559468
$GNHDT,117.300,T*2F
$PYRTM,2024,125.917719994722,17.027367404861
$GNGGA,220131.00,3451.06822410,N,12142.21619704,W,2,13,0.8,7.019,M,-38.712,M,5.0,0131*6D
$PYRTM,2024,125.917719994722,17.027367404861
$GNHDT,117.273,T*2A
$PYRTM,2024,125.917725720324,17.027373130463
$GNGGA,220131.50,3451.06756393,N,12142.21504288,W,2,13,0.8,7.090,M,-38.712,M,5.4,0131*63
$PYRTM,2024,125.917725720324,17.027373130463
$GNHDT,116.680,T*23
$PYRTM,2024,125.917731564988,17.027378975127
$GNGGA,220132.00,3451.06691773,N,12142.21386837,W,2,13,0.8,7.162,M,-38.712,M,6.0,0131*6C
$PYRTM,2024,125.917731564988,17.027378975127
$GNHDT,116.248,T*23
$PYRTM,2024,125.917737295463,17.027384705613
$GNGGA,220132.50,3451.06628683,N,12142.21268827,W,2,13,0.8,7.250,M,-38.712,M,6.4,0131*63
$PYRTM,2024,125.917737295463,17.027384705613
$GNHDT,115.904,T*23
$PYRTM,2024,125.917743139873,17.027390550023
$GNGGA,220133.00,3451.06568537,N,12142.21148681,W,2,13,0.8,7.312,M,-38.712,M,7.0,0131*6D
$PYRTM,2024,125.917743139873,17.027390550023
$GNHDT,115.354,T*2C
$PYRTM,2024,125.917748870347,17.027396280486
$GNGGA,220133.50,3451.06508828,N,12142.21030377,W,2,13,0.8,7.350,M,-38.712,M,7.4,0131*6D
$PYRTM,2024,125.917748870347,17.027396280486
$GNHDT,114.699,T*29
$PYRTM,2024,125.917754713194,17.027402123333
$GNGGA,220134.00,3451.06447159,N,12142.20915670,W,2,13,0.8,7.329,M,-38.712,M,7.0,0131*6D
$PYRTM,2024,125.917754713194,17.027402123333
$GNHDT,114.428,T*21
$PYRTM,2024,125.917760444722,17.027407854861
$GNGGA,220134.50,3451.06383661,N,12142.20805870,W,2,13,0.8,7.242,M,-38.712,M,7.4,0131*6D
$PYRTM,2024,125.917760444722,17.027407854861
$GNHDT,114.499,T*2B
$PYRTM,2024,125.917766289653,17.027413699792
$GNGGA,220135.00,3451.06318363,N,12142.20701860,W,2,13,0.8,7.125,M,-38.712,M,7.0,0131*60
$PYRTM,2024,125.917766289653,17.027413699792
$GNHDT,114.574,T*29
$PYRTM,2024,125.917772017211,17.027419427350
$GNGGA,220135.50,3451.06255155,N,12142.20600993,W,2,13,0.8,6.969,M,-38.712,M,7.4,0131*62
$PYRTM,2024,125.917772017211,17.027419427350
$GNHDT,115.116,T*28
$PYRTM,2024,125.917777864560,17.027425274699
$GNGGA,220136.00,3451.06196514,N,12142.20501004,W,2,13,0.8,6.807,M,-38.712,M,4.0,0131*62
$PYRTM,2024,125.917777864560,17.027425274699
$GNHDT,115.720,T*2B
$PYRTM,2024,125.917783593322,17.027431003461
$GNGGA,220136.50,3451.06141428,N,12142.20403144,W,2,13,0.8,6.643,M,-38.712,M,4.4,0131*6F
$PYRTM,2024,125.917783593322,17.027431003461
$GNHDT,116.393,T*24
$PYRTM,2024,125.917789438113,17.027436848252
$GNGGA,220137.00,3451.06088590,N,12142.20305623,W,2,13,0.8,6.532,M,-38.712,M,5.0,0131*6A
$PYRTM,2024,125.917789438113,17.027436848252
$GNHDT,117.299,T*2E
$PYRTM,2024,125.917795166840,17.027442576979
$GNGGA,220137.50,3451.06036587,N,12142.20207678,W,2,13,0.8,6.474,M,-38.712,M,5.4,0131*66
$PYRTM,2024,125.917795166840,17.027442576979
$GNHDT,118.445,T*26
$PYRTM,2024,125.917801012199,17.027448422350
$GNGGA,220138.00,3451.05985585,N,12142.20106005,W,2,13,0.8,6.463,M,-38.712,M,6.0,0131*63
$PYRTM,2024,125.917801012199,17.027448422350
$GNHDT,119.358,T*2C
$PYRTM,2024,125.917806746956,17.027454157095
$GNGGA,220138.50,3451.05932584,N,12142.20001784,W,2,13,0.8,6.492,M,-38.712,M,6.4,0131*69
$PYRTM,2024,125.917806746956,17.027454157095
$GNHDT,119.861,T*2D
$PYRTM,2024,125.917812585949,17.027459996088
$GNGGA,220139.00,3451.05880705,N,12142.19891747,W,2,13,0.8,6.564,M,-38.712,M,7.0,0131*67
$PYRTM,2024,125.917812585949,17.027459996088
$GNHDT,120.020,T*2A
$PYRTM,2024,125.917818313495,17.027465723634
$GNGGA,220139.50,3451.05828458,N,12142.19776857,W,2,13,0.8,6.702,M,-38.712,M,7.4,0131*65
$PYRTM,2024,125.917818313495,17.027465723634
$GNHDT,119.951,T*2F
$PYRTM,2024,125.917824160093,17.027471570231
$GNGGA,220140.00,3451.05777040,N,12142.19656700,W,2,13,0.8,6.894,M,-38.712,M,7.0,0131*6C
$PYRTM,2024,125.917824160093,17.027471570231
$GNHDT,119.309,T*28
$PYRTM,2024,125.917829891169,17.027477301308
$GNGGA,220140.50,3451.05724501,N,12142.19534818,W,2,13,0.8,7.146,M,-38.712,M,7.4,0131*6D
$PYRTM,2024,125.917829891169,17.027477301308
$GNHDT,118.581,T*2F
$PYRTM,2024,125.917835731563,17.027483141701
$GNGGA,220141.00,3451.05668509,N,12142.19413702,W,2,13,0.8,7.378,M,-38.712,M,7.0,0131*63
$PYRTM,2024,125.917835731563,17.027483141701
$GNHDT,117.936,T*20
$PYRTM,2024,125.917841463970,17.027488874109
$GNGGA,220141.50,3451.05608078,N,12142.19294674,W,2,13,0.8,7.556,M,-38.712,M,7.4,0131*64
$PYRTM,2024,125.917841463970,17.027488874109
$GNHDT,117.261,T*29
$PYRTM,2024,125.917847309190,17.027494719329
$GNGGA,220142.00,3451.05541822,N,12142.19178509,W,2,13,0.8,7.657,M,-38.712,M,4.0,0131*66
$PYRTM,2024,125.917847309190,17.027494719329
$GNHDT,116.759,T*26
$PYRTM,2024,125.917853043634,17.027500453773
$GNGGA,220142.50,3451.05473187,N,12142.19063854,W,2,12,0.8,7.621,M,-38.712,M,4.4,0131*6F
$PYRTM,2024,125.917853043634,17.027500453773
$GNHDT,116.286,T*21
$PYRTM,2024,125.917858888021,17.027506298160
$GNGGA,220143.00,3451.05402463,N,12142.18952576,W,2,13,0.8,7.508,M,-38.712,M,5.0,0131*69
$PYRTM,2024,125.917858888021,17.027506298160
$GNHDT,116.043,T*2A
$PYRTM,2024,125.917864611088,17.027512021227
$GNGGA,220143.50,3451.05330649,N,12142.18845603,W,2,13,0.8,7.380,M,-38.711,M,5.4,0131*67
$PYRTM,2024,125.917864611088,17.027512021227
$GNHDT,116.084,T*21
$PYRTM,2024,125.917870455961,17.027517866100
$GNGGA,220144.00,3451.05261059,N,12142.18741542,W,2,13,0.8,7.291,M,-38.711,M,6.0,0131*6C
$PYRTM,2024,125.917870455961,17.027517866100
$GNHDT,116.220,T*2D
$PYRTM,2024,125.917876186065,17.027523596204
$GNGGA,220144.50,3451.05195740,N,12142.18639268,W,2,13,0.8,7.250,M,-38.711,M,6.4,0131*66
$PYRTM,2024,125.917876186065,17.027523596204
$GNHDT,116.397,T*20
$PYRTM,2024,125.917882027037,17.027529437176
$GNGGA,220145.00,3451.05136187,N,12142.18536607,W,2,13,0.8,7.234,M,-38.711,M,7.0,0131*60
$PYRTM,2024,125.917882027037,17.027529437176
$GNHDT,116.609,T*22
$PYRTM,2024,125.917887758333,17.027535168472
$GNGGA,220145.50,3451.05081164,N,12142.18432008,W,2,13,0.8,7.178,M,-38.711,M,7.4,0131*66
$PYRTM,2024,125.917887758333,17.027535168472
$GNHDT,116.802,T*27
$PYRTM,2024,125.917893601817,17.027541011956
$GNGGA,220146.00,3451.05029183,N,12142.18325862,W,2,13,0.8,7.073,M,-38.711,M,7.0,0131*60
$PYRTM,2024,125.917893601817,17.027541011956
$GNHDT,116.945,T*25
$PYRTM,2024,125.917899330845,17.027546740984
$GNGGA,220146.50,3451.04977369,N,12142.18219850,W,2,13,0.8,6.872,M,-38.711,M,7.4,0131*63
$PYRTM,2024,125.917899330845,17.027546740984
$GNHDT,117.328,T*25
$PYRTM,2024,125.917905176748,17.027552586887
$GNGGA,220147.00,3451.04923460,N,12142.18114712,W,2,13,0.8,6.633,M,-38.711,M,7.0,0131*60
$PYRTM,2024,125.917905176748,17.027552586887
$GNHDT,117.282,T*24
$PYRTM,2024,125.917910908160,17.027558318310
$GNGGA,220147.50,3451.04867953,N,12142.18009199,W,2,13,0.8,6.409,M,-38.711,M,7.4,0131*6E
$PYRTM,2024,125.917910908160,17.027558318310
$GNHDT,117.198,T*2C
$PYRTM,2024,125.917916749109,17.027564159259
$GNGGA,220148.00,3451.04807332,N,12142.17905669,W,2,13,0.8,6.314,M,-38.711,M,4.0,0131*61
$PYRTM,2024,125.917916749109,17.027564159259
$GNHDT,117.045,T*2D
$PYRTM,2024,125.917922482211,17.027569892350
$GNGGA,220148.50,3451.04746503,N,12142.17800414,W,2,13,0.8,6.308,M,-38.711,M,4.4,0131*6F
$PYRTM,2024,125.917922482211,17.027569892350
$GNHDT,116.898,T*24
$PYRTM,2024,125.917928325035,17.027575735174
$GNGGA,220149.00,3451.04684140,N,12142.17694453,W,2,13,0.8,6.424,M,-38.711,M,5.0,0131*6B
$PYRTM,2024,125.917928325035,17.027575735174
$GNHDT,116.861,T*22
$PYRTM,2024,125.917934059977,17.027581470127
$GNGGA,220149.50,3451.04623888,N,12142.17587404,W,2,13,0.8,6.581,M,-38.711,M,5.4,0131*67
$PYRTM,2024,125.917934059977,17.027581470127
$GNHDT,116.888,T*25
$PYRTM,2024,125.917939898819,17.027587308970
$GNGGA,220150.00,3451.04564714,N,12142.17480114,W,2,13,0.8,6.779,M,-38.711,M,6.0,0131*60
$PYRTM,2024,125.917939898819,17.027587308970
$GNHDT,117.012,T*2F
$PYRTM,2024,125.917945632766,17.027593042905
$GNGGA,220150.50,3451.04507939,N,12142.17371169,W,2,13,0.8,6.932,M,-38.711,M,6.4,0131*67
$PYRTM,2024,125.917945632766,17.027593042905
$GNHDT,117.310,T*2E
$PYRTM,2024,125.917951472616,17.027598882755
$GNGGA,220151.00,3451.04452748,N,12142.17261357,W,2,13,0.8,7.048,M,-38.711,M,7.0,0131*65
$PYRTM,2024,125.917951472616,17.027598882755
$GNHDT,117.774,T*28
$PYRTM,2024,125.917957204792,17.027604614931
$GNGGA,220151.50,3451.04399521,N,12142.17150323,W,2,13,0.8,7.087,M,-38.711,M,7.4,0131*68
$PYRTM,2024,125.917957204792,17.027604614931
$GNHDT,118.333,T*20
$PYRTM,2024,125.917963046007,17.027610456146
$GNGGA,220152.00,3451.04347062,N,12142.17038294,W,2,13,0.8,7.069,M,-38.711,M,7.0,0131*69
$PYRTM,2024,125.917963046007,17.027610456146
$GNHDT,118.325,T*27
$PYRTM,2024,125.917968776921,17.027616187060
$GNGGA,220152.50,3451.04292450,N,12142.16927396,W,2,13,0.8,7.042,M,-38.711,M,7.4,0131*68
$PYRTM,2024,125.917968776921,17.027616187060
$GNHDT,117.954,T*24
$PYRTM,2024,125.917974620000,17.027622030139
$GNGGA,220153.00,3451.04235394,N,12142.16817939,W,2,13,0.8,7.030,M,-38.711,M,7.0,0131*62
$PYRTM,2024,125.917974620000,17.027622030139
$GNHDT,117.449,T*25
$PYRTM,2024,125.917980353021,17.027627763160
$GNGGA,220153.50,3451.04174006,N,12142.16711665,W,2,13,0.8,7.066,M,-38.711,M,7.4,0131*61
$PYRTM,2024,125.917980353021,17.027627763160
$GNHDT,117.265,T*2D
$PYRTM,2024,125.917986193819,17.027633603958
$GNGGA,220154.00,3451.04111957,N,12142.16605312,W,2,13,0.8,7.086,M,-38.711,M,4.0,0131*65
$PYRTM,2024,125.917986193819,17.027633603958
$GNHDT,116.871,T*23
$PYRTM,2024,125.917991925671,17.027639335810
$GNGGA,220154.50,3451.04050730,N,12142.16498125,W,2,13,0.8,7.075,M,-38.711,M,4.4,0131*63
$PYRTM,2024,125.917991925671,17.027639335810
$GNHDT,116.456,T*2A
$PYRTM,2024,125.917997771574,17.027645181713
$GNGGA,220155.00,3451.03989306,N,12142.16390217,W,2,13,0.8,7.052,M,-38.711,M,5.0,0131*61
$PYRTM,2024,125.917997771574,17.027645181713
$GNHDT,116.375,T*2C
$PYRTM,2024,125.918003500868,17.027650911019
$GNGGA,220155.50,3451.03927715,N,12142.16282775,W,2,13,0.8,7.068,M,-38.711,M,5.4,0131*68
$PYRTM,2024,125.918003500868,17.027650911019
$GNHDT,116.352,T*29
$PYRTM,2024,125.918009346620,17.027656756759
$GNGGA,220156.00,3451.03867753,N,12142.16174161,W,2,13,0.8,7.136,M,-38.711,M,6.0,0131*6D
$PYRTM,2024,125.918009346620,17.027656756759
$GNHDT,116.274,T*2C
$PYRTM,2024,125.918015078588,17.027662488727
$GNGGA,220156.50,3451.03809653,N,12142.16063823,W,2,13,0.8,7.241,M,-38.711,M,6.4,0131*6E
$PYRTM,2024,125.918015078588,17.027662488727
$GNHDT,116.493,T*23
$PYRTM,2024,125.918020920741,17.027668330880
$GNGGA,220157.00,3451.03753726,N,12142.15951596,W,2,13,0.8,7.357,M,-38.711,M,7.0,0131*62
$PYRTM,2024,125.918020920741,17.027668330880
$GNHDT,116.998,T*25
$PYRTM,2024,125.918026647396,17.027674057546
$GNGGA,220157.50,3451.03697065,N,12142.15840350,W,2,13,0.8,7.459,M,-38.711,M,7.4,0131*6E
$PYRTM,2024,125.918026647396,17.027674057546
$GNHDT,117.069,T*23
$PYRTM,2024,125.918032493206,17.027679903345
$GNGGA,220158.00,3451.03639697,N,12142.15728570,W,2,13,0.8,7.494,M,-38.711,M,7.0,0131*6B
$PYRTM,2024,125.918032493206,17.027679903345
$GNHDT,117.479,T*26
$PYRTM,2024,125.918038222338,17.027685632477
$GNGGA,220158.50,3451.03583161,N,12142.15614807,W,2,13,0.8,7.399,M,-38.711,M,7.4,0131*6F
$PYRTM,2024,125.918038222338,17.027685632477
$GNHDT,117.950,T*20
$PYRTM,2024,125.918044065208,17.027691475359
$GNGGA,220159.00,3451.03525040,N,12142.15500400,W,2,13,0.8,7.185,M,-38.711,M,7.0,0131*63
$PYRTM,2024,125.918044065208,17.027691475359
$GNHDT,118.121,T*21
$PYRTM,2024,125.918049797431,17.027697207569
$GNGGA,220159.50,3451.03463305,N,12142.15388397,W,2,13,0.8,6.953,M,-38.710,M,7.4,0131*6F
$PYRTM,2024,125.918049797431,17.027697207569
$GNHDT,118.520,T*24
$PYRTM,2024,125.918055640752,17.027703050891
$GNGGA,220200.00,3451.03400255,N,12142.15278041,W,2,13,0.8,6.755,M,-38.710,M,4.0,0131*6D
$PYRTM,2024,125.918055640752,17.027703050891
$GNHDT,118.854,T*2A
$PYRTM,2024,125.918061370162,17.027708780313
$GNGGA,220200.50,3451.03334530,N,12142.15171478,W,2,13,0.8,6.674,M,-38.710,M,4.4,0131*6E
$PYRTM,2024,125.918061370162,17.027708780313
$GNHDT,119.165,T*20
$PYRTM,2024,125.918067214144,17.027714624282
$GNGGA,220201.00,3451.03270413,N,12142.15065528,W,2,13,0.8,6.744,M,-38.710,M,5.0,0131*6C
$PYRTM,2024,125.918067214144,17.027714624282
$GNHDT,119.213,T*22
$PYRTM,2024,125.918072948287,17.027720358438
$GNGGA,220201.50,3451.03211490,N,12142.14955685,W,2,13,0.8,6.887,M,-38.710,M,5.4,0131*6E
$PYRTM,2024,125.918072948287,17.027720358438
$GNHDT,119.068,T*2C
$PYRTM,2024,125.918078789086,17.027726199225
$GNGGA,220202.00,3451.03154033,N,12142.14846360,W,2,13,0.8,7.114,M,-38.710,M,6.0,0131*6F
$PYRTM,2024,125.918078789086,17.027726199225
$GNHDT,118.969,T*25
$PYRTM,2024,125.918084519618,17.027731929757
$GNGGA,220202.50,3451.03099641,N,12142.14734419,W,2,13,0.8,7.302,M,-38.710,M,6.4,0131*6B
$PYRTM,2024,125.918084519618,17.027731929757
$GNHDT,118.560,T*20
$PYRTM,2024,125.918090366192,17.027737776331
$GNGGA,220203.00,3451.03048779,N,12142.14616573,W,2,13,0.8,7.361,M,-38.710,M,7.0,0131*65
$PYRTM,2024,125.918090366192,17.027737776331
$GNHDT,118.232,T*20
$PYRTM,2024,125.918096092350,17.027743502488
$GNGGA,220203.50,3451.02994271,N,12142.14500939,W,2,13,0.8,7.324,M,-38.710,M,7.4,0131*67
$PYRTM,2024,125.918096092350,17.027743502488
$GNHDT,118.068,T*2D
$PYRTM,2024,125.918101938021,17.027749348160
$GNGGA,220204.00,3451.02935145,N,12142.14389001,W,2,13,0.8,7.228,M,-38.710,M,7.0,0131*66
$PYRTM,2024,125.918101938021,17.027749348160
$GNHDT,117.463,T*2D
$PYRTM,2024,125.918107669329,17.027755079468
$GNGGA,220204.50,3451.02870867,N,12142.14281613,W,2,13,0.8,7.109,M,-38.710,M,7.4,0131*62
$PYRTM,2024,125.918107669329,17.027755079468
$GNHDT,116.764,T*28
$PYRTM,2024,125.918113509063,17.027760919201
$GNGGA,220205.00,3451.02805074,N,12142.14176302,W,2,13,0.8,7.005,M,-38.710,M,7.0,0131*69
$PYRTM,2024,125.918113509063,17.027760919201
$GNHDT,116.179,T*22
$PYRTM,2024,125.918119243356,17.027766653495
$GNGGA,220205.50,3451.02741747,N,12142.14070922,W,2,13,0.8,6.931,M,-38.710,M,7.4,0131*60
$PYRTM,2024,125.918119243356,17.027766653495
$GNHDT,115.748,T*25
$PYRTM,2024,125.918125083623,17.027772493762
$GNGGA,220206.00,3451.02682357,N,12142.13964553,W,2,13,0.8,6.888,M,-38.710,M,4.0,0131*68
$PYRTM,2024,125.918125083623,17.027772493762
$GNHDT,115.497,T*24
$PYRTM,2024,125.918130814201,17.027778224340
$GNGGA,220206.50,3451.02626315,N,12142.13857167,W,2,13,0.8,6.875,M,-38.710,M,4.4,0131*61
$PYRTM,2024,125.918130814201,17.027778224340
$GNHDT,115.577,T*2B
$PYRTM,2024,125.918136659317,17.027784069468
$GNGGA,220207.00,3451.02574977,N,12142.13747270,W,2,12,0.9,6.879,M,-38.710,M,5.0,0131*6D
$PYRTM,2024,125.918136659317,17.027784069468
$GNHDT,115.784,T*25
$PYRTM,2024,125.918142388727,17.027789798866
$GNGGA,220207.50,3451.02523396,N,12142.13637505,W,2,13,0.9,6.901,M,-38.710,M,5.4,0131*67
$PYRTM,2024,125.918142388727,17.027789798866
$GNHDT,116.193,T*26
$PYRTM,2024,125.918148231968,17.027795642106
$GNGGA,220208.00,3451.02468453,N,12142.13529327,W,2,13,0.8,6.912,M,-38.710,M,6.0,0131*63
$PYRTM,2024,125.918148231968,17.027795642106
$GNHDT,116.599,T*28
$PYRTM,2024,125.918153969641,17.027801379792
$GNGGA,220208.50,3451.02407759,N,12142.13422820,W,2,13,0.8,6.922,M,-38.710,M,6.4,0131*67
$PYRTM,2024,125.918153969641,17.027801379792
$GNHDT,117.042,T*2A
$PYRTM,2024,125.918159809988,17.027807220127
$GNGGA,220209.00,3451.02345244,N,12142.13313950,W,2,13,0.8,6.873,M,-38.710,M,7.0,0131*68
$PYRTM,2024,125.918159809988,17.027807220127
$GNHDT,117.363,T*2A
$PYRTM,2024,125.918165537454,17.027812947593
$GNGGA,220209.50,3451.02280494,N,12142.13204184,W,2,13,0.8,6.803,M,-38.710,M,7.4,0131*6B
$PYRTM,2024,125.918165537454,17.027812947593
$GNHDT,117.989,T*24
$PYRTM,2024,125.918171381377,17.027818791528
$GNGGA,220210.00,3451.02215862,N,12142.13094164,W,2,13,0.8,6.770,M,-38.710,M,7.0,0131*65
$PYRTM,2024,125.918171381377,17.027818791528
$GNHDT,118.313,T*22
$PYRTM,2024,125.918177111273,17.027824521412
$GNGGA,220210.50,3451.02153304,N,12142.12984256,W,2,13,0.8,6.846,M,-38.710,M,7.4,0131*6F
$PYRTM,2024,125.918177111273,17.027824521412
$GNHDT,118.682,T*2F
$PYRTM,2024,125.918182956597,17.027830366736
$GNGGA,220211.00,3451.02093196,N,12142.12872943,W,2,13,0.8,7.050,M,-38.710,M,7.0,0131*62
$PYRTM,2024,125.918182956597,17.027830366736
$GNHDT,118.770,T*23
$PYRTM,2024,125.918188690451,17.027836100590
$GNGGA,220211.50,3451.02038110,N,12142.12756732,W,2,13,0.8,7.271,M,-38.710,M,7.4,0131*6C
$PYRTM,2024,125.918188690451,17.027836100590
$GNHDT,119.186,T*2D
$PYRTM,2024,125.918194533924,17.027841944062
$GNGGA,220212.00,3451.01985852,N,12142.12635388,W,2,13,0.8,7.445,M,-38.710,M,4.0,0131*6E
$PYRTM,2024,125.918194533924,17.027841944062
$GNHDT,119.272,T*25
$PYRTM,2024,125.918200263044,17.027847673183
$GNGGA,220212.50,3451.01930554,N,12142.12514975,W,2,13,0.8,7.529,M,-38.710,M,4.4,0131*69
$PYRTM,2024,125.918200263044,17.027847673183
$GNHDT,119.403,T*25
$PYRTM,2024,125.918206104190,17.027853514340
$GNGGA,220213.00,3451.01871185,N,12142.12396353,W,2,13,0.8,7.515,M,-38.709,M,5.0,0131*61
$PYRTM,2024,125.918206104190,17.027853514340
$GNHDT,119.322,T*21
$PYRTM,2024,125.918211832558,17.027859242697
$GNGGA,220213.50,3451.01806658,N,12142.12283282,W,2,13,0.8,7.433,M,-38.709,M,5.4,0131*6A
$PYRTM,2024,125.918211832558,17.027859242697
$GNHDT,119.001,T*23
$PYRTM,2024,125.918217677431,17.027865087581
$GNGGA,220214.00,3451.01740032,N,12142.12174421,W,2,13,0.8,7.301,M,-38.709,M,6.0,0131*6A
$PYRTM,2024,125.918217677431,17.027865087581
$GNHDT,118.918,T*23
$PYRTM,2024,125.918223410150,17.027870820289
$GNGGA,220214.50,3451.01674146,N,12142.12068987,W,2,13,0.8,7.175,M,-38.709,M,6.4,0131*63
$PYRTM,2024,125.918223410150,17.027870820289
$GNHDT,118.504,T*22
$PYRTM,2024,125.918229251725,17.027876661863
$GNGGA,220215.00,3451.01613206,N,12142.11965085,W,2,13,0.8,7.046,M,-38.709,M,7.0,0131*69
$PYRTM,2024,125.918229251725,17.027876661863
$GNHDT,118.408,T*2F
$PYRTM,2024,125.918234981782,17.027882391921
$GNGGA,220215.50,3451.01553563,N,12142.11860159,W,2,13,0.8,6.963,M,-38.709,M,7.4,0131*60
$PYRTM,2024,125.918234981782,17.027882391921
$GNHDT,118.321,T*23
$PYRTM,2024,125.918240828345,17.027888238484
$GNGGA,220216.00,3451.01492181,N,12142.11756172,W,2,13,0.8,6.946,M,-38.709,M,7.0,0131*62
$PYRTM,2024,125.918240828345,17.027888238484
$GNHDT,118.147,T*21
$PYRTM,2024,125.918246555220,17.027893965359
$GNGGA,220216.50,3451.01439039,N,12142.11649444,W,2,13,0.8,6.882,M,-38.709,M,7.4,0131*66
$PYRTM,2024,125.918246555220,17.027893965359
$GNHDT,117.852,T*23
$PYRTM,2024,125.918252400405,17.027899810544
$GNGGA,220217.00,3451.01392148,N,12142.11541785,W,2,13,0.8,6.799,M,-38.709,M,7.0,0131*67
$PYRTM,2024,125.918252400405,17.027899810544
$GNHDT,117.762,T*2F
$PYRTM,2024,125.918258132199,17.027905542338
$GNGGA,220217.50,3451.01338792,N,12142.11436700,W,2,13,0.8,6.764,M,-38.709,M,7.4,0131*69
$PYRTM,2024,125.918258132199,17.027905542338
$GNHDT,117.557,T*2B
$PYRTM,2024,125.918263974942,17.027911385081
$GNGGA,220218.00,3451.01285842,N,12142.11332038,W,2,13,0.8,6.710,M,-38.709,M,4.0,0131*6D
$PYRTM,2024,125.918263974942,17.027911385081
$GNHDT,117.522,T*29
$PYRTM,2024,125.918269706007,17.027917116146
$GNGGA,220218.50,3451.01231407,N,12142.11227782,W,2,13,0.8,6.658,M,-38.709,M,4.4,0131*60
$PYRTM,2024,125.918269706007,17.027917116146
$GNHDT,117.580,T*21
$PYRTM,2024,125.918275548958,17.027922959097
$GNGGA,220219.00,3451.01178780,N,12142.11121529,W,2,13,0.8,6.582,M,-38.709,M,5.0,0131*61
$PYRTM,2024,125.918275548958,17.027922959097
$GNHDT,117.631,T*28
$PYRTM,2024,125.918281278241,17.027928688380
$GNGGA,220219.50,3451.01122410,N,12142.11013699,W,2,13,0.8,6.524,M,-38.709,M,5.4,0131*61
$PYRTM,2024,125.918281278241,17.027928688380
$GNHDT,117.629,T*21
$PYRTM,2024,125.918287122951,17.027934533090
$GNGGA,220220.00,3451.01065449,N,12142.10902332,W,2,13,0.8,6.455,M,-38.709,M,6.0,0131*6C
$PYRTM,2024,125.918287122951,17.027934533090
$GNHDT,117.563,T*2C
$PYRTM,2024,125.918292853970,17.027940264120
$GNGGA,220220.50,3451.01006325,N,12142.10787808,W,2,13,0.8,6.422,M,-38.709,M,6.4,0131*64
$PYRTM,2024,125.918292853970,17.027940264120
$GNHDT,117.453,T*2E
$PYRTM,2024,125.918298698576,17.027946108715
$GNGGA,220221.00,3451.00946999,N,12142.10668447,W,2,13,0.8,6.433,M,-38.709,M,7.0,0131*63
$PYRTM,2024,125.918298698576,17.027946108715
$GNHDT,117.192,T*26
$PYRTM,2024,125.918304429792,17.027951839942
$GNGGA,220221.50,3451.00887045,N,12142.10546357,W,2,13,0.8,6.507,M,-38.709,M,7.4,0131*69
$PYRTM,2024,125.918304429792,17.027951839942
$GNHDT,116.736,T*2F
$PYRTM,2024,125.918310271921,17.027957682072
$GNGGA,220222.00,3451.00826294,N,12142.10423522,W,2,13,0.8,6.662,M,-38.709,M,7.0,0131*68
$PYRTM,2024,125.918310271921,17.027957682072
$GNHDT,116.352,T*29
$PYRTM,2024,125.918316007187,17.027963417326
$GNGGA,220222.50,3451.00763919,N,12142.10302408,W,2,13,0.8,6.868,M,-38.709,M,7.4,0131*60
$PYRTM,2024,125.918316007187,17.027963417326
$GNHDT,116.311,T*2E
$PYRTM,2024,125.918321843484,17.027969253623
$GNGGA,220223.00,3451.00699066,N,12142.10184178,W,2,13,0.8,7.093,M,-38.709,M,7.0,0131*66
$PYRTM,2024,125.918321843484,17.027969253623
$GNHDT,116.357,T*2C
$PYRTM,2024,125.918327575961,17.027974986100
$GNGGA,220223.50,3451.00632577,N,12142.10067614,W,2,13,0.8,7.265,M,-38.709,M,7.4,0131*69
$PYRTM,2024,125.918327575961,17.027974986100
$GNHDT,116.521,T*2B
$PYRTM,2024,125.918333422153,17.027980832292
$GNGGA,220224.00,3451.00566334,N,12142.09951298,W,2,13,0.8,7.319,M,-38.709,M,4.0,0131*61
$PYRTM,2024,125.918333422153,17.027980832292
$GNHDT,116.603,T*28
$PYRTM,2024,125.918339153461,17.027986563611
$GNGGA,220224.50,3451.00501677,N,12142.09834840,W,2,13,0.8,7.241,M,-38.709,M,4.4,0131*62
$PYRTM,2024,125.918339153461,17.027986563611
$GNHDT,116.876,T*24
$PYRTM,2024,125.918344993241,17.027992403391
$GNGGA,220225.00,3451.00438754,N,12142.09719504,W,2,13,0.8,7.077,M,-38.709,M,5.0,0131*62
$PYRTM,2024,125.918344993241,17.027992403391
$GNHDT,117.025,T*2B
$PYRTM,2024,125.918350723588,17.027998133727
$GNGGA,220225.50,3451.00377530,N,12142.09607580,W,2,13,0.8,6.897,M,-38.709,M,5.4,0131*6A
$PYRTM,2024,125.918350723588,17.027998133727
$GNHDT,117.273,T*2A
$PYRTM,2024,125.918356567130,17.028003977269
$GNGGA,220226.00,3451.00320376,N,12142.09498677,W,2,13,0.8,6.728,M,-38.709,M,6.0,0131*69
$PYRTM,2024,125.918356567130,17.028003977269
$GNHDT,117.473,T*2C
$PYRTM,2024,125.918362300856,17.028009710995
$GNGGA,220226.50,3451.00265036,N,12142.09393809,W,2,13,0.8,6.609,M,-38.709,M,6.4,0131*66
$PYRTM,2024,125.918362300856,17.028009710995
$GNHDT,117.808,T*2C
$PYRTM,2024,125.918368142118,17.028015552269
$GNGGA,220227.00,3451.00211792,N,12142.09291866,W,2,13,0.8,6.533,M,-38.709,M,7.0,0131*6D
$PYRTM,2024,125.918368142118,17.028015552269
$GNHDT,117.993,T*2F
$PYRTM,2024,125.918373873727,17.028021283866
$GNGGA,220227.50,3451.00160623,N,12142.09189094,W,2,13,0.8,6.428,M,-38.709,M,7.4,0131*66
$PYRTM,2024,125.918373873727,17.028021283866
$GNHDT,118.051,T*27
$PYRTM,2024,125.918379717847,17.028027128009
$GNGGA,220228.00,3451.00108973,N,12142.09086217,W,2,13,0.8,6.306,M,-38.709,M,7.0,0131*60
$PYRTM,2024,125.918379717847,17.028027128009
$GNHDT,118.280,T*29
$PYRTM,2024,125.918385450231,17.028032860370
$GNGGA,220228.50,3451.00056631,N,12142.08983521,W,2,13,0.8,6.160,M,-38.708,M,7.4,0131*6E
$PYRTM,2024,125.918385450231,17.028032860370
$GNHDT,118.451,T*23
$PYRTM,2024,125.918391289155,17.028038699294
