$PYRTM,2024,125.416666832639,16.526314242778
$GNGGA,100000.00,3512.55715821,N,12150.20381294,W,2,11,0.9,6.057,M,-38.552,M,5.0,0131*6E
$PYRTM,2024,125.416666832639,16.526314242778
$GNHDT,128.859,T*24
$PYRTM,2024,125.416672565440,16.526319975579
$GNGGA,100000.50,3512.55703157,N,12150.20335082,W,2,11,0.9,6.223,M,-38.552,M,5.4,0131*6B
$PYRTM,2024,125.416672565440,16.526319975579
$GNHDT,128.714,T*22
$PYRTM,2024,125.416678408854,16.526325818993
$GNGGA,100001.00,3512.55696923,N,12150.20284325,W,2,11,0.9,6.519,M,-38.552,M,6.0,0131*65
$PYRTM,2024,125.416678408854,16.526325818993
$GNHDT,128.463,T*21
$PYRTM,2024,125.416684142488,16.526331552627
$GNGGA,100001.50,3512.55683878,N,12150.20234703,W,2,11,0.9,6.845,M,-38.552,M,6.4,0131*60
$PYRTM,2024,125.416684142488,16.526331552627
$GNHDT,128.504,T*21
$PYRTM,2024,125.416689983785,16.526337393924
$GNGGA,100002.00,3512.55669351,N,12150.20187368,W,2,12,0.8,7.042,M,-38.552,M,7.0,0131*69
$PYRTM,2024,125.416689983785,16.526337393924
$GNHDT,127.987,T*29
$PYRTM,2024,125.416695715012,16.526343125150
$GNGGA,100002.50,3512.55644948,N,12150.20145888,W,2,12,0.8,7.102,M,-38.552,M,7.4,0131*6B
$PYRTM,2024,125.416695715012,16.526343125150
$GNHDT,127.684,T*25
$PYRTM,2024,125.416701563472,16.526348973623
$GNGGA,100003.00,3512.55613313,N,12150.20110389,W,2,12,0.8,6.940,M,-38.552,M,7.0,0131*68
$PYRTM,2024,125.416701563472,16.526348973623
$GNHDT,127.465,T*28
$PYRTM,2024,125.416707288692,16.526354698831
$GNGGA,100003.50,3512.55577074,N,12150.20076876,W,2,12,0.8,6.689,M,-38.552,M,7.4,0131*6A
$PYRTM,2024,125.416707288692,16.526354698831
$GNHDT,127.451,T*2F
$PYRTM,2024,125.416713133183,16.526360543322
$GNGGA,100004.00,3512.55540066,N,12150.20047192,W,2,12,0.8,6.361,M,-38.552,M,7.0,0131*69
$PYRTM,2024,125.416713133183,16.526360543322
$GNHDT,127.359,T*20
$PYRTM,2024,125.416718865741,16.526366275880
$GNGGA,100004.50,3512.55504875,N,12150.20019268,W,2,12,0.8,6.096,M,-38.552,M,7.4,0131*64
$PYRTM,2024,125.416718865741,16.526366275880
$GNHDT,127.726,T*2C
$PYRTM,2024,125.416724708495,16.526372118634
$GNGGA,100005.00,3512.55476213,N,12150.19989439,W,2,12,0.8,5.907,M,-38.552,M,4.0,0131*63
$PYRTM,2024,125.416724708495,16.526372118634
$GNHDT,128.011,T*20
$PYRTM,2024,125.416730442245,16.526377852384
$GNGGA,100005.50,3512.55456233,N,12150.19954091,W,2,12,0.8,5.824,M,-38.552,M,4.4,0131*64
$PYRTM,2024,125.416730442245,16.526377852384
$GNHDT,128.256,T*21
$PYRTM,2024,125.416736278750,16.526383688889
$GNGGA,100006.00,3512.55438016,N,12150.19917240,W,2,12,0.8,5.809,M,-38.552,M,5.0,0131*6C
$PYRTM,2024,125.416736278750,16.526383688889
$GNHDT,128.674,T*25
$PYRTM,2024,125.416742011632,16.526389421782
$GNGGA,100006.50,3512.55420356,N,12150.19877347,W,2,12,0.8,5.820,M,-38.552,M,5.4,0131*69
$PYRTM,2024,125.416742011632,16.526389421782
$GNHDT,129.198,T*21
$PYRTM,2024,125.416747853924,16.526395264097
$GNGGA,100007.00,3512.55402341,N,12150.19836226,W,2,12,0.8,5.845,M,-38.552,M,6.0,0131*6C
$PYRTM,2024,125.416747853924,16.526395264097
$GNHDT,129.526,T*20
$PYRTM,2024,125.416753586424,16.526400996563
$GNGGA,100007.50,3512.55382342,N,12150.19794889,W,2,12,0.8,5.893,M,-38.552,M,6.4,0131*62
$PYRTM,2024,125.416753586424,16.526400996563
$GNHDT,129.652,T*20
$PYRTM,2024,125.416759426586,16.526406836725
$GNGGA,100008.00,3512.55360220,N,12150.19753396,W,2,12,0.8,5.994,M,-38.552,M,7.0,0131*6C
$PYRTM,2024,125.416759426586,16.526406836725
$GNHDT,129.903,T*2B
$PYRTM,2024,125.416765162558,16.526412572708
$GNGGA,100008.50,3512.55334712,N,12150.19713007,W,2,12,0.8,6.094,M,-38.552,M,7.4,0131*6D
$PYRTM,2024,125.416765162558,16.526412572708
$GNHDT,129.615,T*23
$PYRTM,2024,125.416771002500,16.526418412639
$GNGGA,100009.00,3512.55306568,N,12150.19671799,W,2,12,0.8,6.187,M,-38.552,M,7.0,0131*65
$PYRTM,2024,125.416771002500,16.526418412639
$GNHDT,129.663,T*22
$PYRTM,2024,125.416776734676,16.526424144826
$GNGGA,100009.50,3512.55277467,N,12150.19629478,W,2,12,0.8,6.274,M,-38.552,M,7.4,0131*63
$PYRTM,2024,125.416776734676,16.526424144826
$GNHDT,129.322,T*22
$PYRTM,2024,125.416782580752,16.526429990903
$GNGGA,100010.00,3512.55248909,N,12150.19585699,W,2,12,0.8,6.296,M,-38.552,M,7.0,0131*67
$PYRTM,2024,125.416782580752,16.526429990903
$GNHDT,129.119,T*28
$PYRTM,2024,125.416788310891,16.526435721030
$GNGGA,100010.50,3512.55217786,N,12150.19543378,W,2,12,0.8,6.306,M,-38.552,M,7.4,0131*6D
$PYRTM,2024,125.416788310891,16.526435721030
$GNHDT,128.659,T*2A
$PYRTM,2024,125.416794152037,16.526441562176
$GNGGA,100011.00,3512.55192487,N,12150.19497700,W,2,12,0.8,6.281,M,-38.552,M,4.0,0131*6F
$PYRTM,2024,125.416794152037,16.526441562176
$GNHDT,128.280,T*2A
$PYRTM,2024,125.416799889560,16.526447299699
$GNGGA,100011.50,3512.55170367,N,12150.19453209,W,2,12,0.8,6.245,M,-38.552,M,4.4,0131*67
$PYRTM,2024,125.416799889560,16.526447299699
$GNHDT,128.217,T*24
$PYRTM,2024,125.416805723623,16.526453133762
$GNGGA,100012.00,3512.55148423,N,12150.19412538,W,2,12,0.8,6.191,M,-38.552,M,5.0,0131*62
$PYRTM,2024,125.416805723623,16.526453133762
$GNHDT,128.036,T*25
$PYRTM,2024,125.416811460255,16.526458870394
$GNGGA,100012.50,3512.55126247,N,12150.19375341,W,2,12,0.8,6.135,M,-38.552,M,5.4,0131*6F
$PYRTM,2024,125.416811460255,16.526458870394
$GNHDT,128.068,T*2E
$PYRTM,2024,125.416817300787,16.526464710926
$GNGGA,100013.00,3512.55099583,N,12150.19341913,W,2,12,0.8,6.094,M,-38.552,M,6.0,0131*66
$PYRTM,2024,125.416817300787,16.526464710926
$GNHDT,128.638,T*2D
$PYRTM,2024,125.416823032778,16.526470442917
$GNGGA,100013.50,3512.55071919,N,12150.19310229,W,2,12,0.8,6.057,M,-38.552,M,6.4,0131*67
$PYRTM,2024,125.416823032778,16.526470442917
$GNHDT,128.567,T*24
$PYRTM,2024,125.416828873137,16.526476283275
$GNGGA,100014.00,3512.55041622,N,12150.19281140,W,2,12,0.8,6.045,M,-38.552,M,7.0,0131*62
$PYRTM,2024,125.416828873137,16.526476283275
$GNHDT,129.173,T*24
$PYRTM,2024,125.416834607940,16.526482018079
$GNGGA,100014.50,3512.55014030,N,12150.19248977,W,2,12,0.8,6.087,M,-38.552,M,7.4,0131*61
$PYRTM,2024,125.416834607940,16.526482018079
$GNHDT,130.052,T*2E
$PYRTM,2024,125.416840446505,16.526487856644
$GNGGA,100015.00,3512.54985700,N,12150.19215555,W,2,12,0.8,6.173,M,-38.552,M,7.0,0131*6B
$PYRTM,2024,125.416840446505,16.526487856644
$GNHDT,130.455,T*2D
$PYRTM,2024,125.416846179005,16.526493589144
$GNGGA,100015.50,3512.54959307,N,12150.19178372,W,2,12,0.8,6.268,M,-38.552,M,7.4,0131*6A
$PYRTM,2024,125.416846179005,16.526493589144
$GNHDT,130.544,T*2C
$PYRTM,2024,125.416852023484,16.526499433623
$GNGGA,100016.00,3512.54935411,N,12150.19135310,W,2,12,0.8,6.379,M,-38.552,M,7.0,0131*6E
$PYRTM,2024,125.416852023484,16.526499433623
$GNHDT,130.434,T*2A
$PYRTM,2024,125.416857757384,16.526505167535
$GNGGA,100016.50,3512.54911507,N,12150.19088143,W,2,12,0.8,6.469,M,-38.552,M,7.4,0131*6A
$PYRTM,2024,125.416857757384,16.526505167535
$GNHDT,130.760,T*28
$PYRTM,2024,125.416863598287,16.526511008426
$GNGGA,100017.00,3512.54888170,N,12150.19037063,W,2,12,0.8,6.493,M,-38.552,M,4.0,0131*6E
$PYRTM,2024,125.416863598287,16.526511008426
$GNHDT,130.294,T*26
$PYRTM,2024,125.416869330706,16.526516740845
$GNGGA,100017.50,3512.54863765,N,12150.18984439,W,2,12,0.8,6.441,M,-38.552,M,4.4,0131*6C
$PYRTM,2024,125.416869330706,16.526516740845
$GNHDT,130.298,T*2A
$PYRTM,2024,125.416875167905,16.526522578044
$GNGGA,100018.00,3512.54839033,N,12150.18931055,W,2,12,0.8,6.297,M,-38.552,M,5.0,0131*65
$PYRTM,2024,125.416875167905,16.526522578044
$GNHDT,129.952,T*2F
$PYRTM,2024,125.416880900880,16.526528311030
$GNGGA,100018.50,3512.54813543,N,12150.18880733,W,2,12,0.8,6.089,M,-38.552,M,5.4,0131*6F
$PYRTM,2024,125.416880900880,16.526528311030
$GNHDT,129.208,T*2B
$PYRTM,2024,125.416886742002,16.526534152141
$GNGGA,100019.00,3512.54788681,N,12150.18833643,W,2,11,0.9,5.838,M,-38.552,M,6.0,0131*61
$PYRTM,2024,125.416886742002,16.526534152141
$GNHDT,128.748,T*2B
$PYRTM,2024,125.416892479039,16.526539889178
$GNGGA,100019.50,3512.54764341,N,12150.18792041,W,2,12,0.9,5.604,M,-38.551,M,6.4,0131*6A
$PYRTM,2024,125.416892479039,16.526539889178
$GNHDT,128.576,T*24
$PYRTM,2024,125.416898317963,16.526545728102
$GNGGA,100020.00,3512.54737434,N,12150.18758512,W,2,12,0.8,5.395,M,-38.551,M,7.0,0131*6A
$PYRTM,2024,125.416898317963,16.526545728102
$GNHDT,128.425,T*23
$PYRTM,2024,125.416904053437,16.526551463576
$GNGGA,100020.50,3512.54709532,N,12150.18729095,W,2,12,0.8,5.268,M,-38.551,M,7.4,0131*6E
$PYRTM,2024,125.416904053437,16.526551463576
$GNHDT,128.561,T*22
$PYRTM,2024,125.416909890880,16.526557301019
$GNGGA,100021.00,3512.54682714,N,12150.18701630,W,2,12,0.8,5.223,M,-38.551,M,7.0,0131*66
$PYRTM,2024,125.416909890880,16.526557301019
$GNHDT,128.655,T*26
$PYRTM,2024,125.416915626065,16.526563036204
$GNGGA,100021.50,3512.54657798,N,12150.18674542,W,2,12,0.8,5.233,M,-38.551,M,7.4,0131*6F
$PYRTM,2024,125.416915626065,16.526563036204
$GNHDT,129.220,T*21
$PYRTM,2024,125.416921467396,16.526568877546
$GNGGA,100022.00,3512.54633720,N,12150.18646803,W,2,12,0.8,5.291,M,-38.551,M,7.0,0131*6D
$PYRTM,2024,125.416921467396,16.526568877546
$GNHDT,129.545,T*25
$PYRTM,2024,125.416927196771,16.526574606921
$GNGGA,100022.50,3512.54610025,N,12150.18616466,W,2,12,0.8,5.374,M,-38.551,M,7.4,0131*6F
$PYRTM,2024,125.416927196771,16.526574606921
$GNHDT,129.738,T*2D
$PYRTM,2024,125.416933043345,16.526580453484
$GNGGA,100023.00,3512.54587376,N,12150.18582289,W,2,12,0.8,5.470,M,-38.551,M,4.0,0131*6E
$PYRTM,2024,125.416933043345,16.526580453484
$GNHDT,129.894,T*24
$PYRTM,2024,125.416938774086,16.526586184225
$GNGGA,100023.50,3512.54565092,N,12150.18543851,W,2,12,0.8,5.577,M,-38.551,M,4.4,0131*6E
$PYRTM,2024,125.416938774086,16.526586184225
$GNHDT,129.697,T*29
$PYRTM,2024,125.416944614306,16.526592024444
$GNGGA,100024.00,3512.54541255,N,12150.18502853,W,2,12,0.8,5.704,M,-38.551,M,5.0,0131*67
$PYRTM,2024,125.416944614306,16.526592024444
$GNHDT,129.396,T*2D
$PYRTM,2024,125.416950346157,16.526597756296
$GNGGA,100024.50,3512.54518179,N,12150.18457239,W,2,12,0.8,5.866,M,-38.551,M,5.4,0131*6B
$PYRTM,2024,125.416950346157,16.526597756296
$GNHDT,129.348,T*2E
$PYRTM,2024,125.416956191065,16.526603601204
$GNGGA,100025.00,3512.54496645,N,12150.18406118,W,2,12,0.8,6.067,M,-38.551,M,6.0,0131*69
$PYRTM,2024,125.416956191065,16.526603601204
$GNHDT,129.290,T*2A
$PYRTM,2024,125.416961919306,16.526609329444
$GNGGA,100025.50,3512.54475263,N,12150.18352606,W,2,12,0.8,6.283,M,-38.551,M,6.4,0131*63
$PYRTM,2024,125.416961919306,16.526609329444
$GNHDT,129.390,T*2B
$PYRTM,2024,125.416967765069,16.526615175208
$GNGGA,100026.00,3512.54454921,N,12150.18298216,W,2,12,0.8,6.474,M,-38.551,M,7.0,0131*62
$PYRTM,2024,125.416967765069,16.526615175208
$GNHDT,129.250,T*26
$PYRTM,2024,125.416973496169,16.526620906319
$GNGGA,100026.50,3512.54434724,N,12150.18247211,W,2,12,0.8,6.602,M,-38.551,M,7.4,0131*68
$PYRTM,2024,125.416973496169,16.526620906319
$GNHDT,128.933,T*29
$PYRTM,2024,125.416979337882,16.526626748021
$GNGGA,100027.00,3512.54412647,N,12150.18202439,W,2,12,0.8,6.612,M,-38.551,M,7.0,0131*64
$PYRTM,2024,125.416979337882,16.526626748021
$GNHDT,128.621,T*25
$PYRTM,2024,125.416985075880,16.526632486030
$GNGGA,100027.50,3512.54389220,N,12150.18162711,W,2,12,0.8,6.482,M,-38.551,M,7.4,0131*62
$PYRTM,2024,125.416985075880,16.526632486030
$GNHDT,128.177,T*21
$PYRTM,2024,125.416990910046,16.526638320185
$GNGGA,100028.00,3512.54364559,N,12150.18126776,W,2,12,0.8,6.222,M,-38.551,M,7.0,0131*6B
$PYRTM,2024,125.416990910046,16.526638320185
$GNHDT,127.744,T*28
$PYRTM,2024,125.416996643866,16.526644054005
$GNGGA,100028.50,3512.54338345,N,12150.18094255,W,2,12,0.8,5.908,M,-38.551,M,7.4,0131*64
$PYRTM,2024,125.416996643866,16.526644054005
$GNHDT,127.882,T*2D
$PYRTM,2024,125.417002483495,16.526649893634
$GNGGA,100029.00,3512.54312459,N,12150.18063023,W,2,12,0.8,5.599,M,-38.551,M,4.0,0131*6A
$PYRTM,2024,125.417002483495,16.526649893634
$GNHDT,127.830,T*24
$PYRTM,2024,125.417008216181,16.526655626319
$GNGGA,100029.50,3512.54286129,N,12150.18031927,W,2,12,0.8,5.398,M,-38.551,M,4.4,0131*68
$PYRTM,2024,125.417008216181,16.526655626319
$GNHDT,127.755,T*28
$PYRTM,2024,125.417014059954,16.526661470093
$GNGGA,100030.00,3512.54261236,N,12150.17998516,W,2,12,0.8,5.340,M,-38.551,M,5.0,0131*6A
$PYRTM,2024,125.417014059954,16.526661470093
$GNHDT,128.111,T*21
$PYRTM,2024,125.417019796806,16.526667206944
$GNGGA,100030.50,3512.54243568,N,12150.17957635,W,2,12,0.8,5.411,M,-38.551,M,5.4,0131*65
$PYRTM,2024,125.417019796806,16.526667206944
$GNHDT,128.401,T*25
$PYRTM,2024,125.417025630058,16.526673040197
$GNGGA,100031.00,3512.54226436,N,12150.17914732,W,2,12,0.8,5.572,M,-38.551,M,6.0,0131*6A
$PYRTM,2024,125.417025630058,16.526673040197
$GNHDT,128.633,T*26
$PYRTM,2024,125.417031365359,16.526678775498
$GNGGA,100031.50,3512.54205698,N,12150.17872271,W,2,12,0.8,5.758,M,-38.551,M,6.4,0131*65
$PYRTM,2024,125.417031365359,16.526678775498
$GNHDT,128.950,T*2C
$PYRTM,2024,125.417037206667,16.526684616817
$GNGGA,100032.00,3512.54180362,N,12150.17830601,W,2,12,0.8,5.901,M,-38.551,M,7.0,0131*6F
$PYRTM,2024,125.417037206667,16.526684616817
$GNHDT,129.097,T*2F
$PYRTM,2024,125.417042944630,16.526690354769
$GNGGA,100032.50,3512.54154288,N,12150.17786755,W,2,12,0.8,5.990,M,-38.551,M,7.4,0131*68
$PYRTM,2024,125.417042944630,16.526690354769
$GNHDT,129.083,T*2A
$PYRTM,2024,125.417048784155,16.526696194294
$GNGGA,100033.00,3512.54124295,N,12150.17743118,W,2,12,0.8,5.997,M,-38.551,M,7.0,0131*62
$PYRTM,2024,125.417048784155,16.526696194294
$GNHDT,128.715,T*23
$PYRTM,2024,125.417054515405,16.526701925544
$GNGGA,100033.50,3512.54094145,N,12150.17698710,W,2,12,0.8,5.966,M,-38.551,M,7.4,0131*60
$PYRTM,2024,125.417054515405,16.526701925544
$GNHDT,128.299,T*22
$PYRTM,2024,125.417060358553,16.526707768692
$GNGGA,100034.00,3512.54061369,N,12150.17655237,W,2,12,0.8,5.945,M,-38.551,M,7.0,0131*60
$PYRTM,2024,125.417060358553,16.526707768692
$GNHDT,127.809,T*2E
$PYRTM,2024,125.417066089699,16.526713499838
$GNGGA,100034.50,3512.54033945,N,12150.17608816,W,2,12,0.8,5.927,M,-38.551,M,7.4,0131*67
$PYRTM,2024,125.417066089699,16.526713499838
$GNHDT,127.439,T*21
$PYRTM,2024,125.417071929699,16.526719339838
$GNGGA,100035.00,3512.54007765,N,12150.17564112,W,2,12,0.8,5.898,M,-38.551,M,4.0,0131*6E
$PYRTM,2024,125.417071929699,16.526719339838
$GNHDT,127.341,T*29
$PYRTM,2024,125.417077661505,16.526725071655
$GNGGA,100035.50,3512.53983326,N,12150.17521644,W,2,12,0.8,5.845,M,-38.551,M,4.4,0131*6B
$PYRTM,2024,125.417077661505,16.526725071655
$GNHDT,127.179,T*20
$PYRTM,2024,125.417083508657,16.526730918796
$GNGGA,100036.00,3512.53964946,N,12150.17477472,W,2,12,0.8,5.780,M,-38.551,M,5.0,0131*6E
$PYRTM,2024,125.417083508657,16.526730918796
$GNHDT,127.390,T*25
$PYRTM,2024,125.417089234618,16.526736644757
$GNGGA,100036.50,3512.53946164,N,12150.17437695,W,2,12,0.8,5.695,M,-38.551,M,5.4,0131*6D
$PYRTM,2024,125.417089234618,16.526736644757
$GNHDT,127.621,T*2A
$PYRTM,2024,125.417095074734,16.526742484884
$GNGGA,100037.00,3512.53926431,N,12150.17402502,W,2,12,0.8,5.594,M,-38.551,M,6.0,0131*64
$PYRTM,2024,125.417095074734,16.526742484884
$GNHDT,127.863,T*22
$PYRTM,2024,125.417100809225,16.526748219363
$GNGGA,100037.50,3512.53905174,N,12150.17370944,W,2,12,0.8,5.508,M,-38.551,M,6.4,0131*69
$PYRTM,2024,125.417100809225,16.526748219363
$GNHDT,127.851,T*23
$PYRTM,2024,125.417106650671,16.526754060822
$GNGGA,100038.00,3512.53880074,N,12150.17341419,W,2,12,0.8,5.459,M,-38.551,M,7.0,0131*69
$PYRTM,2024,125.417106650671,16.526754060822
$GNHDT,127.846,T*25
$PYRTM,2024,125.417112382361,16.526759792500
$GNGGA,100038.50,3512.53853701,N,12150.17311393,W,2,12,0.8,5.404,M,-38.551,M,7.4,0131*6B
$PYRTM,2024,125.417112382361,16.526759792500
$GNHDT,127.875,T*25
$PYRTM,2024,125.417118221979,16.526765632130
$GNGGA,100039.00,3512.53825981,N,12150.17277211,W,2,12,0.8,5.411,M,-38.551,M,7.0,0131*62
$PYRTM,2024,125.417118221979,16.526765632130
$GNHDT,127.579,T*24
$PYRTM,2024,125.417123956354,16.526771366493
$GNGGA,100039.50,3512.53800613,N,12150.17236072,W,2,12,0.8,5.476,M,-38.551,M,7.4,0131*63
$PYRTM,2024,125.417123956354,16.526771366493
$GNHDT,127.562,T*2E
$PYRTM,2024,125.417129799155,16.526777209294
$GNGGA,100040.00,3512.53775936,N,12150.17190403,W,2,12,0.8,5.634,M,-38.551,M,7.0,0131*60
$PYRTM,2024,125.417129799155,16.526777209294
$GNHDT,127.306,T*2A
$PYRTM,2024,125.417135535301,16.526782945440
$GNGGA,100040.50,3512.53755558,N,12150.17140446,W,2,12,0.8,5.864,M,-38.551,M,7.4,0131*60
$PYRTM,2024,125.417135535301,16.526782945440
$GNHDT,127.217,T*2B
$PYRTM,2024,125.417141374259,16.526788784398
$GNGGA,100041.00,3512.53738789,N,12150.17087347,W,2,12,0.8,6.134,M,-38.551,M,4.0,0131*65
$PYRTM,2024,125.417141374259,16.526788784398
$GNHDT,127.229,T*26
$PYRTM,2024,125.417147107211,16.526794517350
$GNGGA,100041.50,3512.53719249,N,12150.17036744,W,2,12,0.8,6.389,M,-38.551,M,4.4,0131*67
$PYRTM,2024,125.417147107211,16.526794517350
$GNHDT,127.462,T*2F
$PYRTM,2024,125.417152950220,16.526800360359
$GNGGA,100042.00,3512.53698801,N,12150.16988969,W,2,12,0.8,6.568,M,-38.551,M,5.0,0131*6F
$PYRTM,2024,125.417152950220,16.526800360359
$GNHDT,127.129,T*25
$PYRTM,2024,125.417158679606,16.526806089745
$GNGGA,100042.50,3512.53675767,N,12150.16945689,W,2,12,0.8,6.642,M,-38.551,M,5.4,0131*69
$PYRTM,2024,125.417158679606,16.526806089745
$GNHDT,126.752,T*2E
$PYRTM,2024,125.417164526562,16.526811936701
$GNGGA,100043.00,3512.53648272,N,12150.16906828,W,2,12,0.8,6.546,M,-38.551,M,6.0,0131*60
$PYRTM,2024,125.417164526562,16.526811936701
$GNHDT,126.557,T*29
$PYRTM,2024,125.417170255255,16.526817665394
$GNGGA,100043.50,3512.53620748,N,12150.16871924,W,2,12,0.8,6.324,M,-38.551,M,6.4,0131*6D
$PYRTM,2024,125.417170255255,16.526817665394
$GNHDT,126.773,T*2D
$PYRTM,2024,125.417176097234,16.526823507373
$GNGGA,100044.00,3512.53594205,N,12150.16839551,W,2,12,0.8,5.987,M,-38.551,M,7.0,0131*68
$PYRTM,2024,125.417176097234,16.526823507373
$GNHDT,126.940,T*23
$PYRTM,2024,125.417181830150,16.526829240289
$GNGGA,100044.50,3512.53569484,N,12150.16808089,W,2,12,0.8,5.612,M,-38.551,M,7.4,0131*65
$PYRTM,2024,125.417181830150,16.526829240289
$GNHDT,127.088,T*2F
$PYRTM,2024,125.417187668137,16.526835078275
$GNGGA,100045.00,3512.53546273,N,12150.16777644,W,2,12,0.8,5.272,M,-38.551,M,7.0,0131*64
$PYRTM,2024,125.417187668137,16.526835078275
$GNHDT,127.393,T*26
$PYRTM,2024,125.417193400370,16.526840810509
$GNGGA,100045.50,3512.53525238,N,12150.16746073,W,2,12,0.8,5.060,M,-38.551,M,7.4,0131*6E
$PYRTM,2024,125.417193400370,16.526840810509
$GNHDT,127.881,T*2E
$PYRTM,2024,125.417199240567,16.526846650706
$GNGGA,100046.00,3512.53506964,N,12150.16709898,W,2,12,0.8,4.986,M,-38.551,M,7.0,0131*69
$PYRTM,2024,125.417199240567,16.526846650706
$GNHDT,128.032,T*21
$PYRTM,2024,125.417204975567,16.526852385718
$GNGGA,100046.50,3512.53489582,N,12150.16669329,W,2,12,0.8,5.068,M,-38.551,M,7.4,0131*64
$PYRTM,2024,125.417204975567,16.526852385718
$GNHDT,128.053,T*26
$PYRTM,2024,125.417210818657,16.526858228796
$GNGGA,100047.00,3512.53475351,N,12150.16621908,W,2,12,0.8,5.298,M,-38.551,M,4.0,0131*64
$PYRTM,2024,125.417210818657,16.526858228796
$GNHDT,127.751,T*2C
$PYRTM,2024,125.417216552882,16.526863963021
$GNGGA,100047.50,3512.53462334,N,12150.16571076,W,2,12,0.8,5.599,M,-38.551,M,4.4,0131*60
$PYRTM,2024,125.417216552882,16.526863963021
$GNHDT,127.659,T*25
$PYRTM,2024,125.417222390208,16.526869800359
$GNGGA,100048.00,3512.53445616,N,12150.16521136,W,2,12,0.8,5.899,M,-38.551,M,5.0,0131*62
$PYRTM,2024,125.417222390208,16.526869800359
$GNHDT,127.234,T*2A
$PYRTM,2024,125.417228123727,16.526875533866
$GNGGA,100048.50,3512.53425390,N,12150.16473613,W,2,12,0.8,6.146,M,-38.551,M,5.4,0131*60
$PYRTM,2024,125.417228123727,16.526875533866
$GNHDT,127.304,T*28
$PYRTM,2024,125.417233964734,16.526881374873
$GNGGA,100049.00,3512.53400030,N,12150.16430777,W,2,12,0.8,6.268,M,-38.551,M,6.0,0131*66
$PYRTM,2024,125.417233964734,16.526881374873
$GNHDT,127.304,T*28
$PYRTM,2024,125.417239696366,16.526887106505
$GNGGA,100049.50,3512.53368896,N,12150.16392225,W,2,12,0.8,6.262,M,-38.551,M,6.4,0131*6D
$PYRTM,2024,125.417239696366,16.526887106505
$GNHDT,127.402,T*29
$PYRTM,2024,125.417245537986,16.526892948125
$GNGGA,100050.00,3512.53335402,N,12150.16355430,W,2,12,0.8,6.144,M,-38.551,M,7.0,0131*62
$PYRTM,2024,125.417245537986,16.526892948125
$GNHDT,127.499,T*2B
$PYRTM,2024,125.417251273495,16.526898683634
$GNGGA,100050.50,3512.53302139,N,12150.16318852,W,2,12,0.8,5.947,M,-38.551,M,7.4,0131*63
$PYRTM,2024,125.417251273495,16.526898683634
$GNHDT,127.549,T*27
$PYRTM,2024,125.417257110984,16.526904521123
$GNGGA,100051.00,3512.53270699,N,12150.16283065,W,2,12,0.8,5.718,M,-38.551,M,7.0,0131*61
$PYRTM,2024,125.417257110984,16.526904521123
$GNHDT,127.544,T*2A
$PYRTM,2024,125.417262847384,16.526910257523
$GNGGA,100051.50,3512.53241266,N,12150.16247663,W,2,12,0.8,5.558,M,-38.551,M,7.4,0131*68
$PYRTM,2024,125.417262847384,16.526910257523
$GNHDT,127.960,T*20
$PYRTM,2024,125.417268686447,16.526916096586
$GNGGA,100052.00,3512.53220629,N,12150.16206684,W,2,12,0.8,5.454,M,-38.551,M,7.0,0131*63
$PYRTM,2024,125.417268686447,16.526916096586
$GNHDT,127.958,T*2B
$PYRTM,2024,125.417274420197,16.526921830324
$GNGGA,100052.50,3512.53202878,N,12150.16163877,W,2,12,0.8,5.482,M,-38.551,M,7.4,0131*61
$PYRTM,2024,125.417274420197,16.526921830324
$GNHDT,127.835,T*21
$PYRTM,2024,125.417280260312,16.526927670451
$GNGGA,100053.00,3512.53183310,N,12150.16121698,W,2,12,0.8,5.604,M,-38.551,M,4.0,0131*68
$PYRTM,2024,125.417280260312,16.526927670451
$GNHDT,127.775,T*2A
$PYRTM,2024,125.417285994259,16.526933404398
$GNGGA,100053.50,3512.53166120,N,12150.16076500,W,2,12,0.8,5.818,M,-38.551,M,4.4,0131*61
$PYRTM,2024,125.417285994259,16.526933404398
$GNHDT,127.879,T*29
$PYRTM,2024,125.417291839780,16.526939249919
$GNGGA,100054.00,3512.53146058,N,12150.16033123,W,2,12,0.8,6.048,M,-38.551,M,5.0,0131*60
$PYRTM,2024,125.417291839780,16.526939249919
$GNHDT,127.830,T*24
$PYRTM,2024,125.417297570683,16.526944980822
$GNGGA,100054.50,3512.53121683,N,12150.15993043,W,2,12,0.8,6.214,M,-38.551,M,5.4,0131*6C
$PYRTM,2024,125.417297570683,16.526944980822
$GNHDT,127.726,T*2C
$PYRTM,2024,125.417303408449,16.526950818588
$GNGGA,100055.00,3512.53093697,N,12150.15955284,W,2,12,0.8,6.290,M,-38.551,M,6.0,0131*6D
$PYRTM,2024,125.417303408449,16.526950818588
$GNHDT,127.926,T*22
$PYRTM,2024,125.417309147049,16.526956557187
$GNGGA,100055.50,3512.53063370,N,12150.15919165,W,2,12,0.8,6.223,M,-38.551,M,6.4,0131*63
$PYRTM,2024,125.417309147049,16.526956557187
$GNHDT,127.597,T*24
$PYRTM,2024,125.417314982164,16.526962392303
$GNGGA,100056.00,3512.53034657,N,12150.15882367,W,2,12,0.8,6.075,M,-38.550,M,7.0,0131*61
$PYRTM,2024,125.417314982164,16.526962392303
$GNHDT,127.825,T*20
$PYRTM,2024,125.417320717882,16.526968128021
$GNGGA,100056.50,3512.53008126,N,12150.15844934,W,2,12,0.8,5.905,M,-38.550,M,7.4,0131*65
$PYRTM,2024,125.417320717882,16.526968128021
$GNHDT,128.063,T*25
$PYRTM,2024,125.417326560301,16.526973970451
$GNGGA,100057.00,3512.52988044,N,12150.15804297,W,2,12,0.8,5.745,M,-38.550,M,7.0,0131*6C
$PYRTM,2024,125.417326560301,16.526973970451
$GNHDT,128.100,T*21
$PYRTM,2024,125.417332289919,16.526979700058
$GNGGA,100057.50,3512.52972876,N,12150.15761815,W,2,12,0.8,5.614,M,-38.550,M,7.4,0131*68
$PYRTM,2024,125.417332289919,16.526979700058
$GNHDT,127.933,T*26
$PYRTM,2024,125.417338131250,16.526985541389
$GNGGA,100058.00,3512.52962067,N,12150.15717691,W,2,12,0.8,5.499,M,-38.550,M,7.0,0131*6B
$PYRTM,2024,125.417338131250,16.526985541389
$GNHDT,127.957,T*24
$PYRTM,2024,125.417343865625,16.526991275775
$GNGGA,100058.50,3512.52950997,N,12150.15674587,W,2,12,0.8,5.390,M,-38.550,M,7.4,0131*63
$PYRTM,2024,125.417343865625,16.526991275775
$GNHDT,127.589,T*2B
$PYRTM,2024,125.417349703704,16.526997113843
$GNGGA,100059.00,3512.52935397,N,12150.15634924,W,2,12,0.8,5.296,M,-38.550,M,4.0,0131*6F
$PYRTM,2024,125.417349703704,16.526997113843
$GNHDT,127.517,T*2C
$PYRTM,2024,125.417355438125,16.527002848264
$GNGGA,100059.50,3512.52913968,N,12150.15597823,W,2,12,0.8,5.224,M,-38.550,M,4.4,0131*65
$PYRTM,2024,125.417355438125,16.527002848264
$GNHDT,127.573,T*2E
$PYRTM,2024,125.417361278218,16.527008688356
$GNGGA,100100.00,3512.52889422,N,12150.15561861,W,2,12,0.8,5.214,M,-38.550,M,5.0,0131*65
$PYRTM,2024,125.417361278218,16.527008688356
$GNHDT,127.497,T*25
$PYRTM,2024,125.417367012847,16.527014422986
$GNGGA,100100.50,3512.52862333,N,12150.15526869,W,2,12,0.8,5.268,M,-38.550,M,5.4,0131*66
$PYRTM,2024,125.417367012847,16.527014422986
$GNHDT,127.750,T*2D
$PYRTM,2024,125.417372852512,16.527020262650
$GNGGA,100101.00,3512.52833394,N,12150.15491470,W,2,12,0.8,5.422,M,-38.550,M,6.0,0131*6D
$PYRTM,2024,125.417372852512,16.527020262650
$GNHDT,127.787,T*27
$PYRTM,2024,125.417378587975,16.527025998125
$GNGGA,100101.50,3512.52805240,N,12150.15452395,W,2,12,0.8,5.631,M,-38.550,M,6.4,0131*62
$PYRTM,2024,125.417378587975,16.527025998125
$GNHDT,128.083,T*2B
$PYRTM,2024,125.417384428229,16.527031838368
$GNGGA,100102.00,3512.52777736,N,12150.15410588,W,2,12,0.8,5.853,M,-38.550,M,7.0,0131*69
$PYRTM,2024,125.417384428229,16.527031838368
$GNHDT,128.114,T*24
$PYRTM,2024,125.417390169572,16.527037579711
$GNGGA,100102.50,3512.52753047,N,12150.15363712,W,2,12,0.8,6.060,M,-38.550,M,7.4,0131*66
$PYRTM,2024,125.417390169572,16.527037579711
$GNHDT,128.144,T*21
$PYRTM,2024,125.417396001794,16.527043411933
$GNGGA,100103.00,3512.52731616,N,12150.15312513,W,2,12,0.8,6.178,M,-38.550,M,7.0,0131*6D
$PYRTM,2024,125.417396001794,16.527043411933
$GNHDT,128.289,T*23
$PYRTM,2024,125.417401738160,16.527049148299
$GNGGA,100103.50,3512.52710482,N,12150.15261231,W,2,12,0.8,6.178,M,-38.550,M,7.4,0131*62
$PYRTM,2024,125.417401738160,16.527049148299
$GNHDT,128.133,T*21
$PYRTM,2024,125.417407575648,16.527054985799
$GNGGA,100104.00,3512.52688206,N,12150.15211967,W,2,12,0.8,6.038,M,-38.550,M,7.0,0131*64
$PYRTM,2024,125.417407575648,16.527054985799
$GNHDT,128.092,T*2B
$PYRTM,2024,125.417413311238,16.527060721377
$GNGGA,100104.50,3512.52663378,N,12150.15167177,W,2,12,0.8,5.799,M,-38.550,M,7.4,0131*6C
$PYRTM,2024,125.417413311238,16.527060721377
$GNHDT,128.151,T*25
$PYRTM,2024,125.417419150220,16.527066560359
$GNGGA,100105.00,3512.52636048,N,12150.15126882,W,2,12,0.8,5.500,M,-38.550,M,4.0,0131*6B
$PYRTM,2024,125.417419150220,16.527066560359
$GNHDT,128.011,T*20
$PYRTM,2024,125.417424881597,16.527072291736
$GNGGA,100105.50,3512.52609442,N,12150.15088946,W,2,12,0.8,5.232,M,-38.550,M,4.4,0131*62
$PYRTM,2024,125.417424881597,16.527072291736
$GNHDT,127.610,T*28
$PYRTM,2024,125.417430726111,16.527078136250
$GNGGA,100106.00,3512.52587272,N,12150.15052271,W,2,12,0.8,5.062,M,-38.550,M,5.0,0131*6E
$PYRTM,2024,125.417430726111,16.527078136250
$GNHDT,127.468,T*25
$PYRTM,2024,125.417436457986,16.527083868137
$GNGGA,100106.50,3512.52567665,N,12150.15018011,W,2,12,0.8,5.080,M,-38.550,M,5.4,0131*65
$PYRTM,2024,125.417436457986,16.527083868137
$GNHDT,127.366,T*2C
$PYRTM,2024,125.417442296597,16.527089706736
$GNGGA,100107.00,3512.52552127,N,12150.14984114,W,2,12,0.8,5.249,M,-38.550,M,6.0,0131*6F
$PYRTM,2024,125.417442296597,16.527089706736
$GNHDT,127.351,T*28
$PYRTM,2024,125.417448032454,16.527095442593
$GNGGA,100107.50,3512.52540390,N,12150.14947141,W,2,12,0.8,5.513,M,-38.550,M,6.4,0131*64
$PYRTM,2024,125.417448032454,16.527095442593
$GNHDT,127.309,T*25
$PYRTM,2024,125.417453875324,16.527101285463
$GNGGA,100108.00,3512.52526123,N,12150.14910119,W,2,12,0.8,5.789,M,-38.550,M,7.0,0131*6F
$PYRTM,2024,125.417453875324,16.527101285463
$GNHDT,127.669,T*26
$PYRTM,2024,125.417459607836,16.527107017975
$GNGGA,100108.50,3512.52506707,N,12150.14872783,W,2,12,0.8,5.989,M,-38.550,M,7.4,0131*62
$PYRTM,2024,125.417459607836,16.527107017975
$GNHDT,127.670,T*2E
$PYRTM,2024,125.417465445822,16.527112855961
$GNGGA,100109.00,3512.52480708,N,12150.14835923,W,2,12,0.8,6.108,M,-38.550,M,7.0,0131*67
$PYRTM,2024,125.417465445822,16.527112855961
$GNHDT,127.937,T*22
$PYRTM,2024,125.417471178924,16.527118589062
$GNGGA,100109.50,3512.52451922,N,12150.14797471,W,2,12,0.8,6.125,M,-38.550,M,7.4,0131*6E
$PYRTM,2024,125.417471178924,16.527118589062
$GNHDT,127.706,T*2E
$PYRTM,2024,125.417477021123,16.527124431273
$GNGGA,100110.00,3512.52421141,N,12150.14756772,W,2,12,0.8,6.103,M,-38.550,M,7.0,0131*64
$PYRTM,2024,125.417477021123,16.527124431273
$GNHDT,127.540,T*2E
$PYRTM,2024,125.417482755197,16.527130165336
$GNGGA,100110.50,3512.52391301,N,12150.14714012,W,2,12,0.8,6.096,M,-38.550,M,7.4,0131*65
$PYRTM,2024,125.417482755197,16.527130165336
$GNHDT,127.547,T*29
$PYRTM,2024,125.417488595046,16.527136005185
$GNGGA,100111.00,3512.52364897,N,12150.14667388,W,2,12,0.8,6.102,M,-38.550,M,4.0,0131*61
$PYRTM,2024,125.417488595046,16.527136005185
$GNHDT,127.286,T*23
$PYRTM,2024,125.417494327708,16.527141737847
$GNGGA,100111.50,3512.52343004,N,12150.14617571,W,2,12,0.8,6.135,M,-38.550,M,4.4,0131*64
$PYRTM,2024,125.417494327708,16.527141737847
$GNHDT,126.954,T*26
$PYRTM,2024,125.417500166319,16.527147576470
$GNGGA,100112.00,3512.52323553,N,12150.14566506,W,2,12,0.8,6.140,M,-38.550,M,5.0,0131*61
$PYRTM,2024,125.417500166319,16.527147576470
$GNHDT,126.783,T*22
$PYRTM,2024,125.417505901609,16.527153311759
$GNGGA,100112.50,3512.52303704,N,12150.14516363,W,2,12,0.8,6.071,M,-38.550,M,5.4,0131*63
$PYRTM,2024,125.417505901609,16.527153311759
$GNHDT,126.737,T*2D
$PYRTM,2024,125.417511740972,16.527159151111
$GNGGA,100113.00,3512.52284362,N,12150.14466948,W,2,12,0.8,5.944,M,-38.550,M,6.0,0131*63
$PYRTM,2024,125.417511740972,16.527159151111
$GNHDT,126.888,T*26
$PYRTM,2024,125.417517475324,16.527164885475
$GNGGA,100113.50,3512.52262920,N,12150.14422702,W,2,12,0.8,5.783,M,-38.550,M,6.4,0131*63
$PYRTM,2024,125.417517475324,16.527164885475
$GNHDT,127.040,T*2B
$PYRTM,2024,125.417523316412,16.527170726551
$GNGGA,100114.00,3512.52239181,N,12150.14385335,W,2,12,0.8,5.580,M,-38.550,M,7.0,0131*62
$PYRTM,2024,125.417523316412,16.527170726551
$GNHDT,127.484,T*27
$PYRTM,2024,125.417529052060,16.527176462199
$GNGGA,100114.50,3512.52214295,N,12150.14353302,W,2,12,0.8,5.380,M,-38.550,M,7.4,0131*63
$PYRTM,2024,125.417529052060,16.527176462199
$GNHDT,127.581,T*23
$PYRTM,2024,125.417534890162,16.527182300301
$GNGGA,100115.00,3512.52189141,N,12150.14325394,W,2,12,0.8,5.179,M,-38.550,M,7.0,0131*64
$PYRTM,2024,125.417534890162,16.527182300301
$GNHDT,127.648,T*25
$PYRTM,2024,125.417540624479,16.527188034618
$GNGGA,100115.50,3512.52164249,N,12150.14298976,W,2,12,0.8,4.989,M,-38.550,M,7.4,0131*6A
$PYRTM,2024,125.417540624479,16.527188034618
$GNHDT,127.631,T*2B
$PYRTM,2024,125.417546463206,16.527193873356
$GNGGA,100116.00,3512.52142366,N,12150.14268243,W,2,12,0.8,4.877,M,-38.550,M,7.0,0131*62
$PYRTM,2024,125.417546463206,16.527193873356
$GNHDT,127.639,T*23
$PYRTM,2024,125.417552198079,16.527199608218
$GNGGA,100116.50,3512.52121786,N,12150.14234006,W,2,12,0.8,4.836,M,-38.550,M,7.4,0131*63
$PYRTM,2024,125.417552198079,16.527199608218
$GNHDT,127.532,T*2B
$PYRTM,2024,125.417558040428,16.527205450567
$GNGGA,100117.00,3512.52101512,N,12150.14194754,W,2,12,0.8,4.898,M,-38.550,M,4.0,0131*60
$PYRTM,2024,125.417558040428,16.527205450567
$GNHDT,127.385,T*21
$PYRTM,2024,125.417563774745,16.527211184884
$GNGGA,100117.50,3512.52083776,N,12150.14148757,W,2,12,0.8,5.061,M,-38.550,M,4.4,0131*67
$PYRTM,2024,125.417563774745,16.527211184884
$GNHDT,126.966,T*27
$PYRTM,2024,125.417569613056,16.527217023194
$GNGGA,100118.00,3512.52067001,N,12150.14098259,W,2,12,0.8,5.349,M,-38.550,M,5.0,0131*6B
$PYRTM,2024,125.417569613056,16.527217023194
$GNHDT,126.627,T*2D
$PYRTM,2024,125.417575346250,16.527222756389
$GNGGA,100118.50,3512.52049303,N,12150.14046624,W,2,12,0.8,5.726,M,-38.550,M,5.4,0131*67
$PYRTM,2024,125.417575346250,16.527222756389
$GNHDT,126.891,T*2E
$PYRTM,2024,125.417581189225,16.527228599363
$GNGGA,100119.00,3512.52030069,N,12150.13996399,W,2,12,0.8,6.130,M,-38.550,M,6.0,0131*67
$PYRTM,2024,125.417581189225,16.527228599363
$GNHDT,126.691,T*20
$PYRTM,2024,125.417586919595,16.527234329734
$GNGGA,100119.50,3512.52008793,N,12150.13949066,W,2,12,0.8,6.479,M,-38.550,M,6.4,0131*66
$PYRTM,2024,125.417586919595,16.527234329734
$GNHDT,126.733,T*29
$PYRTM,2024,125.417592761551,16.527240171690
$GNGGA,100120.00,3512.51984379,N,12150.13904954,W,2,12,0.8,6.667,M,-38.550,M,7.0,0131*6E
$PYRTM,2024,125.417592761551,16.527240171690
$GNHDT,126.798,T*28
$PYRTM,2024,125.417598494699,16.527245904838
$GNGGA,100120.50,3512.51957368,N,12150.13863136,W,2,12,0.8,6.685,M,-38.550,M,7.4,0131*61
$PYRTM,2024,125.417598494699,16.527245904838
$GNHDT,126.901,T*26
$PYRTM,2024,125.417604337616,16.527251747766
$GNGGA,100121.00,3512.51928079,N,12150.13823028,W,2,12,0.8,6.516,M,-38.550,M,7.0,0131*69
$PYRTM,2024,125.417604337616,16.527251747766
$GNHDT,126.669,T*27
$PYRTM,2024,125.417610068843,16.527257478981
$GNGGA,100121.50,3512.51898363,N,12150.13784522,W,2,12,0.8,6.227,M,-38.550,M,7.4,0131*62
$PYRTM,2024,125.417610068843,16.527257478981
$GNHDT,126.814,T*23
$PYRTM,2024,125.417615909699,16.527263319838
$GNGGA,100122.00,3512.51869760,N,12150.13748218,W,2,12,0.8,5.893,M,-38.550,M,7.0,0131*61
$PYRTM,2024,125.417615909699,16.527263319838
$GNHDT,127.084,T*23
$PYRTM,2024,125.417621644120,16.527269054259
$GNGGA,100122.50,3512.51845481,N,12150.13712501,W,2,12,0.8,5.595,M,-38.550,M,7.4,0131*69
$PYRTM,2024,125.417621644120,16.527269054259
$GNHDT,127.263,T*28
$PYRTM,2024,125.417627481574,16.527274891713
$GNGGA,100123.00,3512.51826438,N,12150.13676830,W,2,12,0.8,5.369,M,-38.550,M,4.0,0131*64
$PYRTM,2024,125.417627481574,16.527274891713
$GNHDT,127.287,T*22
$PYRTM,2024,125.417633216389,16.527280626528
$GNGGA,100123.50,3512.51812945,N,12150.13639487,W,2,12,0.8,5.226,M,-38.550,M,4.4,0131*64
$PYRTM,2024,125.417633216389,16.527280626528
$GNHDT,127.400,T*2B
$PYRTM,2024,125.417639059410,16.527286469549
$GNGGA,100124.00,3512.51802460,N,12150.13600430,W,2,12,0.8,5.114,M,-38.550,M,5.0,0131*6C
$PYRTM,2024,125.417639059410,16.527286469549
$GNHDT,127.559,T*26
$PYRTM,2024,125.417644790069,16.527292200208
$GNGGA,100124.50,3512.51789191,N,12150.13562228,W,2,12,0.8,5.049,M,-38.550,M,5.4,0131*6B
$PYRTM,2024,125.417644790069,16.527292200208
$GNHDT,127.693,T*23
$PYRTM,2024,125.417650632118,16.527298042257
$GNGGA,100125.00,3512.51771321,N,12150.13526365,W,2,12,0.8,4.996,M,-38.550,M,6.0,0131*64
$PYRTM,2024,125.417650632118,16.527298042257
$GNHDT,127.827,T*22
$PYRTM,2024,125.417656364317,16.527303774456
$GNGGA,100125.50,3512.51753398,N,12150.13488764,W,2,12,0.8,4.999,M,-38.550,M,6.4,0131*68
$PYRTM,2024,125.417656364317,16.527303774456
$GNHDT,127.740,T*2C
$PYRTM,2024,125.417662204444,16.527309614583
$GNGGA,100126.00,3512.51733813,N,12150.13450405,W,2,12,0.8,5.104,M,-38.550,M,7.0,0131*69
$PYRTM,2024,125.417662204444,16.527309614583
$GNHDT,127.591,T*22
$PYRTM,2024,125.417667940706,16.527315350845
$GNGGA,100126.50,3512.51709987,N,12150.13413753,W,2,12,0.8,5.270,M,-38.550,M,7.4,0131*6A
$PYRTM,2024,125.417667940706,16.527315350845
$GNHDT,127.399,T*2C
$PYRTM,2024,125.417673783403,16.527321193542
$GNGGA,100127.00,3512.51681354,N,12150.13377191,W,2,12,0.8,5.503,M,-38.550,M,7.0,0131*61
$PYRTM,2024,125.417673783403,16.527321193542
$GNHDT,127.307,T*2B
$PYRTM,2024,125.417679515359,16.527326925498
$GNGGA,100127.50,3512.51653189,N,12150.13335859,W,2,12,0.8,5.738,M,-38.550,M,7.4,0131*6C
$PYRTM,2024,125.417679515359,16.527326925498
$GNHDT,127.353,T*2A
$PYRTM,2024,125.417685352407,16.527332762546
$GNGGA,100128.00,3512.51623398,N,12150.13290725,W,2,12,0.8,5.917,M,-38.550,M,7.0,0131*6E
$PYRTM,2024,125.417685352407,16.527332762546
$GNHDT,127.253,T*2B
$PYRTM,2024,125.417691086412,16.527338496551
$GNGGA,100128.50,3512.51592180,N,12150.13243081,W,2,12,0.8,6.005,M,-38.550,M,7.4,0131*63
$PYRTM,2024,125.417691086412,16.527338496551
$GNHDT,126.905,T*22
$PYRTM,2024,125.417696933102,16.527344343241
$GNGGA,100129.00,3512.51560658,N,12150.13192728,W,2,12,0.8,6.007,M,-38.550,M,4.0,0131*66
$PYRTM,2024,125.417696933102,16.527344343241
$GNHDT,126.970,T*20
$PYRTM,2024,125.417702664641,16.527350074780
$GNGGA,100129.50,3512.51530117,N,12150.13142485,W,2,12,0.8,5.974,M,-38.550,M,4.4,0131*69
$PYRTM,2024,125.417702664641,16.527350074780
$GNHDT,126.926,T*23
$PYRTM,2024,125.417708500729,16.527355910868
$GNGGA,100130.00,3512.51500664,N,12150.13093784,W,2,12,0.8,5.920,M,-38.550,M,5.0,0131*6F
$PYRTM,2024,125.417708500729,16.527355910868
$GNHDT,127.090,T*26
$PYRTM,2024,125.417714239329,16.527361649468
$GNGGA,100130.50,3512.51471952,N,12150.13048567,W,2,12,0.8,5.929,M,-38.550,M,5.4,0131*63
$PYRTM,2024,125.417714239329,16.527361649468
$GNHDT,127.338,T*27
$PYRTM,2024,125.417720076794,16.527367486933
$GNGGA,100131.00,3512.51445468,N,12150.13006885,W,2,12,0.8,5.989,M,-38.549,M,6.0,0131*6A
$PYRTM,2024,125.417720076794,16.527367486933
$GNHDT,127.621,T*2A
$PYRTM,2024,125.417725809977,16.527373220116
$GNGGA,100131.50,3512.51423918,N,12150.12966549,W,2,12,0.8,6.081,M,-38.549,M,6.4,0131*60
$PYRTM,2024,125.417725809977,16.527373220116
$GNHDT,128.037,T*24
$PYRTM,2024,125.417731656678,16.527379066829
$GNGGA,100132.00,3512.51405666,N,12150.12928075,W,2,12,0.8,6.156,M,-38.549,M,7.0,0131*6A
$PYRTM,2024,125.417731656678,16.527379066829
$GNHDT,128.030,T*23
$PYRTM,2024,125.417737390810,16.527384800949
$GNGGA,100132.50,3512.51389903,N,12150.12890422,W,2,12,0.8,6.163,M,-38.549,M,7.4,0131*66
$PYRTM,2024,125.417737390810,16.527384800949
$GNHDT,128.528,T*2F
$PYRTM,2024,125.417743222500,16.527390632639
$GNGGA,100133.00,3512.51373647,N,12150.12855374,W,2,12,0.8,6.051,M,-38.549,M,7.0,0131*61
$PYRTM,2024,125.417743222500,16.527390632639
$GNHDT,128.742,T*21
$PYRTM,2024,125.417748956863,16.527396367002
$GNGGA,100133.50,3512.51356912,N,12150.12820825,W,2,12,0.8,5.817,M,-38.549,M,7.4,0131*6C
$PYRTM,2024,125.417748956863,16.527396367002
$GNHDT,128.260,T*24
$PYRTM,2024,125.417754796701,16.527402206852
$GNGGA,100134.00,3512.51338666,N,12150.12786466,W,2,12,0.8,5.495,M,-38.549,M,7.0,0131*60
$PYRTM,2024,125.417754796701,16.527402206852
$GNHDT,128.150,T*24
$PYRTM,2024,125.417760534595,16.527407944734
$GNGGA,100134.50,3512.51318814,N,12150.12751585,W,2,12,0.8,5.139,M,-38.549,M,7.4,0131*6D
$PYRTM,2024,125.417760534595,16.527407944734
$GNHDT,127.976,T*27
$PYRTM,2024,125.417766375741,16.527413785880
$GNGGA,100135.00,3512.51298303,N,12150.12713502,W,2,12,0.8,4.850,M,-38.549,M,4.0,0131*64
$PYRTM,2024,125.417766375741,16.527413785880
$GNHDT,127.755,T*28
$PYRTM,2024,125.417772108831,16.527419518970
$GNGGA,100135.50,3512.51278147,N,12150.12672470,W,2,12,0.8,4.746,M,-38.549,M,4.4,0131*63
$PYRTM,2024,125.417772108831,16.527419518970
$GNHDT,127.424,T*2D
$PYRTM,2024,125.417777945729,16.527425355868
$GNGGA,100136.00,3512.51258079,N,12150.12628282,W,2,12,0.8,4.876,M,-38.549,M,5.0,0131*66
$PYRTM,2024,125.417777945729,16.527425355868
$GNHDT,127.161,T*29
$PYRTM,2024,125.417783680359,16.527431090498
$GNGGA,100136.50,3512.51241438,N,12150.12581989,W,2,12,0.8,5.196,M,-38.549,M,5.4,0131*68
$PYRTM,2024,125.417783680359,16.527431090498
$GNHDT,127.290,T*24
$PYRTM,2024,125.417789519514,16.527436929653
$GNGGA,100137.00,3512.51225026,N,12150.12535569,W,2,12,0.8,5.646,M,-38.549,M,6.0,0131*65
$PYRTM,2024,125.417789519514,16.527436929653
$GNHDT,127.158,T*23
$PYRTM,2024,125.417795255394,16.527442665532
$GNGGA,100137.50,3512.51202840,N,12150.12491532,W,2,12,0.8,6.078,M,-38.549,M,6.4,0131*60
$PYRTM,2024,125.417795255394,16.527442665532
$GNHDT,127.458,T*26
$PYRTM,2024,125.417801099433,16.527448509572
$GNGGA,100138.00,3512.51175713,N,12150.12450454,W,2,12,0.8,6.387,M,-38.549,M,7.0,0131*6A
$PYRTM,2024,125.417801099433,16.527448509572
$GNHDT,127.836,T*22
$PYRTM,2024,125.417806827558,16.527454237697
$GNGGA,100138.50,3512.51143118,N,12150.12412031,W,2,12,0.8,6.483,M,-38.549,M,7.4,0131*61
$PYRTM,2024,125.417806827558,16.527454237697
$GNHDT,127.985,T*2B
$PYRTM,2024,125.417812665799,16.527460075937
$GNGGA,100139.00,3512.51108103,N,12150.12374686,W,2,12,0.8,6.405,M,-38.549,M,7.0,0131*67
$PYRTM,2024,125.417812665799,16.527460075937
$GNHDT,128.454,T*25
$PYRTM,2024,125.417818408194,16.527465818333
$GNGGA,100139.50,3512.51072591,N,12150.12338836,W,2,12,0.8,6.148,M,-38.549,M,7.4,0131*64
$PYRTM,2024,125.417818408194,16.527465818333
$GNHDT,128.925,T*2E
$PYRTM,2024,125.417824244525,16.527471654664
$GNGGA,100140.00,3512.51041477,N,12150.12300873,W,2,12,0.8,5.785,M,-38.549,M,7.0,0131*6C
$PYRTM,2024,125.417824244525,16.527471654664
$GNHDT,129.077,T*21
$PYRTM,2024,125.417829975694,16.527477385833
$GNGGA,100140.50,3512.51015055,N,12150.12262763,W,2,12,0.8,5.420,M,-38.549,M,7.4,0131*6F
$PYRTM,2024,125.417829975694,16.527477385833
$GNHDT,129.248,T*2F
$PYRTM,2024,125.417835814780,16.527483224919
$GNGGA,100141.00,3512.50993142,N,12150.12223265,W,2,12,0.8,5.132,M,-38.549,M,4.0,0131*6D
$PYRTM,2024,125.417835814780,16.527483224919
$GNHDT,129.197,T*2E
$PYRTM,2024,125.417841548808,16.527488958947
$GNGGA,100141.50,3512.50976020,N,12150.12181890,W,2,12,0.8,4.983,M,-38.549,M,4.4,0131*6A
$PYRTM,2024,125.417841548808,16.527488958947
$GNHDT,128.816,T*2F
$PYRTM,2024,125.417847388229,16.527494798368
$GNGGA,100142.00,3512.50965114,N,12150.12135116,W,2,12,0.8,4.975,M,-38.549,M,5.0,0131*6C
$PYRTM,2024,125.417847388229,16.527494798368
$GNHDT,128.624,T*20
$PYRTM,2024,125.417853125174,16.527500535312
$GNGGA,100142.50,3512.50954873,N,12150.12087978,W,2,12,0.8,5.074,M,-38.549,M,5.4,0131*66
$PYRTM,2024,125.417853125174,16.527500535312
$GNHDT,128.435,T*22
$PYRTM,2024,125.417858965752,16.527506375891
$GNGGA,100143.00,3512.50944103,N,12150.12041050,W,2,12,0.8,5.265,M,-38.549,M,6.0,0131*61
$PYRTM,2024,125.417858965752,16.527506375891
$GNHDT,128.100,T*21
$PYRTM,2024,125.417864696910,16.527512107060
$GNGGA,100143.50,3512.50926330,N,12150.12000576,W,2,12,0.8,5.485,M,-38.549,M,6.4,0131*6A
$PYRTM,2024,125.417864696910,16.527512107060
$GNHDT,128.358,T*2E
$PYRTM,2024,125.417870537488,16.527517947627
$GNGGA,100144.00,3512.50901574,N,12150.11965584,W,2,12,0.8,5.726,M,-38.549,M,7.0,0131*60
$PYRTM,2024,125.417870537488,16.527517947627
$GNHDT,128.540,T*21
$PYRTM,2024,125.417876277905,16.527523688044
$GNGGA,100144.50,3512.50872257,N,12150.11933170,W,2,12,0.8,5.931,M,-38.549,M,7.4,0131*66
$PYRTM,2024,125.417876277905,16.527523688044
$GNHDT,128.827,T*2D
$PYRTM,2024,125.417882112836,16.527529522975
$GNGGA,100145.00,3512.50842711,N,12150.11899754,W,2,12,0.8,6.057,M,-38.549,M,7.0,0131*69
$PYRTM,2024,125.417882112836,16.527529522975
$GNHDT,129.063,T*24
$PYRTM,2024,125.417887849410,16.527535259549
$GNGGA,100145.50,3512.50811321,N,12150.11864307,W,2,12,0.8,6.068,M,-38.549,M,7.4,0131*65
$PYRTM,2024,125.417887849410,16.527535259549
$GNHDT,129.072,T*24
$PYRTM,2024,125.417893687315,16.527541097454
$GNGGA,100146.00,3512.50781695,N,12150.11823587,W,2,12,0.8,6.008,M,-38.549,M,7.0,0131*60
$PYRTM,2024,125.417893687315,16.527541097454
$GNHDT,129.161,T*27
$PYRTM,2024,125.417899422164,16.527546832303
$GNGGA,100146.50,3512.50752441,N,12150.11779418,W,2,12,0.8,5.908,M,-38.549,M,7.4,0131*69
$PYRTM,2024,125.417899422164,16.527546832303
$GNHDT,129.138,T*2B
$PYRTM,2024,125.417905261725,16.527552671863
$GNGGA,100147.00,3512.50726028,N,12150.11729324,W,2,12,0.8,5.837,M,-38.549,M,4.0,0131*62
$PYRTM,2024,125.417905261725,16.527552671863
$GNHDT,129.014,T*24
$PYRTM,2024,125.417910998113,16.527558408252
$GNGGA,100147.50,3512.50704404,N,12150.11677930,W,2,12,0.8,5.803,M,-38.549,M,4.4,0131*6B
$PYRTM,2024,125.417910998113,16.527558408252
$GNHDT,128.903,T*2A
$PYRTM,2024,125.417916835428,16.527564245567
$GNGGA,100148.00,3512.50686224,N,12150.11627701,W,2,12,0.8,5.825,M,-38.549,M,5.0,0131*66
$PYRTM,2024,125.417916835428,16.527564245567
$GNHDT,128.895,T*24
$PYRTM,2024,125.417922568785,16.527569978924
$GNGGA,100148.50,3512.50665459,N,12150.11583657,W,2,12,0.8,5.915,M,-38.549,M,5.4,0131*6B
$PYRTM,2024,125.417922568785,16.527569978924
$GNHDT,128.785,T*2A
$PYRTM,2024,125.417928411169,16.527575821308
$GNGGA,100149.00,3512.50644960,N,12150.11543644,W,2,12,0.8,6.023,M,-38.549,M,6.0,0131*6D
$PYRTM,2024,125.417928411169,16.527575821308
$GNHDT,129.251,T*27
$PYRTM,2024,125.417934147303,16.527581557442
$GNGGA,100149.50,3512.50623780,N,12150.11505925,W,2,12,0.8,6.090,M,-38.549,M,6.4,0131*6F
$PYRTM,2024,125.417934147303,16.527581557442
$GNHDT,129.591,T*2C
$PYRTM,2024,125.417939983160,16.527587393299
$GNGGA,100150.00,3512.50602313,N,12150.11470674,W,2,12,0.8,6.056,M,-38.549,M,7.0,0131*68
$PYRTM,2024,125.417939983160,16.527587393299
$GNHDT,129.833,T*29
$PYRTM,2024,125.417945716262,16.527593126400
$GNGGA,100150.50,3512.50580324,N,12150.11436555,W,2,12,0.8,5.909,M,-38.549,M,7.4,0131*66
$PYRTM,2024,125.417945716262,16.527593126400
$GNHDT,130.132,T*29
$PYRTM,2024,125.417951556667,16.527598966806
$GNGGA,100151.00,3512.50558371,N,12150.11403663,W,2,12,0.8,5.648,M,-38.549,M,7.0,0131*69
$PYRTM,2024,125.417951556667,16.527598966806
$GNHDT,130.038,T*22
$PYRTM,2024,125.417957290255,16.527604700394
$GNGGA,100151.50,3512.50536003,N,12150.11371867,W,2,12,0.8,5.332,M,-38.549,M,7.4,0131*66
$PYRTM,2024,125.417957290255,16.527604700394
$GNHDT,129.910,T*29
$PYRTM,2024,125.417963134456,16.527610544595
$GNGGA,100152.00,3512.50509724,N,12150.11343961,W,2,12,0.8,5.028,M,-38.549,M,7.0,0131*64
$PYRTM,2024,125.417963134456,16.527610544595
$GNHDT,129.567,T*25
$PYRTM,2024,125.417968864236,16.527616274375
$GNGGA,100152.50,3512.50485913,N,12150.11313118,W,2,12,0.8,4.829,M,-38.549,M,7.4,0131*61
$PYRTM,2024,125.417968864236,16.527616274375
$GNHDT,129.137,T*24
$PYRTM,2024,125.417974706678,16.527622116817
$GNGGA,100153.00,3512.50461848,N,12150.11280232,W,2,12,0.8,4.776,M,-38.549,M,4.0,0131*62
$PYRTM,2024,125.417974706678,16.527622116817
$GNHDT,128.884,T*24
$PYRTM,2024,125.417980440961,16.527627851100
$GNGGA,100153.50,3512.50443136,N,12150.11240223,W,2,12,0.8,4.871,M,-38.549,M,4.4,0131*67
$PYRTM,2024,125.417980440961,16.527627851100
$GNHDT,129.070,T*26
$PYRTM,2024,125.417986285509,16.527633695648
$GNGGA,100154.00,3512.50425755,N,12150.11195511,W,2,12,0.8,5.098,M,-38.549,M,5.0,0131*60
$PYRTM,2024,125.417986285509,16.527633695648
$GNHDT,129.309,T*2B
$PYRTM,2024,125.417992012280,16.527639422431
$GNGGA,100154.50,3512.50404239,N,12150.11151151,W,2,12,0.8,5.395,M,-38.549,M,5.4,0131*6B
$PYRTM,2024,125.417992012280,16.527639422431
$GNHDT,129.850,T*2C
$PYRTM,2024,125.417997853727,16.527645263866
$GNGGA,100155.00,3512.50379747,N,12150.11107518,W,2,12,0.8,5.720,M,-38.549,M,6.0,0131*69
$PYRTM,2024,125.417997853727,16.527645263866
$GNHDT,130.340,T*2E
$PYRTM,2024,125.418003589167,16.527650999306
$GNGGA,100155.50,3512.50353564,N,12150.11063544,W,2,12,0.8,5.991,M,-38.549,M,6.4,0131*6D
$PYRTM,2024,125.418003589167,16.527650999306
$GNHDT,130.591,T*24
$PYRTM,2024,125.418009431424,16.527656841563
$GNGGA,100156.00,3512.50322527,N,12150.11022168,W,2,12,0.8,6.176,M,-38.549,M,7.0,0131*62
$PYRTM,2024,125.418009431424,16.527656841563
$GNHDT,130.986,T*2E
$PYRTM,2024,125.418015168252,16.527662578391
$GNGGA,100156.50,3512.50289675,N,12150.10982474,W,2,12,0.8,6.216,M,-38.549,M,7.4,0131*68
$PYRTM,2024,125.418015168252,16.527662578391
$GNHDT,130.817,T*27
$PYRTM,2024,125.418021007118,16.527668417257
$GNGGA,100157.00,3512.50257117,N,12150.10941977,W,2,12,0.8,6.149,M,-38.549,M,7.0,0131*60
$PYRTM,2024,125.418021007118,16.527668417257
$GNHDT,130.718,T*27
$PYRTM,2024,125.418026738403,16.527674148542
$GNGGA,100157.50,3512.50222687,N,12150.10903873,W,2,12,0.8,6.003,M,-38.549,M,7.4,0131*61
$PYRTM,2024,125.418026738403,16.527674148542
$GNHDT,130.618,T*26
$PYRTM,2024,125.418032581134,16.527679991285
$GNGGA,100158.00,3512.50188932,N,12150.10866440,W,2,12,0.8,5.815,M,-38.549,M,7.0,0131*6F
$PYRTM,2024,125.418032581134,16.527679991285
$GNHDT,130.393,T*20
$PYRTM,2024,125.418038311586,16.527685721736
$GNGGA,100158.50,3512.50163398,N,12150.10824183,W,2,12,0.8,5.664,M,-38.549,M,7.4,0131*65
$PYRTM,2024,125.418038311586,16.527685721736
$GNHDT,130.178,T*27
$PYRTM,2024,125.418044152928,16.527691563079
$GNGGA,100159.00,3512.50141261,N,12150.10781376,W,2,12,0.8,5.589,M,-38.549,M,4.0,0131*69
$PYRTM,2024,125.418044152928,16.527691563079
$GNHDT,130.007,T*2E
$PYRTM,2024,125.418049882523,16.527697292662
$GNGGA,100159.50,3512.50124657,N,12150.10736072,W,2,12,0.8,5.580,M,-38.549,M,4.4,0131*68
$PYRTM,2024,125.418049882523,16.527697292662
$GNHDT,129.774,T*25
$PYRTM,2024,125.418055725972,16.527703136123
$GNGGA,100200.00,3512.50113409,N,12150.10689003,W,2,12,0.8,5.621,M,-38.549,M,5.0,0131*61
$PYRTM,2024,125.418055725972,16.527703136123
$GNHDT,129.791,T*2E
$PYRTM,2024,125.418061457257,16.527708867396
$GNGGA,100200.50,3512.50100737,N,12150.10643635,W,2,12,0.8,5.681,M,-38.549,M,5.4,0131*63
$PYRTM,2024,125.418061457257,16.527708867396
$GNHDT,130.046,T*2B
$PYRTM,2024,125.418067298924,16.527714709063
$GNGGA,100201.00,3512.50083298,N,12150.10602928,W,2,12,0.8,5.711,M,-38.549,M,6.0,0131*64
$PYRTM,2024,125.418067298924,16.527714709063
$GNHDT,130.039,T*23
$PYRTM,2024,125.418073030544,16.527720440683
$GNGGA,100201.50,3512.50061823,N,12150.10567591,W,2,12,0.8,5.740,M,-38.549,M,6.4,0131*69
$PYRTM,2024,125.418073030544,16.527720440683
$GNHDT,130.459,T*21
$PYRTM,2024,125.418078873993,16.527726284132
$GNGGA,100202.00,3512.50035075,N,12150.10538953,W,2,12,0.8,5.740,M,-38.549,M,7.0,0131*68
$PYRTM,2024,125.418078873993,16.527726284132
$GNHDT,130.662,T*2B
$PYRTM,2024,125.418084607859,16.527732017998
$GNGGA,100202.50,3512.50004502,N,12150.10513687,W,2,12,0.8,5.721,M,-38.549,M,7.4,0131*66
$PYRTM,2024,125.418084607859,16.527732017998
$GNHDT,130.476,T*2C
$PYRTM,2024,125.418090447083,16.527737857222
$GNGGA,100203.00,3512.49971968,N,12150.10489013,W,2,12,0.8,5.677,M,-38.549,M,7.0,0131*6E
$PYRTM,2024,125.418090447083,16.527737857222
$GNHDT,130.697,T*21
$PYRTM,2024,125.418096183831,16.527743593981
$GNGGA,100203.50,3512.49941522,N,12150.10460878,W,2,12,0.8,5.638,M,-38.549,M,7.4,0131*67
$PYRTM,2024,125.418096183831,16.527743593981
$GNHDT,130.960,T*26
$PYRTM,2024,125.418102018750,16.527749428889
$GNGGA,100204.00,3512.49915185,N,12150.10423998,W,2,12,0.8,5.634,M,-38.549,M,7.0,0131*6D
$PYRTM,2024,125.418102018750,16.527749428889
$GNHDT,131.027,T*2D
$PYRTM,2024,125.418107755613,16.527755165752
$GNGGA,100204.50,3512.49892034,N,12150.10378240,W,2,12,0.8,5.666,M,-38.549,M,7.4,0131*69
$PYRTM,2024,125.418107755613,16.527755165752
$GNHDT,130.812,T*22
$PYRTM,2024,125.418113594005,16.527761004144
$GNGGA,100205.00,3512.49874477,N,12150.10322560,W,2,12,0.8,5.754,M,-38.549,M,4.0,0131*6B
$PYRTM,2024,125.418113594005,16.527761004144
$GNHDT,130.501,T*2D
$PYRTM,2024,125.418119328588,16.527766738727
$GNGGA,100205.50,3512.49859637,N,12150.10262856,W,2,12,0.8,5.866,M,-38.549,M,4.4,0131*60
$PYRTM,2024,125.418119328588,16.527766738727
$GNHDT,130.651,T*2B
$PYRTM,2024,125.418125170255,16.527772580405
$GNGGA,100206.00,3512.49845300,N,12150.10205016,W,2,12,0.8,5.987,M,-38.549,M,5.0,0131*6C
$PYRTM,2024,125.418125170255,16.527772580405
$GNHDT,130.423,T*2C
$PYRTM,2024,125.418130900139,16.527778310278
$GNGGA,100206.50,3512.49824836,N,12150.10155546,W,2,12,0.8,6.054,M,-38.549,M,5.4,0131*66
$PYRTM,2024,125.418130900139,16.527778310278
$GNHDT,130.520,T*2E
$PYRTM,2024,125.418136740694,16.527784150833
$GNGGA,100207.00,3512.49798227,N,12150.10117093,W,2,12,0.8,6.045,M,-38.549,M,6.0,0131*6C
$PYRTM,2024,125.418136740694,16.527784150833
$GNHDT,130.556,T*2F
$PYRTM,2024,125.418142477477,16.527789887616
$GNGGA,100207.50,3512.49767360,N,12150.10086160,W,2,12,0.8,5.956,M,-38.549,M,6.4,0131*63
$PYRTM,2024,125.418142477477,16.527789887616
$GNHDT,130.287,T*24
$PYRTM,2024,125.418148316516,16.527795726655
$GNGGA,100208.00,3512.49733278,N,12150.10060153,W,2,12,0.8,5.781,M,-38.549,M,7.0,0131*69
$PYRTM,2024,125.418148316516,16.527795726655
$GNHDT,130.229,T*20
$PYRTM,2024,125.418154049931,16.527801460069
$GNGGA,100208.50,3512.49699491,N,12150.10033227,W,2,12,0.8,5.561,M,-38.549,M,7.4,0131*62
$PYRTM,2024,125.418154049931,16.527801460069
$GNHDT,130.251,T*2F
$PYRTM,2024,125.418159893449,16.527807303588
$GNGGA,100209.00,3512.49667853,N,12150.10003206,W,2,12,0.8,5.335,M,-38.549,M,7.0,0131*66
$PYRTM,2024,125.418159893449,16.527807303588
$GNHDT,130.132,T*29
$PYRTM,2024,125.418165631782,16.527813041933
$GNGGA,100209.50,3512.49640192,N,12150.09968636,W,2,12,0.8,5.177,M,-38.549,M,7.4,0131*69
$PYRTM,2024,125.418165631782,16.527813041933
$GNHDT,130.125,T*2F
$PYRTM,2024,125.418171462072,16.527818872211
$GNGGA,100210.00,3512.49618275,N,12150.09928842,W,2,12,0.8,5.116,M,-38.549,M,7.0,0131*69
$PYRTM,2024,125.418171462072,16.527818872211
$GNHDT,130.257,T*29
$PYRTM,2024,125.418177199711,16.527824609850
$GNGGA,100210.50,3512.49602060,N,12150.09885176,W,2,12,0.8,5.158,M,-38.549,M,7.4,0131*67
$PYRTM,2024,125.418177199711,16.527824609850
$GNHDT,130.545,T*2D
$PYRTM,2024,125.418183045856,16.527830455995
$GNGGA,100211.00,3512.49590031,N,12150.09838337,W,2,12,0.8,5.323,M,-38.549,M,4.0,0131*67
$PYRTM,2024,125.418183045856,16.527830455995
$GNHDT,130.620,T*2D
$PYRTM,2024,125.418188771759,16.527836181898
$GNGGA,100211.50,3512.49577423,N,12150.09792583,W,2,12,0.8,5.533,M,-38.549,M,4.4,0131*69
$PYRTM,2024,125.418188771759,16.527836181898
$GNHDT,130.774,T*2D
$PYRTM,2024,125.418194611424,16.527842021574
$GNGGA,100212.00,3512.49561136,N,12150.09751229,W,2,12,0.8,5.745,M,-38.549,M,5.0,0131*67
$PYRTM,2024,125.418194611424,16.527842021574
$GNHDT,131.053,T*2E
$PYRTM,2024,125.418200348646,16.527847758785
$GNGGA,100212.50,3512.49539259,N,12150.09714597,W,2,12,0.8,5.889,M,-38.549,M,5.4,0131*6D
$PYRTM,2024,125.418200348646,16.527847758785
$GNHDT,131.294,T*27
$PYRTM,2024,125.418206184144,16.527853594282
$GNGGA,100213.00,3512.49510429,N,12150.09682235,W,2,12,0.8,5.924,M,-38.549,M,6.0,0131*63
$PYRTM,2024,125.418206184144,16.527853594282
$GNHDT,131.290,T*23
$PYRTM,2024,125.418211922384,16.527859332523
$GNGGA,100213.50,3512.49476917,N,12150.09650262,W,2,12,0.8,5.835,M,-38.549,M,6.4,0131*6F
$PYRTM,2024,125.418211922384,16.527859332523
$GNHDT,130.724,T*28
$PYRTM,2024,125.418217766736,16.527865176875
$GNGGA,100214.00,3512.49442033,N,12150.09615597,W,2,12,0.8,5.704,M,-38.549,M,7.0,0131*61
$PYRTM,2024,125.418217766736,16.527865176875
$GNHDT,130.388,T*2A
$PYRTM,2024,125.418223495266,16.527870905417
$GNGGA,100214.50,3512.49408862,N,12150.09575653,W,2,12,0.8,5.584,M,-38.549,M,7.4,0131*66
$PYRTM,2024,125.418223495266,16.527870905417
$GNHDT,130.003,T*2A
$PYRTM,2024,125.418229332303,16.527876742442
$GNGGA,100215.00,3512.49381370,N,12150.09529245,W,2,12,0.8,5.598,M,-38.548,M,7.0,0131*6E
$PYRTM,2024,125.418229332303,16.527876742442
$GNHDT,129.751,T*22
$PYRTM,2024,125.418235073553,16.527882483692
$GNGGA,100215.50,3512.49361659,N,12150.09478045,W,2,12,0.8,5.768,M,-38.548,M,7.4,0131*65
$PYRTM,2024,125.418235073553,16.527882483692
$GNHDT,129.545,T*25
$PYRTM,2024,125.418240906817,16.527888316956
$GNGGA,100216.00,3512.49350720,N,12150.09423981,W,2,12,0.8,6.062,M,-38.548,M,7.0,0131*6B
$PYRTM,2024,125.418240906817,16.527888316956
$GNHDT,129.672,T*22
$PYRTM,2024,125.418246645775,16.527894055926
$GNGGA,100216.50,3512.49341106,N,12150.09372092,W,2,12,0.8,6.350,M,-38.548,M,7.4,0131*62
$PYRTM,2024,125.418246645775,16.527894055926
$GNHDT,130.346,T*28
$PYRTM,2024,125.418252482986,16.527899893137
$GNGGA,100217.00,3512.49328557,N,12150.09327370,W,2,12,0.8,6.533,M,-38.548,M,4.0,0131*62
$PYRTM,2024,125.418252482986,16.527899893137
$GNHDT,130.736,T*2B
$PYRTM,2024,125.418258217153,16.527905627292
$GNGGA,100217.50,3512.49308131,N,12150.09292353,W,2,12,0.8,6.520,M,-38.548,M,4.4,0131*69
$PYRTM,2024,125.418258217153,16.527905627292
$GNHDT,131.260,T*2C
$PYRTM,2024,125.418264060162,16.527911470301
$GNGGA,100218.00,3512.49279807,N,12150.09266333,W,2,12,0.8,6.269,M,-38.548,M,5.0,0131*6A
$PYRTM,2024,125.418264060162,16.527911470301
$GNHDT,131.546,T*2F
$PYRTM,2024,125.418269794155,16.527917204294
$GNGGA,100218.50,3512.49245014,N,12150.09243385,W,2,12,0.8,5.871,M,-38.548,M,5.4,0131*64
$PYRTM,2024,125.418269794155,16.527917204294
$GNHDT,131.224,T*2C
$PYRTM,2024,125.418275635081,16.527923045220
$GNGGA,100219.00,3512.49207590,N,12150.09220835,W,2,12,0.8,5.399,M,-38.548,M,6.0,0131*60
$PYRTM,2024,125.418275635081,16.527923045220
$GNHDT,130.723,T*2F
$PYRTM,2024,125.418281368669,16.527928778808
$GNGGA,100219.50,3512.49174815,N,12150.09193270,W,2,12,0.8,5.036,M,-38.548,M,6.4,0131*60
$PYRTM,2024,125.418281368669,16.527928778808
$GNHDT,131.039,T*22
$PYRTM,2024,125.418287215440,16.527934625579
$GNGGA,100220.00,3512.49150686,N,12150.09156848,W,2,12,0.8,4.941,M,-38.548,M,7.0,0131*68
$PYRTM,2024,125.418287215440,16.527934625579
$GNHDT,130.642,T*29
$PYRTM,2024,125.418292938299,16.527940348438
$GNGGA,100220.50,3512.49134910,N,12150.09112578,W,2,12,0.8,5.116,M,-38.548,M,7.4,0131*6E
$PYRTM,2024,125.418292938299,16.527940348438
$GNHDT,130.574,T*2F
$PYRTM,2024,125.418298779954,16.527946190093
$GNGGA,100221.00,3512.49123621,N,12150.09062699,W,2,12,0.8,5.475,M,-38.548,M,7.0,0131*6F
$PYRTM,2024,125.418298779954,16.527946190093
$GNHDT,130.705,T*2B
$PYRTM,2024,125.418304516817,16.527951926956
$GNGGA,100221.50,3512.49113187,N,12150.09009989,W,2,12,0.8,5.904,M,-38.548,M,7.4,0131*6E
$PYRTM,2024,125.418304516817,16.527951926956
$GNHDT,131.188,T*29
$PYRTM,2024,125.418310358704,16.527957768843
$GNGGA,100222.00,3512.49098286,N,12150.08959960,W,2,12,0.8,6.286,M,-38.548,M,7.0,0131*64
$PYRTM,2024,125.418310358704,16.527957768843
$GNHDT,131.502,T*2F
$PYRTM,2024,125.418316089931,16.527963500069
$GNGGA,100222.50,3512.49075281,N,12150.08915719,W,2,12,0.8,6.491,M,-38.548,M,7.4,0131*69
$PYRTM,2024,125.418316089931,16.527963500069
$GNHDT,131.900,T*21
$PYRTM,2024,125.418321929363,16.527969339502
$GNGGA,100223.00,3512.49045295,N,12150.08877016,W,2,12,0.8,6.488,M,-38.548,M,4.0,0131*69
$PYRTM,2024,125.418321929363,16.527969339502
$GNHDT,131.903,T*22
$PYRTM,2024,125.418327661655,16.527975071794
$GNGGA,100223.50,3512.49009751,N,12150.08842830,W,2,12,0.8,6.316,M,-38.548,M,4.4,0131*67
$PYRTM,2024,125.418327661655,16.527975071794
$GNHDT,131.226,T*2E
$PYRTM,2024,125.418333509468,16.527980919606
$GNGGA,100224.00,3512.48972082,N,12150.08810663,W,2,12,0.8,6.026,M,-38.548,M,5.0,0131*62
$PYRTM,2024,125.418333509468,16.527980919606
$GNHDT,130.932,T*21
$PYRTM,2024,125.418339236412,16.527986646551
$GNGGA,100224.50,3512.48936654,N,12150.08778300,W,2,12,0.8,5.717,M,-38.548,M,5.4,0131*69
$PYRTM,2024,125.418339236412,16.527986646551
$GNHDT,130.885,T*2C
$PYRTM,2024,125.418345073808,16.527992483947
$GNGGA,100225.00,3512.48907475,N,12150.08743133,W,2,12,0.8,5.487,M,-38.548,M,6.0,0131*69
$PYRTM,2024,125.418345073808,16.527992483947
$GNHDT,130.708,T*26
$PYRTM,2024,125.418350813565,16.527998223704
$GNGGA,100225.50,3512.48885243,N,12150.08703267,W,2,12,0.8,5.413,M,-38.548,M,6.4,0131*6B
$PYRTM,2024,125.418350813565,16.527998223704
$GNHDT,130.484,T*21
$PYRTM,2024,125.418356662431,16.528004072569
$GNGGA,100226.00,3512.48870637,N,12150.08658788,W,2,12,0.8,5.491,M,-38.548,M,7.0,0131*64
$PYRTM,2024,125.418356662431,16.528004072569
$GNHDT,130.990,T*29
$PYRTM,2024,125.418362385023,16.528009795162
$GNGGA,100226.50,3512.48861176,N,12150.08612568,W,2,12,0.8,5.650,M,-38.548,M,7.4,0131*6A
$PYRTM,2024,125.418362385023,16.528009795162
$GNHDT,131.001,T*29
$PYRTM,2024,125.418368229155,16.528015639294
$GNGGA,100227.00,3512.48852979,N,12150.08565906,W,2,12,0.8,5.821,M,-38.548,M,7.0,0131*62
$PYRTM,2024,125.418368229155,16.528015639294
$GNHDT,131.131,T*2B
$PYRTM,2024,125.418373955914,16.528021366053
$GNGGA,100227.50,3512.48840026,N,12150.08525181,W,2,12,0.8,5.935,M,-38.548,M,7.4,0131*64
$PYRTM,2024,125.418373955914,16.528021366053
$GNHDT,131.950,T*24
$PYRTM,2024,125.418379798495,16.528027208634
$GNGGA,100228.00,3512.48819751,N,12150.08492637,W,2,12,0.8,5.957,M,-38.548,M,7.0,0131*62
$PYRTM,2024,125.418379798495,16.528027208634
$GNHDT,132.185,T*27
$PYRTM,2024,125.418385536296,16.528032946435
$GNGGA,100228.50,3512.48791759,N,12150.08465545,W,2,12,0.8,5.887,M,-38.548,M,7.4,0131*66
$PYRTM,2024,125.418385536296,16.528032946435
$GNHDT,132.044,T*2B
$PYRTM,2024,125.418391375498,16.528038785637
