$PYRTM,2024,126.500001870150,17.609649280289
$GNGGA,120000.00,3406.35629713,N,11952.96445805,W,2,13,0.8,6.430,M,-37.021,M,4.0,0131*6E
$PYRTM,2024,126.500001870150,17.609649280289
$GNHDT,94.620,T*12
$PYRTM,2024,126.500008212720,17.609655622859
$GNGGA,120000.50,3406.35620957,N,11952.96314464,W,2,13,0.8,6.360,M,-37.021,M,4.4,0131*62
$PYRTM,2024,126.500008212720,17.609655622859
$GNHDT,94.458,T*1F
$PYRTM,2024,126.500013999838,17.609661409977
$GNGGA,120001.00,3406.35616859,N,11952.96179775,W,2,13,0.8,6.459,M,-37.021,M,5.0,0131*6E
$PYRTM,2024,126.500013999838,17.609661409977
$GNHDT,93.999,T*18
$PYRTM,2024,126.500018068669,17.609665478808
$GNGGA,120001.50,3406.35615261,N,11952.96040856,W,2,13,0.8,6.681,M,-37.021,M,5.4,0131*6F
$PYRTM,2024,126.500018068669,17.609665478808
$GNHDT,93.861,T*1E
$PYRTM,2024,126.500025573785,17.609672983924
$GNGGA,120002.00,3406.35611945,N,11952.95897837,W,2,13,0.8,6.982,M,-37.021,M,6.0,0131*6D
$PYRTM,2024,126.500025573785,17.609672983924
$GNHDT,93.344,T*12
$PYRTM,2024,126.500030759016,17.609678169144
$GNGGA,120002.50,3406.35603029,N,11952.95753259,W,2,13,0.8,7.289,M,-37.021,M,6.4,0131*68
$PYRTM,2024,126.500030759016,17.609678169144
$GNHDT,93.012,T*12
$PYRTM,2024,126.500042842292,17.609690252431
$GNGGA,120003.00,3406.35589115,N,11952.95607983,W,2,13,0.8,7.538,M,-37.021,M,7.0,0131*67
$PYRTM,2024,126.500042842292,17.609690252431
$GNHDT,92.897,T*16
$PYRTM,2024,126.500042842616,17.609690252755
$GNGGA,120003.50,3406.35571989,N,11952.95462133,W,2,13,0.8,7.704,M,-37.021,M,7.4,0131*63
$PYRTM,2024,126.500042842616,17.609690252755
$GNHDT,92.554,T*14
$PYRTM,2024,126.500048629363,17.609696039502
$GNGGA,120004.00,3406.35552761,N,11952.95315383,W,2,13,0.8,7.775,M,-37.021,M,7.0,0131*64
$PYRTM,2024,126.500048629363,17.609696039502
$GNHDT,92.629,T*1D
$PYRTM,2024,126.500053814537,17.609701224676
$GNGGA,120004.50,3406.35534732,N,11952.95168721,W,2,13,0.8,7.756,M,-37.021,M,7.4,0131*66
$PYRTM,2024,126.500053814537,17.609701224676
$GNHDT,92.618,T*1F
$PYRTM,2024,126.500058444201,17.609705854340
$GNGGA,120005.00,3406.35519328,N,11952.95023342,W,2,13,0.8,7.687,M,-37.021,M,7.0,0131*64
$PYRTM,2024,126.500058444201,17.609705854340
$GNHDT,92.766,T*17
$PYRTM,2024,126.500064740451,17.609712150590
$GNGGA,120005.50,3406.35508118,N,11952.94879952,W,2,13,0.8,7.587,M,-37.021,M,7.4,0131*6A
$PYRTM,2024,126.500064740451,17.609712150590
$GNHDT,92.860,T*1E
$PYRTM,2024,126.500070527454,17.609717937593
$GNGGA,120006.00,3406.35499286,N,11952.94739369,W,2,13,0.8,7.469,M,-37.021,M,4.0,0131*6E
$PYRTM,2024,126.500070527454,17.609717937593
$GNHDT,92.921,T*1A
$PYRTM,2024,126.500076823785,17.609724233924
$GNGGA,120006.50,3406.35490968,N,11952.94601839,W,2,13,0.8,7.330,M,-37.021,M,4.4,0131*62
$PYRTM,2024,126.500076823785,17.609724233924
$GNHDT,93.311,T*12
$PYRTM,2024,126.500081453437,17.609728863576
$GNGGA,120007.00,3406.35481960,N,11952.94467437,W,2,13,0.8,7.157,M,-37.021,M,5.0,0131*68
$PYRTM,2024,126.500081453437,17.609728863576
$GNHDT,93.570,T*13
$PYRTM,2024,126.500087749745,17.609735159884
$GNGGA,120007.50,3406.35471370,N,11952.94336633,W,2,13,0.8,6.984,M,-37.021,M,5.4,0131*6F
$PYRTM,2024,126.500087749745,17.609735159884
$GNHDT,93.735,T*10
$PYRTM,2024,126.500093536771,17.609740946910
$GNGGA,120008.00,3406.35459015,N,11952.94208482,W,2,13,0.8,6.812,M,-37.021,M,6.0,0131*62
$PYRTM,2024,126.500093536771,17.609740946910
$GNHDT,93.787,T*19
$PYRTM,2024,126.500099277523,17.609746687662
$GNGGA,120008.50,3406.35447240,N,11952.94081290,W,2,13,0.8,6.695,M,-37.021,M,6.4,0131*69
$PYRTM,2024,126.500099277523,17.609746687662
$GNHDT,93.694,T*1A
$PYRTM,2024,126.500105064525,17.609752474664
$GNGGA,120009.00,3406.35436655,N,11952.93953187,W,2,13,0.8,6.602,M,-37.021,M,7.0,0131*64
$PYRTM,2024,126.500105064525,17.609752474664
$GNHDT,93.606,T*11
$PYRTM,2024,126.500111407153,17.609758817292
$GNGGA,120009.50,3406.35428684,N,11952.93824008,W,2,13,0.8,6.549,M,-37.021,M,7.4,0131*6D
$PYRTM,2024,126.500111407153,17.609758817292
$GNHDT,93.581,T*1D
$PYRTM,2024,126.500116592303,17.609764002442
$GNGGA,120010.00,3406.35423599,N,11952.93694889,W,2,13,0.8,6.564,M,-37.021,M,7.0,0131*6B
$PYRTM,2024,126.500116592303,17.609764002442
$GNHDT,93.472,T*10
$PYRTM,2024,126.500122888588,17.609770298727
$GNGGA,120010.50,3406.35421400,N,11952.93566348,W,2,13,0.8,6.665,M,-37.021,M,7.4,0131*63
$PYRTM,2024,126.500122888588,17.609770298727
$GNHDT,93.383,T*19
$PYRTM,2024,126.500127518206,17.609774928345
$GNGGA,120011.00,3406.35420680,N,11952.93437927,W,2,13,0.8,6.862,M,-37.021,M,7.0,0131*67
$PYRTM,2024,126.500127518206,17.609774928345
$GNHDT,93.229,T*18
$PYRTM,2024,126.500133814572,17.609781224711
$GNGGA,120011.50,3406.35419558,N,11952.93307811,W,2,13,0.8,7.072,M,-37.021,M,7.4,0131*62
$PYRTM,2024,126.500133814572,17.609781224711
$GNHDT,92.861,T*1F
$PYRTM,2024,126.500139601551,17.609787011690
$GNGGA,120012.00,3406.35415619,N,11952.93173865,W,2,13,0.8,7.230,M,-37.021,M,4.0,0131*6F
$PYRTM,2024,126.500139601551,17.609787011690
$GNHDT,92.552,T*12
$PYRTM,2024,126.500145383912,17.609792794051
$GNGGA,120012.50,3406.35407103,N,11952.93036091,W,2,13,0.8,7.286,M,-37.021,M,4.4,0131*6F
$PYRTM,2024,126.500145383912,17.609792794051
$GNHDT,92.416,T*13
$PYRTM,2024,126.500150620116,17.609798030255
$GNGGA,120013.00,3406.35393844,N,11952.92895245,W,2,13,0.8,7.236,M,-37.021,M,5.0,0131*6E
$PYRTM,2024,126.500150620116,17.609798030255
$GNHDT,92.050,T*15
$PYRTM,2024,126.500156957280,17.609804367419
$GNGGA,120013.50,3406.35377211,N,11952.92754662,W,2,13,0.8,7.171,M,-37.021,M,5.4,0131*6C
$PYRTM,2024,126.500156957280,17.609804367419
$GNHDT,91.835,T*1D
$PYRTM,2024,126.500162703692,17.609810113831
$GNGGA,120014.00,3406.35360012,N,11952.92616482,W,2,13,0.8,7.168,M,-37.021,M,6.0,0131*6D
$PYRTM,2024,126.500162703692,17.609810113831
$GNHDT,91.874,T*18
$PYRTM,2024,126.500168531319,17.609815941458
$GNGGA,120014.50,3406.35345289,N,11952.92480145,W,2,13,0.8,7.258,M,-37.021,M,6.4,0131*68
$PYRTM,2024,126.500168531319,17.609815941458
$GNHDT,92.133,T*11
$PYRTM,2024,126.500176592338,17.609824002477
$GNGGA,120015.00,3406.35334968,N,11952.92344895,W,2,13,0.8,7.425,M,-37.021,M,7.0,0131*6C
$PYRTM,2024,126.500176592338,17.609824002477
$GNHDT,92.353,T*15
$PYRTM,2024,126.500180106597,17.609827516736
$GNGGA,120015.50,3406.35328079,N,11952.92207275,W,2,13,0.8,7.570,M,-37.021,M,7.4,0131*6A
$PYRTM,2024,126.500180106597,17.609827516736
$GNHDT,92.296,T*1D
$PYRTM,2024,126.500187518218,17.609834928356
$GNGGA,120016.00,3406.35322269,N,11952.92066356,W,2,13,0.8,7.633,M,-37.021,M,7.0,0131*60
$PYRTM,2024,126.500187518218,17.609834928356
$GNHDT,92.277,T*12
$PYRTM,2024,126.500193860799,17.609841270938
$GNGGA,120016.50,3406.35316346,N,11952.91924607,W,2,13,0.8,7.640,M,-37.021,M,7.4,0131*63
$PYRTM,2024,126.500193860799,17.609841270938
$GNHDT,92.199,T*11
$PYRTM,2024,126.500198490440,17.609845900579
$GNGGA,120017.00,3406.35309300,N,11952.91784852,W,2,13,0.8,7.628,M,-37.021,M,7.0,0131*6B
$PYRTM,2024,126.500198490440,17.609845900579
$GNHDT,91.978,T*15
$PYRTM,2024,126.500204786840,17.609852196979
$GNGGA,120017.50,3406.35300725,N,11952.91647822,W,2,13,0.8,7.620,M,-37.021,M,7.4,0131*61
$PYRTM,2024,126.500204786840,17.609852196979
$GNHDT,91.745,T*15
$PYRTM,2024,126.500210573808,17.609857983947
$GNGGA,120018.00,3406.35289614,N,11952.91511702,W,2,13,0.8,7.582,M,-37.021,M,4.0,0131*69
$PYRTM,2024,126.500210573808,17.609857983947
$GNHDT,91.660,T*13
$PYRTM,2024,126.500215897847,17.609863307986
$GNGGA,120018.50,3406.35275002,N,11952.91374282,W,2,13,0.8,7.464,M,-37.021,M,4.4,0131*6B
$PYRTM,2024,126.500215897847,17.609863307986
$GNHDT,92.010,T*11
$PYRTM,2024,126.500221499699,17.609868909838
$GNGGA,120019.00,3406.35255883,N,11952.91234598,W,2,13,0.8,7.221,M,-37.021,M,5.0,0131*67
$PYRTM,2024,126.500221499699,17.609868909838
$GNHDT,92.450,T*11
$PYRTM,2024,126.500227842326,17.609875252465
$GNGGA,120019.50,3406.35235441,N,11952.91095004,W,2,13,0.8,6.901,M,-37.021,M,5.4,0131*63
$PYRTM,2024,126.500227842326,17.609875252465
$GNHDT,92.412,T*17
$PYRTM,2024,126.500233629375,17.609881039514
$GNGGA,120020.00,3406.35219162,N,11952.90958337,W,2,13,0.8,6.658,M,-37.021,M,6.0,0131*68
$PYRTM,2024,126.500233629375,17.609881039514
$GNHDT,92.622,T*16
$PYRTM,2024,126.500239925764,17.609887335903
$GNGGA,120020.50,3406.35211653,N,11952.90826591,W,2,13,0.8,6.644,M,-37.022,M,6.4,0131*68
$PYRTM,2024,126.500239925764,17.609887335903
$GNHDT,92.973,T*1D
$PYRTM,2024,126.500244555255,17.609891965394
$GNGGA,120021.00,3406.35214451,N,11952.90699421,W,2,13,0.8,6.848,M,-37.022,M,7.0,0131*6E
$PYRTM,2024,126.500244555255,17.609891965394
$GNHDT,92.951,T*1D
$PYRTM,2024,126.500250851609,17.609898261748
$GNGGA,120021.50,3406.35224272,N,11952.90573376,W,2,13,0.8,7.159,M,-37.022,M,7.4,0131*61
$PYRTM,2024,126.500250851609,17.609898261748
$GNHDT,92.713,T*15
$PYRTM,2024,126.500256638611,17.609904048750
$GNGGA,120022.00,3406.35236187,N,11952.90445678,W,2,13,0.8,7.379,M,-37.022,M,7.0,0131*66
$PYRTM,2024,126.500256638611,17.609904048750
$GNHDT,92.376,T*12
$PYRTM,2024,126.500262934907,17.609910345035
$GNGGA,120022.50,3406.35241245,N,11952.90314741,W,2,13,0.8,7.354,M,-37.021,M,7.4,0131*6E
$PYRTM,2024,126.500262934907,17.609910345035
$GNHDT,92.721,T*14
$PYRTM,2024,126.500267564537,17.609914974676
$GNGGA,120023.00,3406.35235281,N,11952.90182664,W,2,13,0.8,7.066,M,-37.021,M,7.0,0131*6C
$PYRTM,2024,126.500267564537,17.609914974676
$GNHDT,92.434,T*13
$PYRTM,2024,126.500272103449,17.609919513588
$GNGGA,120023.50,3406.35219587,N,11952.90052406,W,2,13,0.8,6.646,M,-37.021,M,7.4,0131*6D
$PYRTM,2024,126.500272103449,17.609919513588
$GNHDT,92.624,T*10
$PYRTM,2024,126.500279648183,17.609927058322
$GNGGA,120024.00,3406.35201161,N,11952.89926844,W,2,13,0.8,6.277,M,-37.021,M,4.0,0131*63
$PYRTM,2024,126.500279648183,17.609927058322
$GNHDT,92.381,T*1A
$PYRTM,2024,126.500285481181,17.609932891319
$GNGGA,120024.50,3406.35185759,N,11952.89804745,W,2,13,0.8,6.082,M,-37.021,M,4.4,0131*67
$PYRTM,2024,126.500285481181,17.609932891319
$GNHDT,92.033,T*10
$PYRTM,2024,126.500291268275,17.609938678414
$GNGGA,120025.00,3406.35177237,N,11952.89685303,W,2,13,0.8,6.203,M,-37.022,M,5.0,0131*6F
$PYRTM,2024,126.500291268275,17.609938678414
$GNHDT,92.023,T*11
$PYRTM,2024,126.500297610880,17.609945021019
$GNGGA,120025.50,3406.35177618,N,11952.89564750,W,2,13,0.8,6.483,M,-37.022,M,5.4,0131*67
$PYRTM,2024,126.500297610880,17.609945021019
$GNHDT,92.050,T*15
$PYRTM,2024,126.500302240463,17.609949650602
$GNGGA,120026.00,3406.35181947,N,11952.89439330,W,2,13,0.8,6.841,M,-37.022,M,6.0,0131*63
$PYRTM,2024,126.500302240463,17.609949650602
$GNHDT,92.106,T*17
$PYRTM,2024,126.500307421030,17.609954831169
$GNGGA,120026.50,3406.35185794,N,11952.89306883,W,2,13,0.8,7.101,M,-37.022,M,6.4,0131*62
$PYRTM,2024,126.500307421030,17.609954831169
$GNHDT,92.262,T*16
$PYRTM,2024,126.500313166447,17.609960576586
$GNGGA,120027.00,3406.35185564,N,11952.89170374,W,2,13,0.8,7.254,M,-37.022,M,7.0,0131*6D
$PYRTM,2024,126.500313166447,17.609960576586
$GNHDT,92.086,T*1E
$PYRTM,2024,126.500319509086,17.609966919225
$GNGGA,120027.50,3406.35180304,N,11952.89031956,W,2,13,0.8,7.290,M,-37.022,M,7.4,0131*6F
$PYRTM,2024,126.500319509086,17.609966919225
$GNHDT,92.225,T*15
$PYRTM,2024,126.500326453681,17.609973863819
$GNGGA,120028.00,3406.35169750,N,11952.88892019,W,2,13,0.8,7.285,M,-37.022,M,7.0,0131*65
$PYRTM,2024,126.500326453681,17.609973863819
$GNHDT,92.183,T*1A
$PYRTM,2024,126.500331592477,17.609979002616
$GNGGA,120028.50,3406.35156556,N,11952.88751121,W,2,13,0.8,7.277,M,-37.022,M,7.4,0131*6B
$PYRTM,2024,126.500331592477,17.609979002616
$GNHDT,91.776,T*15
$PYRTM,2024,126.500337379433,17.609984789572
$GNGGA,120029.00,3406.35140441,N,11952.88608231,W,2,13,0.8,7.308,M,-37.022,M,7.0,0131*6D
$PYRTM,2024,126.500337379433,17.609984789572
$GNHDT,91.626,T*11
$PYRTM,2024,126.500343721968,17.609991132106
$GNGGA,120029.50,3406.35124935,N,11952.88463018,W,2,13,0.8,7.342,M,-37.022,M,7.4,0131*68
$PYRTM,2024,126.500343721968,17.609991132106
$GNHDT,91.296,T*1E
$PYRTM,2024,126.500349508993,17.609996919132
$GNGGA,120030.00,3406.35112608,N,11952.88315358,W,2,13,0.8,7.396,M,-37.022,M,4.0,0131*6E
$PYRTM,2024,126.500349508993,17.609996919132
$GNHDT,91.219,T*19
$PYRTM,2024,126.500355805255,17.610003215394
$GNGGA,120030.50,3406.35105668,N,11952.88166753,W,2,13,0.8,7.452,M,-37.022,M,4.4,0131*69
$PYRTM,2024,126.500355805255,17.610003215394
$GNHDT,90.861,T*1D
$PYRTM,2024,126.500360434884,17.610007845023
$GNGGA,120031.00,3406.35103001,N,11952.88018037,W,2,13,0.8,7.509,M,-37.022,M,5.0,0131*65
$PYRTM,2024,126.500360434884,17.610007845023
$GNHDT,90.657,T*16
$PYRTM,2024,126.500366731192,17.610014141331
$GNGGA,120031.50,3406.35102484,N,11952.87871828,W,2,13,0.8,7.556,M,-37.022,M,5.4,0131*68
$PYRTM,2024,126.500366731192,17.610014141331
$GNHDT,90.660,T*12
$PYRTM,2024,126.500372518287,17.610019928426
$GNGGA,120032.00,3406.35100729,N,11952.87729504,W,2,13,0.8,7.575,M,-37.022,M,6.0,0131*6F
$PYRTM,2024,126.500372518287,17.610019928426
$GNHDT,90.694,T*19
$PYRTM,2024,126.500378860833,17.610026270972
$GNGGA,120032.50,3406.35094372,N,11952.87590783,W,2,13,0.8,7.540,M,-37.022,M,6.4,0131*63
$PYRTM,2024,126.500378860833,17.610026270972
$GNHDT,90.870,T*1D
$PYRTM,2024,126.500383490498,17.610030900637
$GNGGA,120033.00,3406.35082741,N,11952.87455342,W,2,13,0.8,7.449,M,-37.022,M,7.0,0131*68
$PYRTM,2024,126.500383490498,17.610030900637
$GNHDT,91.514,T*13
$PYRTM,2024,126.500388438970,17.610035849109
$GNGGA,120033.50,3406.35068123,N,11952.87322575,W,2,13,0.8,7.295,M,-37.022,M,7.4,0131*6D
$PYRTM,2024,126.500388438970,17.610035849109
$GNHDT,91.879,T*15
$PYRTM,2024,126.500395573762,17.610042983900
$GNGGA,120034.00,3406.35053621,N,11952.87192492,W,2,13,0.8,7.099,M,-37.022,M,7.0,0131*69
$PYRTM,2024,126.500395573762,17.610042983900
$GNHDT,92.604,T*12
$PYRTM,2024,126.500401870127,17.610049280266
$GNGGA,120034.50,3406.35043374,N,11952.87065849,W,2,13,0.8,6.912,M,-37.022,M,7.4,0131*64
$PYRTM,2024,126.500401870127,17.610049280266
$GNHDT,93.007,T*16
$PYRTM,2024,126.500406499931,17.610053910069
$GNGGA,120035.00,3406.35035986,N,11952.86943156,W,2,13,0.8,6.758,M,-37.022,M,7.0,0131*69
$PYRTM,2024,126.500406499931,17.610053910069
$GNHDT,93.834,T*1E
$PYRTM,2024,126.500412842315,17.610060252442
$GNGGA,120035.50,3406.35029813,N,11952.86822506,W,2,13,0.8,6.635,M,-37.022,M,7.4,0131*65
$PYRTM,2024,126.500412842315,17.610060252442
$GNHDT,94.517,T*15
$PYRTM,2024,126.500418629340,17.610066039491
$GNGGA,120036.00,3406.35022222,N,11952.86701848,W,2,13,0.8,6.530,M,-37.022,M,4.0,0131*68
$PYRTM,2024,126.500418629340,17.610066039491
$GNHDT,94.810,T*1F
$PYRTM,2024,126.500424971933,17.610072382072
$GNGGA,120036.50,3406.35012737,N,11952.86579883,W,2,13,0.8,6.456,M,-37.022,M,4.4,0131*60
$PYRTM,2024,126.500424971933,17.610072382072
$GNHDT,95.366,T*14
$PYRTM,2024,126.500429601655,17.610077011794
$GNGGA,120037.00,3406.35003486,N,11952.86455228,W,2,13,0.8,6.424,M,-37.022,M,5.0,0131*69
$PYRTM,2024,126.500429601655,17.610077011794
$GNHDT,95.455,T*13
$PYRTM,2024,126.500435897882,17.610083308021
$GNGGA,120037.50,3406.34996268,N,11952.86327228,W,2,13,0.8,6.477,M,-37.022,M,5.4,0131*6E
$PYRTM,2024,126.500435897882,17.610083308021
$GNHDT,95.187,T*19
$PYRTM,2024,126.500441684919,17.610089095058
$GNGGA,120038.00,3406.34991233,N,11952.86195445,W,2,13,0.8,6.609,M,-37.022,M,6.0,0131*67
$PYRTM,2024,126.500441684919,17.610089095058
$GNHDT,95.071,T*11
$PYRTM,2024,126.500446309329,17.610093719468
$GNGGA,120038.50,3406.34988754,N,11952.86060927,W,2,13,0.8,6.843,M,-37.022,M,6.4,0131*68
$PYRTM,2024,126.500446309329,17.610093719468
$GNHDT,94.583,T*18
$PYRTM,2024,126.500452796076,17.610100206215
$GNGGA,120039.00,3406.34988212,N,11952.85923195,W,2,13,0.8,7.120,M,-37.022,M,7.0,0131*6F
$PYRTM,2024,126.500452796076,17.610100206215
$GNHDT,94.262,T*10
$PYRTM,2024,126.500458953507,17.610106363646
$GNGGA,120039.50,3406.34987116,N,11952.85783408,W,2,13,0.8,7.394,M,-37.022,M,7.4,0131*6E
$PYRTM,2024,126.500458953507,17.610106363646
$GNHDT,93.817,T*1F
$PYRTM,2024,126.500464740509,17.610112150637
$GNGGA,120040.00,3406.34982576,N,11952.85641537,W,2,13,0.8,7.603,M,-37.022,M,7.0,0131*6F
$PYRTM,2024,126.500464740509,17.610112150637
$GNHDT,93.605,T*12
$PYRTM,2024,126.500471036771,17.610118446910
$GNGGA,120040.50,3406.34970946,N,11952.85498441,W,2,13,0.8,7.669,M,-37.022,M,7.4,0131*66
$PYRTM,2024,126.500471036771,17.610118446910
$GNHDT,93.377,T*12
$PYRTM,2024,126.500476823808,17.610124233947
$GNGGA,120041.00,3406.34950826,N,11952.85354409,W,2,13,0.8,7.580,M,-37.022,M,7.0,0131*6C
$PYRTM,2024,126.500476823808,17.610124233947
$GNHDT,93.787,T*19
$PYRTM,2024,126.500483166377,17.610130576516
$GNGGA,120041.50,3406.34925062,N,11952.85212104,W,2,13,0.8,7.413,M,-37.022,M,7.4,0131*67
$PYRTM,2024,126.500483166377,17.610130576516
$GNHDT,93.597,T*1A
$PYRTM,2024,126.500486638634,17.610134048773
$GNGGA,120042.00,3406.34899287,N,11952.85070940,W,2,13,0.8,7.217,M,-37.022,M,4.0,0131*65
$PYRTM,2024,126.500486638634,17.610134048773
$GNHDT,93.661,T*10
$PYRTM,2024,126.500494092315,17.610141502454
$GNGGA,120042.50,3406.34879928,N,11952.84931711,W,2,13,0.8,7.127,M,-37.022,M,4.4,0131*63
$PYRTM,2024,126.500494092315,17.610141502454
$GNHDT,93.674,T*14
$PYRTM,2024,126.500499879375,17.610147289514
$GNGGA,120043.00,3406.34868843,N,11952.84794477,W,2,13,0.8,7.148,M,-37.022,M,5.0,0131*65
$PYRTM,2024,126.500499879375,17.610147289514
$GNHDT,93.767,T*17
$PYRTM,2024,126.500506221944,17.610153632083
$GNGGA,120043.50,3406.34864513,N,11952.84658705,W,2,13,0.8,7.259,M,-37.022,M,5.4,0131*64
$PYRTM,2024,126.500506221944,17.610153632083
$GNHDT,93.998,T*19
$PYRTM,2024,126.500510851563,17.610158261701
$GNGGA,120044.00,3406.34863109,N,11952.84524292,W,2,13,0.8,7.407,M,-37.022,M,6.0,0131*67
$PYRTM,2024,126.500510851563,17.610158261701
$GNHDT,94.308,T*1D
$PYRTM,2024,126.500515754039,17.610163164178
$GNGGA,120044.50,3406.34858911,N,11952.84390961,W,2,13,0.8,7.488,M,-37.022,M,6.4,0131*66
$PYRTM,2024,126.500515754039,17.610163164178
$GNHDT,94.659,T*1C
$PYRTM,2024,126.500522934919,17.610170345046
$GNGGA,120045.00,3406.34849185,N,11952.84259286,W,2,13,0.8,7.476,M,-37.022,M,7.0,0131*65
$PYRTM,2024,126.500522934919,17.610170345046
$GNHDT,94.894,T*13
$PYRTM,2024,126.500529277500,17.610176687639
$GNGGA,120045.50,3406.34833867,N,11952.84129866,W,2,13,0.8,7.372,M,-37.022,M,7.4,0131*6F
$PYRTM,2024,126.500529277500,17.610176687639
$GNHDT,94.852,T*19
$PYRTM,2024,126.500533907141,17.610181317280
$GNGGA,120046.00,3406.34815256,N,11952.84002912,W,2,13,0.8,7.247,M,-37.022,M,7.0,0131*6C
$PYRTM,2024,126.500533907141,17.610181317280
$GNHDT,94.786,T*1F
$PYRTM,2024,126.500540203426,17.610187613565
$GNGGA,120046.50,3406.34796408,N,11952.83877838,W,2,13,0.8,7.117,M,-37.022,M,7.4,0131*66
$PYRTM,2024,126.500540203426,17.610187613565
$GNHDT,95.451,T*17
$PYRTM,2024,126.500545990451,17.610193400590
$GNGGA,120047.00,3406.34778959,N,11952.83752748,W,2,13,0.8,7.014,M,-37.022,M,7.0,0131*6D
$PYRTM,2024,126.500545990451,17.610193400590
$GNHDT,95.388,T*14
$PYRTM,2024,126.500552333056,17.610199743194
$GNGGA,120047.50,3406.34764499,N,11952.83626769,W,2,13,0.8,6.945,M,-37.022,M,7.4,0131*6D
$PYRTM,2024,126.500552333056,17.610199743194
$GNHDT,95.587,T*1D
$PYRTM,2024,126.500556962697,17.610204372836
$GNGGA,120048.00,3406.34753758,N,11952.83497343,W,2,13,0.8,6.880,M,-37.022,M,4.0,0131*66
$PYRTM,2024,126.500556962697,17.610204372836
$GNHDT,95.205,T*10
$PYRTM,2024,126.500563259016,17.610210669155
$GNGGA,120048.50,3406.34746800,N,11952.83364270,W,2,13,0.8,6.831,M,-37.022,M,4.4,0131*61
$PYRTM,2024,126.500563259016,17.610210669155
$GNHDT,95.245,T*14
$PYRTM,2024,126.500569046019,17.610216456157
$GNGGA,120049.00,3406.34742888,N,11952.83229274,W,2,13,0.8,6.838,M,-37.022,M,5.0,0131*61
$PYRTM,2024,126.500569046019,17.610216456157
$GNHDT,95.133,T*16
$PYRTM,2024,126.500575342303,17.610222752442
$GNGGA,120049.50,3406.34740312,N,11952.83094432,W,2,13,0.8,6.907,M,-37.022,M,5.4,0131*67
$PYRTM,2024,126.500575342303,17.610222752442
$GNHDT,94.419,T*1A
$PYRTM,2024,126.500581129329,17.610228539468
$GNGGA,120050.00,3406.34738071,N,11952.82960113,W,2,13,0.8,7.051,M,-37.022,M,6.0,0131*6A
$PYRTM,2024,126.500581129329,17.610228539468
$GNHDT,94.152,T*10
$PYRTM,2024,126.500586314653,17.610233724792
$GNGGA,120050.50,3406.34733066,N,11952.82825612,W,2,13,0.8,7.187,M,-37.022,M,6.4,0131*6A
$PYRTM,2024,126.500586314653,17.610233724792
$GNHDT,94.035,T*10
$PYRTM,2024,126.500592101539,17.610239511667
$GNGGA,120051.00,3406.34722806,N,11952.82689878,W,2,13,0.8,7.280,M,-37.022,M,7.0,0131*6B
$PYRTM,2024,126.500592101539,17.610239511667
$GNHDT,93.472,T*10
$PYRTM,2024,126.500598397824,17.610245807963
$GNGGA,120051.50,3406.34707279,N,11952.82553743,W,2,13,0.8,7.315,M,-37.022,M,7.4,0131*61
$PYRTM,2024,126.500598397824,17.610245807963
$GNHDT,93.427,T*10
$PYRTM,2024,126.500604184942,17.610251595069
$GNGGA,120052.00,3406.34688390,N,11952.82417175,W,2,13,0.8,7.307,M,-37.022,M,7.0,0131*62
$PYRTM,2024,126.500604184942,17.610251595069
$GNHDT,93.214,T*16
$PYRTM,2024,126.500610527535,17.610257937674
$GNGGA,120052.50,3406.34669132,N,11952.82280219,W,2,13,0.8,7.285,M,-37.022,M,7.4,0131*6C
$PYRTM,2024,126.500610527535,17.610257937674
$GNHDT,93.038,T*1A
$PYRTM,2024,126.500615157106,17.610262567245
$GNGGA,120053.00,3406.34651964,N,11952.82142836,W,2,13,0.8,7.267,M,-37.022,M,7.0,0131*6A
$PYRTM,2024,126.500615157106,17.610262567245
$GNHDT,92.957,T*1B
$PYRTM,2024,126.500621453553,17.610268863692
$GNGGA,120053.50,3406.34639879,N,11952.82005781,W,2,13,0.8,7.337,M,-37.022,M,7.4,0131*6D
$PYRTM,2024,126.500621453553,17.610268863692
$GNHDT,92.753,T*11
$PYRTM,2024,126.500627240428,17.610274650567
$GNGGA,120054.00,3406.34632899,N,11952.81869138,W,2,13,0.8,7.489,M,-37.022,M,4.0,0131*6A
$PYRTM,2024,126.500627240428,17.610274650567
$GNHDT,92.735,T*11
$PYRTM,2024,126.500633583056,17.610280993194
$GNGGA,120054.50,3406.34629199,N,11952.81732071,W,2,13,0.8,7.663,M,-37.022,M,4.4,0131*63
$PYRTM,2024,126.500633583056,17.610280993194
$GNHDT,92.791,T*1F
$PYRTM,2024,126.500638212674,17.610285622813
$GNGGA,120055.00,3406.34626126,N,11952.81594027,W,2,13,0.8,7.791,M,-37.022,M,5.0,0131*68
$PYRTM,2024,126.500638212674,17.610285622813
$GNHDT,92.537,T*11
$PYRTM,2024,126.500644508981,17.610291919120
$GNGGA,120055.50,3406.34620340,N,11952.81454779,W,2,13,0.8,7.787,M,-37.022,M,5.4,0131*6B
$PYRTM,2024,126.500644508981,17.610291919120
$GNHDT,92.565,T*16
$PYRTM,2024,126.500650296192,17.610297706331
$GNGGA,120056.00,3406.34609583,N,11952.81316393,W,2,13,0.8,7.667,M,-37.022,M,6.0,0131*66
$PYRTM,2024,126.500650296192,17.610297706331
$GNHDT,92.661,T*11
$PYRTM,2024,126.500656592292,17.610304002431
$GNGGA,120056.50,3406.34594571,N,11952.81180210,W,2,13,0.8,7.479,M,-37.022,M,6.4,0131*67
$PYRTM,2024,126.500656592292,17.610304002431
$GNHDT,92.979,T*17
$PYRTM,2024,126.500661221921,17.610308632060
$GNGGA,120057.00,3406.34577691,N,11952.81045233,W,2,13,0.8,7.301,M,-37.022,M,7.0,0131*67
$PYRTM,2024,126.500661221921,17.610308632060
$GNHDT,92.970,T*1E
$PYRTM,2024,126.500667564537,17.610314974676
$GNGGA,120057.50,3406.34562449,N,11952.80910620,W,2,13,0.8,7.157,M,-37.022,M,7.4,0131*6A
$PYRTM,2024,126.500667564537,17.610314974676
$GNHDT,93.236,T*16
$PYRTM,2024,126.500673351632,17.610320761771
$GNGGA,120058.00,3406.34550965,N,11952.80775092,W,2,13,0.8,7.072,M,-37.022,M,7.0,0131*62
$PYRTM,2024,126.500673351632,17.610320761771
$GNHDT,93.160,T*16
$PYRTM,2024,126.500679647859,17.610327057998
$GNGGA,120058.50,3406.34544157,N,11952.80638105,W,2,13,0.8,7.051,M,-37.022,M,7.4,0131*69
$PYRTM,2024,126.500679647859,17.610327057998
$GNHDT,92.871,T*1E
$PYRTM,2024,126.500684277535,17.610331687674
$GNGGA,120059.00,3406.34540865,N,11952.80499325,W,2,13,0.8,7.081,M,-37.022,M,7.0,0131*61
$PYRTM,2024,126.500684277535,17.610331687674
$GNHDT,92.536,T*10
$PYRTM,2024,126.500690573773,17.610337983912
$GNGGA,120059.50,3406.34538248,N,11952.80360457,W,2,13,0.8,7.147,M,-37.022,M,7.4,0131*62
$PYRTM,2024,126.500690573773,17.610337983912
$GNHDT,92.280,T*1A
$PYRTM,2024,126.500696360880,17.610343771019
$GNGGA,120100.00,3406.34534274,N,11952.80223424,W,2,13,0.8,7.253,M,-37.022,M,4.0,0131*6A
$PYRTM,2024,126.500696360880,17.610343771019
$GNHDT,92.115,T*15
$PYRTM,2024,126.500700943657,17.610348353796
$GNGGA,120100.50,3406.34528025,N,11952.80089188,W,2,13,0.8,7.363,M,-37.022,M,4.4,0131*63
$PYRTM,2024,126.500700943657,17.610348353796
$GNHDT,91.679,T*1B
$PYRTM,2024,126.500714971968,17.610362382106
$GNGGA,120101.00,3406.34518528,N,11952.79957526,W,2,13,0.8,7.414,M,-37.022,M,5.0,0131*62
$PYRTM,2024,126.500714971968,17.610362382106
$GNHDT,91.850,T*1E
$PYRTM,2024,126.500714972361,17.610362382500
$GNGGA,120101.50,3406.34506605,N,11952.79828369,W,2,13,0.8,7.389,M,-37.022,M,5.4,0131*67
$PYRTM,2024,126.500714972361,17.610362382500
$GNHDT,91.592,T*1D
$PYRTM,2024,126.500720759016,17.610368169155
$GNGGA,120102.00,3406.34493110,N,11952.79699236,W,2,13,0.8,7.259,M,-37.022,M,6.0,0131*6B
$PYRTM,2024,126.500720759016,17.610368169155
$GNHDT,92.030,T*13
$PYRTM,2024,126.500727055231,17.610374465370
$GNGGA,120102.50,3406.34480719,N,11952.79569879,W,2,13,0.8,7.069,M,-37.022,M,6.4,0131*6B
$PYRTM,2024,126.500727055231,17.610374465370
$GNHDT,92.471,T*12
$PYRTM,2024,126.500731684861,17.610379095000
$GNGGA,120103.00,3406.34470088,N,11952.79440372,W,2,13,0.8,6.886,M,-37.022,M,7.0,0131*68
$PYRTM,2024,126.500731684861,17.610379095000
$GNHDT,92.858,T*15
$PYRTM,2024,126.500737981250,17.610385391389
$GNGGA,120103.50,3406.34461483,N,11952.79311866,W,2,13,0.8,6.804,M,-37.022,M,7.4,0131*61
$PYRTM,2024,126.500737981250,17.610385391389
$GNHDT,93.326,T*16
$PYRTM,2024,126.500743768264,17.610391178403
$GNGGA,120104.00,3406.34454372,N,11952.79184376,W,2,13,0.8,6.836,M,-37.022,M,7.0,0131*6D
$PYRTM,2024,126.500743768264,17.610391178403
$GNHDT,93.601,T*16
$PYRTM,2024,126.500750064549,17.610397474687
$GNGGA,120104.50,3406.34447690,N,11952.79056513,W,2,13,0.8,6.972,M,-37.022,M,7.4,0131*6D
$PYRTM,2024,126.500750064549,17.610397474687
$GNHDT,93.740,T*12
$PYRTM,2024,126.500755851574,17.610403261713
$GNGGA,120105.00,3406.34441331,N,11952.78926787,W,2,13,0.8,7.134,M,-37.022,M,7.0,0131*6E
$PYRTM,2024,126.500755851574,17.610403261713
$GNHDT,93.661,T*10
$PYRTM,2024,126.500761036875,17.610408447014
$GNGGA,120105.50,3406.34434667,N,11952.78793910,W,2,13,0.8,7.242,M,-37.022,M,7.4,0131*69
$PYRTM,2024,126.500761036875,17.610408447014
$GNHDT,93.583,T*1F
$PYRTM,2024,126.500766823866,17.610414234005
$GNGGA,120106.00,3406.34426877,N,11952.78658222,W,2,13,0.8,7.320,M,-37.022,M,4.0,0131*6D
$PYRTM,2024,126.500766823866,17.610414234005
$GNHDT,92.913,T*1B
$PYRTM,2024,126.500770383889,17.610417794028
$GNGGA,120106.50,3406.34418452,N,11952.78521377,W,2,13,0.8,7.383,M,-37.022,M,4.4,0131*6F
$PYRTM,2024,126.500770383889,17.610417794028
$GNHDT,92.683,T*1D
$PYRTM,2024,126.500777749734,17.610425159873
$GNGGA,120107.00,3406.34410238,N,11952.78383317,W,2,13,0.8,7.459,M,-37.022,M,5.0,0131*64
$PYRTM,2024,126.500777749734,17.610425159873
$GNHDT,92.082,T*1A
$PYRTM,2024,126.500784046019,17.610431456157
$GNGGA,120107.50,3406.34402812,N,11952.78243831,W,2,13,0.8,7.538,M,-37.022,M,5.4,0131*60
$PYRTM,2024,126.500784046019,17.610431456157
$GNHDT,91.848,T*17
$PYRTM,2024,126.500794971910,17.610442382049
$GNGGA,120108.00,3406.34394910,N,11952.78102565,W,2,13,0.8,7.582,M,-37.022,M,6.0,0131*6D
$PYRTM,2024,126.500794971910,17.610442382049
$GNHDT,91.969,T*15
$PYRTM,2024,126.500794972292,17.610442382431
$GNGGA,120108.50,3406.34385255,N,11952.77960569,W,2,13,0.8,7.560,M,-37.022,M,6.4,0131*65
$PYRTM,2024,126.500794972292,17.610442382431
$GNHDT,92.145,T*10
$PYRTM,2024,126.500800758958,17.610448169086
$GNGGA,120109.00,3406.34373164,N,11952.77817855,W,2,13,0.8,7.490,M,-37.022,M,7.0,0131*61
$PYRTM,2024,126.500800758958,17.610448169086
$GNHDT,92.548,T*19
$PYRTM,2024,126.500807055266,17.610454465405
$GNGGA,120109.50,3406.34359123,N,11952.77678866,W,2,13,0.8,7.428,M,-37.022,M,7.4,0131*6F
$PYRTM,2024,126.500807055266,17.610454465405
$GNHDT,92.694,T*1B
$PYRTM,2024,126.500811684907,17.610459095046
$GNGGA,120110.00,3406.34342866,N,11952.77544299,W,2,13,0.8,7.392,M,-37.022,M,7.0,0131*64
$PYRTM,2024,126.500811684907,17.610459095046
$GNHDT,93.048,T*1D
$PYRTM,2024,126.500817981331,17.610465391470
$GNGGA,120110.50,3406.34328575,N,11952.77413810,W,2,13,0.8,7.426,M,-37.022,M,7.4,0131*66
$PYRTM,2024,126.500817981331,17.610465391470
$GNHDT,93.523,T*15
$PYRTM,2024,126.500823768229,17.610471178368
$GNGGA,120111.00,3406.34318119,N,11952.77285103,W,2,13,0.8,7.470,M,-37.022,M,7.0,0131*6A
$PYRTM,2024,126.500823768229,17.610471178368
$GNHDT,93.734,T*11
$PYRTM,2024,126.500830110833,17.610477520972
$GNGGA,120111.50,3406.34309228,N,11952.77155832,W,2,13,0.8,7.461,M,-37.022,M,7.4,0131*6F
$PYRTM,2024,126.500830110833,17.610477520972
$GNHDT,94.189,T*16
$PYRTM,2024,126.500834740463,17.610482150602
$GNGGA,120112.00,3406.34301285,N,11952.77025440,W,2,13,0.8,7.406,M,-37.022,M,4.0,0131*6F
$PYRTM,2024,126.500834740463,17.610482150602
$GNHDT,94.545,T*12
$PYRTM,2024,126.500841083067,17.610488493206
$GNGGA,120112.50,3406.34291856,N,11952.76892772,W,2,13,0.8,7.256,M,-37.022,M,4.4,0131*66
$PYRTM,2024,126.500841083067,17.610488493206
$GNHDT,95.139,T*1C
$PYRTM,2024,126.500846870081,17.610494280220
$GNGGA,120113.00,3406.34281810,N,11952.76758664,W,2,13,0.8,7.077,M,-37.022,M,5.0,0131*6A
$PYRTM,2024,126.500846870081,17.610494280220
$GNHDT,95.220,T*17
$PYRTM,2024,126.500853166400,17.610500576539
$GNGGA,120113.50,3406.34271592,N,11952.76624083,W,2,13,0.8,6.914,M,-37.022,M,5.4,0131*6B
$PYRTM,2024,126.500853166400,17.610500576539
$GNHDT,95.258,T*18
$PYRTM,2024,126.500857795984,17.610505206123
$GNGGA,120114.00,3406.34262777,N,11952.76491357,W,2,13,0.8,6.870,M,-37.022,M,6.0,0131*60
$PYRTM,2024,126.500857795984,17.610505206123
$GNHDT,95.018,T*1E
$PYRTM,2024,126.500864092292,17.610511502431
$GNGGA,120114.50,3406.34255406,N,11952.76360617,W,2,13,0.8,6.989,M,-37.022,M,6.4,0131*6F
$PYRTM,2024,126.500864092292,17.610511502431
$GNHDT,94.657,T*12
$PYRTM,2024,126.500869879363,17.610517289502
$GNGGA,120115.00,3406.34248939,N,11952.76231351,W,2,13,0.8,7.264,M,-37.022,M,7.0,0131*68
$PYRTM,2024,126.500869879363,17.610517289502
$GNHDT,94.403,T*11
$PYRTM,2024,126.500875018264,17.610522428403
$GNGGA,120115.50,3406.34243107,N,11952.76101071,W,2,13,0.8,7.568,M,-37.022,M,7.4,0131*6D
$PYRTM,2024,126.500875018264,17.610522428403
$GNHDT,94.042,T*10
$PYRTM,2024,126.500881962662,17.610529372801
$GNGGA,120116.00,3406.34236049,N,11952.75966651,W,2,13,0.8,7.774,M,-37.022,M,7.0,0131*67
$PYRTM,2024,126.500881962662,17.610529372801
$GNHDT,94.043,T*11
$PYRTM,2024,126.500888305278,17.610535715417
$GNGGA,120116.50,3406.34227303,N,11952.75828253,W,2,13,0.8,7.807,M,-37.022,M,7.4,0131*6D
$PYRTM,2024,126.500888305278,17.610535715417
$GNHDT,94.205,T*11
$PYRTM,2024,126.500892934919,17.610540345058
$GNGGA,120117.00,3406.34215723,N,11952.75687957,W,2,13,0.8,7.668,M,-37.022,M,7.0,0131*69
$PYRTM,2024,126.500892934919,17.610540345058
$GNHDT,94.123,T*16
$PYRTM,2024,126.500897103079,17.610544513218
$GNGGA,120117.50,3406.34201807,N,11952.75548227,W,2,13,0.8,7.428,M,-37.022,M,7.4,0131*6E
$PYRTM,2024,126.500897103079,17.610544513218
$GNHDT,94.257,T*16
$PYRTM,2024,126.500905018241,17.610552428380
$GNGGA,120118.00,3406.34185038,N,11952.75411177,W,2,13,0.8,7.166,M,-37.022,M,4.0,0131*6C
$PYRTM,2024,126.500905018241,17.610552428380
$GNHDT,93.971,T*1E
$PYRTM,2024,126.500910157095,17.610557567222
$GNGGA,120118.50,3406.34166725,N,11952.75277246,W,2,13,0.8,6.967,M,-37.022,M,4.4,0131*64
$PYRTM,2024,126.500910157095,17.610557567222
$GNHDT,93.698,T*16
$PYRTM,2024,126.500915944155,17.610563354282
$GNGGA,120119.00,3406.34147234,N,11952.75145548,W,2,13,0.8,6.854,M,-37.022,M,5.0,0131*69
$PYRTM,2024,126.500915944155,17.610563354282
$GNHDT,93.660,T*11
$PYRTM,2024,126.500922286806,17.610569696944
$GNGGA,120119.50,3406.34131756,N,11952.75014282,W,2,13,0.8,6.857,M,-37.022,M,5.4,0131*6F
$PYRTM,2024,126.500922286806,17.610569696944
$GNHDT,93.904,T*1C
$PYRTM,2024,126.500928073796,17.610575483935
$GNGGA,120120.00,3406.34119361,N,11952.74881606,W,2,13,0.8,6.893,M,-37.022,M,6.0,0131*68
$PYRTM,2024,126.500928073796,17.610575483935
$GNHDT,93.945,T*19
$PYRTM,2024,126.500934370104,17.610581780243
$GNGGA,120120.50,3406.34109970,N,11952.74748226,W,2,13,0.8,6.973,M,-37.022,M,6.4,0131*61
$PYRTM,2024,126.500934370104,17.610581780243
$GNHDT,94.111,T*17
$PYRTM,2024,126.500938999711,17.610586409850
$GNGGA,120121.00,3406.34101754,N,11952.74613182,W,2,13,0.8,7.040,M,-37.022,M,7.0,0131*6A
$PYRTM,2024,126.500938999711,17.610586409850
$GNHDT,94.083,T*1D
$PYRTM,2024,126.500944138750,17.610591548889
$GNGGA,120121.50,3406.34093266,N,11952.74478726,W,2,13,0.8,7.151,M,-37.022,M,7.4,0131*63
$PYRTM,2024,126.500944138750,17.610591548889
$GNHDT,94.392,T*1E
$PYRTM,2024,126.500951129329,17.610598539468
$GNGGA,120122.00,3406.34082721,N,11952.74343646,W,2,13,0.8,7.237,M,-37.022,M,7.0,0131*6C
$PYRTM,2024,126.500951129329,17.610598539468
$GNHDT,94.639,T*1A
$PYRTM,2024,126.500957425648,17.610604835787
$GNGGA,120122.50,3406.34068243,N,11952.74208986,W,2,13,0.8,7.293,M,-37.022,M,7.4,0131*6B
$PYRTM,2024,126.500957425648,17.610604835787
$GNHDT,94.949,T*12
$PYRTM,2024,126.500962055266,17.610609465405
$GNGGA,120123.00,3406.34050545,N,11952.74075531,W,2,13,0.8,7.328,M,-37.022,M,7.0,0131*68
$PYRTM,2024,126.500962055266,17.610609465405
$GNHDT,95.158,T*1B
$PYRTM,2024,126.500968351586,17.610615761725
$GNGGA,120123.50,3406.34031477,N,11952.73942543,W,2,13,0.8,7.372,M,-37.022,M,7.4,0131*6E
$PYRTM,2024,126.500968351586,17.610615761725
$GNHDT,94.936,T*1A
$PYRTM,2024,126.500972981343,17.610620391481
$GNGGA,120124.00,3406.34015726,N,11952.73808372,W,2,13,0.8,7.436,M,-37.022,M,4.0,0131*66
$PYRTM,2024,126.500972981343,17.610620391481
$GNHDT,94.852,T*19
$PYRTM,2024,126.500979277465,17.610626687604
$GNGGA,120124.50,3406.34005060,N,11952.73671386,W,2,13,0.8,7.482,M,-37.022,M,4.4,0131*67
$PYRTM,2024,126.500979277465,17.610626687604
$GNHDT,94.773,T*15
$PYRTM,2024,126.500985064514,17.610632474653
$GNGGA,120125.00,3406.34000523,N,11952.73532017,W,2,13,0.8,7.508,M,-37.022,M,5.0,0131*6D
$PYRTM,2024,126.500985064514,17.610632474653
$GNHDT,94.331,T*17
$PYRTM,2024,126.500990291030,17.610637701169
$GNGGA,120125.50,3406.33999400,N,11952.73390631,W,2,13,0.8,7.475,M,-37.022,M,5.4,0131*65
$PYRTM,2024,126.500990291030,17.610637701169
$GNHDT,93.996,T*17
$PYRTM,2024,126.500996036713,17.610643446852
$GNGGA,120126.00,3406.33999308,N,11952.73247785,W,2,13,0.8,7.360,M,-37.022,M,6.0,0131*6D
$PYRTM,2024,126.500996036713,17.610643446852
$GNHDT,93.657,T*15
$PYRTM,2024,126.501002333067,17.610649743206
$GNGGA,120126.50,3406.33996418,N,11952.73104861,W,2,13,0.8,7.194,M,-37.022,M,6.4,0131*6D
$PYRTM,2024,126.501002333067,17.610649743206
$GNHDT,92.996,T*16
$PYRTM,2024,126.501008120058,17.610655530197
$GNGGA,120127.00,3406.33988020,N,11952.72963398,W,2,13,0.8,6.994,M,-37.022,M,7.0,0131*60
$PYRTM,2024,126.501008120058,17.610655530197
$GNHDT,92.530,T*16
$PYRTM,2024,126.501014416366,17.610661826505
$GNGGA,120127.50,3406.33972751,N,11952.72825349,W,2,13,0.8,6.835,M,-37.022,M,7.4,0131*60
$PYRTM,2024,126.501014416366,17.610661826505
$GNHDT,92.493,T*1E
$PYRTM,2024,126.501019045995,17.610666456134
$GNGGA,120128.00,3406.33952518,N,11952.72690704,W,2,13,0.8,6.762,M,-37.022,M,7.0,0131*63
$PYRTM,2024,126.501019045995,17.610666456134
$GNHDT,92.382,T*19
$PYRTM,2024,126.501025342257,17.610672752396
$GNGGA,120128.50,3406.33931421,N,11952.72558419,W,2,13,0.8,6.791,M,-37.022,M,7.4,0131*68
$PYRTM,2024,126.501025342257,17.610672752396
$GNHDT,92.572,T*10
$PYRTM,2024,126.501031129340,17.610678539479
$GNGGA,120129.00,3406.33913487,N,11952.72428057,W,2,13,0.8,6.891,M,-37.022,M,7.0,0131*63
$PYRTM,2024,126.501031129340,17.610678539479
$GNHDT,92.716,T*10
$PYRTM,2024,126.501038629433,17.610686039572
$GNGGA,120129.50,3406.33900980,N,11952.72297709,W,2,13,0.8,7.022,M,-37.022,M,7.4,0131*65
$PYRTM,2024,126.501038629433,17.610686039572
$GNHDT,92.915,T*1D
$PYRTM,2024,126.501042101586,17.610689511725
$GNGGA,120130.00,3406.33894586,N,11952.72167017,W,2,13,0.8,7.161,M,-37.022,M,4.0,0131*6B
$PYRTM,2024,126.501042101586,17.610689511725
$GNHDT,93.504,T*10
$PYRTM,2024,126.501048397824,17.610695807963
$GNGGA,120130.50,3406.33891380,N,11952.72034986,W,2,13,0.8,7.243,M,-37.022,M,4.4,0131*6A
$PYRTM,2024,126.501048397824,17.610695807963
$GNHDT,93.705,T*13
$PYRTM,2024,126.501054185023,17.610701595162
$GNGGA,120131.00,3406.33887099,N,11952.71901751,W,2,13,0.8,7.256,M,-37.022,M,5.0,0131*6B
$PYRTM,2024,126.501054185023,17.610701595162
$GNHDT,94.208,T*1C
$PYRTM,2024,126.501060481227,17.610707891366
$GNGGA,120131.50,3406.33879644,N,11952.71769298,W,2,13,0.8,7.213,M,-37.022,M,5.4,0131*6C
$PYRTM,2024,126.501060481227,17.610707891366
$GNHDT,94.523,T*12
$PYRTM,2024,126.501065110856,17.610712520995
$GNGGA,120132.00,3406.33868502,N,11952.71637270,W,2,13,0.8,7.137,M,-37.022,M,6.0,0131*65
$PYRTM,2024,126.501065110856,17.610712520995
$GNHDT,94.500,T*13
$PYRTM,2024,126.501071309074,17.610718719213
$GNGGA,120132.50,3406.33854422,N,11952.71505620,W,2,13,0.8,7.049,M,-37.022,M,6.4,0131*63
$PYRTM,2024,126.501071309074,17.610718719213
$GNHDT,94.260,T*12
$PYRTM,2024,126.501079508993,17.610726919132
$GNGGA,120133.00,3406.33840523,N,11952.71372194,W,2,13,0.8,6.973,M,-37.022,M,7.0,0131*68
$PYRTM,2024,126.501079508993,17.610726919132
$GNHDT,93.745,T*17
$PYRTM,2024,126.501085805255,17.610733215394
$GNGGA,120133.50,3406.33828380,N,11952.71237143,W,2,13,0.8,6.925,M,-37.022,M,7.4,0131*61
$PYRTM,2024,126.501085805255,17.610733215394
$GNHDT,93.526,T*10
$PYRTM,2024,126.501090434873,17.610737845012
$GNGGA,120134.00,3406.33819951,N,11952.71099830,W,2,13,0.8,6.947,M,-37.022,M,7.0,0131*6C
$PYRTM,2024,126.501090434873,17.610737845012
$GNHDT,93.165,T*13
$PYRTM,2024,126.501096777512,17.610744187639
$GNGGA,120134.50,3406.33814376,N,11952.70960175,W,2,13,0.8,7.017,M,-37.022,M,7.4,0131*64
$PYRTM,2024,126.501096777512,17.610744187639
$GNHDT,93.001,T*10
$PYRTM,2024,126.501102564572,17.610749974711
$GNGGA,120135.00,3406.33810553,N,11952.70818002,W,2,13,0.8,7.107,M,-37.022,M,7.0,0131*6E
$PYRTM,2024,126.501102564572,17.610749974711
$GNHDT,92.433,T*14
$PYRTM,2024,126.501108860810,17.610756270949
$GNGGA,120135.50,3406.33806189,N,11952.70675198,W,2,13,0.8,7.206,M,-37.022,M,7.4,0131*6E
$PYRTM,2024,126.501108860810,17.610756270949
$GNHDT,92.099,T*10
$PYRTM,2024,126.501114647928,17.610762058067
$GNGGA,120136.00,3406.33799674,N,11952.70533153,W,2,13,0.8,7.293,M,-37.022,M,4.0,0131*69
$PYRTM,2024,126.501114647928,17.610762058067
$GNHDT,91.879,T*15
$PYRTM,2024,126.501119786794,17.610767196933
$GNGGA,120136.50,3406.33788922,N,11952.70392671,W,2,13,0.8,7.355,M,-37.022,M,4.4,0131*65
$PYRTM,2024,126.501119786794,17.610767196933
$GNHDT,92.007,T*17
$PYRTM,2024,126.501125573843,17.610772983970
$GNGGA,120137.00,3406.33774382,N,11952.70252765,W,2,13,0.8,7.381,M,-37.022,M,5.0,0131*67
$PYRTM,2024,126.501125573843,17.610772983970
$GNHDT,92.086,T*1E
$PYRTM,2024,126.501131916366,17.610779326505
$GNGGA,120137.50,3406.33758425,N,11952.70112790,W,2,13,0.8,7.382,M,-37.022,M,5.4,0131*6C
$PYRTM,2024,126.501131916366,17.610779326505
$GNHDT,91.788,T*14
$PYRTM,2024,126.501137703414,17.610785113553
$GNGGA,120138.00,3406.33743333,N,11952.69972861,W,2,13,0.8,7.384,M,-37.022,M,6.0,0131*6A
$PYRTM,2024,126.501137703414,17.610785113553
$GNHDT,91.589,T*17
$PYRTM,2024,126.501140753831,17.610788163970
$GNGGA,120138.50,3406.33731157,N,11952.69832969,W,2,13,0.8,7.411,M,-37.022,M,6.4,0131*69
$PYRTM,2024,126.501140753831,17.610788163970
$GNHDT,91.679,T*1B
$PYRTM,2024,126.501145952083,17.610793362222
$GNGGA,120139.00,3406.33723304,N,11952.69693117,W,2,13,0.8,7.439,M,-37.022,M,7.0,0131*61
$PYRTM,2024,126.501145952083,17.610793362222
$GNHDT,91.572,T*13
$PYRTM,2024,126.501151678715,17.610799088854
$GNGGA,120139.50,3406.33719032,N,11952.69553673,W,2,13,0.8,7.443,M,-37.022,M,7.4,0131*68
$PYRTM,2024,126.501151678715,17.610799088854
$GNHDT,91.725,T*13
$PYRTM,2024,126.501159092454,17.610806502593
$GNGGA,120140.00,3406.33715882,N,11952.69415323,W,2,13,0.8,7.382,M,-37.022,M,7.0,0131*61
$PYRTM,2024,126.501159092454,17.610806502593
$GNHDT,92.140,T*15
$PYRTM,2024,126.501164879398,17.610812289537
$GNGGA,120140.50,3406.33711600,N,11952.69278137,W,2,13,0.8,7.244,M,-37.022,M,7.4,0131*61
$PYRTM,2024,126.501164879398,17.610812289537
$GNHDT,92.174,T*12
$PYRTM,2024,126.501170666435,17.610818076574
$GNGGA,120141.00,3406.33704444,N,11952.69142621,W,2,13,0.8,7.046,M,-37.022,M,7.0,0131*6D
$PYRTM,2024,126.501170666435,17.610818076574
$GNHDT,92.568,T*1B
$PYRTM,2024,126.501177008947,17.610824419086
$GNGGA,120141.50,3406.33694486,N,11952.69008904,W,2,13,0.8,6.873,M,-37.022,M,7.4,0131*62
$PYRTM,2024,126.501177008947,17.610824419086
$GNHDT,92.600,T*16
$PYRTM,2024,126.501182795995,17.610830206134
$GNGGA,120142.00,3406.33683999,N,11952.68876375,W,2,13,0.8,6.775,M,-37.022,M,4.0,0131*63
$PYRTM,2024,126.501182795995,17.610830206134
$GNHDT,92.445,T*15
$PYRTM,2024,126.501189138576,17.610836548715
$GNGGA,120142.50,3406.33674796,N,11952.68743644,W,2,13,0.8,6.783,M,-37.022,M,4.4,0131*6C
$PYRTM,2024,126.501189138576,17.610836548715
$GNHDT,92.574,T*16
$PYRTM,2024,126.501193768148,17.610841178287
$GNGGA,120143.00,3406.33667515,N,11952.68610726,W,2,13,0.8,6.886,M,-37.022,M,5.0,0131*6E
$PYRTM,2024,126.501193768148,17.610841178287
$GNHDT,92.438,T*1F
$PYRTM,2024,126.501198627037,17.610846037176
$GNGGA,120143.50,3406.33660709,N,11952.68477506,W,2,13,0.8,6.998,M,-37.022,M,5.4,0131*6A
$PYRTM,2024,126.501198627037,17.610846037176
$GNHDT,92.573,T*11
$PYRTM,2024,126.501204694120,17.610852104259
$GNGGA,120144.00,3406.33653067,N,11952.68343944,W,2,13,0.8,7.097,M,-37.022,M,6.0,0131*6D
$PYRTM,2024,126.501204694120,17.610852104259
$GNHDT,92.558,T*18
$PYRTM,2024,126.501211036725,17.610858446863
$GNGGA,120144.50,3406.33644804,N,11952.68209476,W,2,13,0.8,7.108,M,-37.022,M,6.4,0131*63
$PYRTM,2024,126.501211036725,17.610858446863
$GNHDT,92.490,T*1D
$PYRTM,2024,126.501215666354,17.610863076493
$GNGGA,120145.00,3406.33636872,N,11952.68074969,W,2,13,0.8,7.074,M,-37.022,M,7.0,0131*67
$PYRTM,2024,126.501215666354,17.610863076493
$GNHDT,92.695,T*1A
$PYRTM,2024,126.501221962627,17.610869372766
$GNGGA,120145.50,3406.33630767,N,11952.67942281,W,2,13,0.8,7.076,M,-37.022,M,7.4,0131*67
$PYRTM,2024,126.501221962627,17.610869372766
$GNHDT,92.618,T*1F
$PYRTM,2024,126.501227749699,17.610875159838
$GNGGA,120146.00,3406.33627286,N,11952.67811166,W,2,13,0.8,7.141,M,-37.022,M,7.0,0131*61
$PYRTM,2024,126.501227749699,17.610875159838
$GNHDT,92.666,T*16
$PYRTM,2024,126.501235203380,17.610882613519
$GNGGA,120146.50,3406.33625105,N,11952.67679763,W,2,13,0.8,7.252,M,-37.022,M,7.4,0131*68
$PYRTM,2024,126.501235203380,17.610882613519
$GNHDT,92.573,T*11
$PYRTM,2024,126.501239833102,17.610887243241
$GNGGA,120147.00,3406.33621754,N,11952.67544566,W,2,13,0.8,7.324,M,-37.022,M,7.0,0131*64
$PYRTM,2024,126.501239833102,17.610887243241
$GNHDT,92.477,T*14
$PYRTM,2024,126.501245018403,17.610892428542
$GNGGA,120147.50,3406.33615120,N,11952.67404690,W,2,13,0.8,7.299,M,-37.022,M,7.4,0131*6F
$PYRTM,2024,126.501245018403,17.610892428542
$GNHDT,92.302,T*11
$PYRTM,2024,126.501251777477,17.610899187616
$GNGGA,120148.00,3406.33604198,N,11952.67262087,W,2,13,0.8,7.153,M,-37.022,M,4.0,0131*62
$PYRTM,2024,126.501251777477,17.610899187616
$GNHDT,92.437,T*10
$PYRTM,2024,126.501258073773,17.610905483912
$GNGGA,120148.50,3406.33590935,N,11952.67120197,W,2,13,0.8,6.990,M,-37.022,M,4.4,0131*61
$PYRTM,2024,126.501258073773,17.610905483912
$GNHDT,92.223,T*13
$PYRTM,2024,126.501263860810,17.610911270949
$GNGGA,120149.00,3406.33577542,N,11952.66979220,W,2,13,0.8,6.900,M,-37.022,M,5.0,0131*66
$PYRTM,2024,126.501263860810,17.610911270949
$GNHDT,92.183,T*1A
$PYRTM,2024,126.501268068993,17.610915479132
$GNGGA,120149.50,3406.33566222,N,11952.66841384,W,2,13,0.8,6.987,M,-37.022,M,5.4,0131*6C
$PYRTM,2024,126.501268068993,17.610915479132
$GNHDT,92.306,T*15
$PYRTM,2024,126.501273907130,17.610921317269
$GNGGA,120150.00,3406.33557483,N,11952.66705710,W,2,13,0.8,7.233,M,-37.022,M,6.0,0131*6A
$PYRTM,2024,126.501273907130,17.610921317269
$GNHDT,92.312,T*10
$PYRTM,2024,126.501280203391,17.610927613530
$GNGGA,120150.50,3406.33551833,N,11952.66569644,W,2,13,0.8,7.531,M,-37.022,M,6.4,0131*67
$PYRTM,2024,126.501280203391,17.610927613530
$GNHDT,91.903,T*19
$PYRTM,2024,126.501285990428,17.610933400567
$GNGGA,120151.00,3406.33548069,N,11952.66431177,W,2,13,0.8,7.783,M,-37.022,M,7.0,0131*69
$PYRTM,2024,126.501285990428,17.610933400567
$GNHDT,92.153,T*17
$PYRTM,2024,126.501292333102,17.610939743241
$GNGGA,120151.50,3406.33544034,N,11952.66289669,W,2,13,0.8,7.857,M,-37.022,M,7.4,0131*67
$PYRTM,2024,126.501292333102,17.610939743241
$GNHDT,92.397,T*1D
$PYRTM,2024,126.501298120116,17.610945530255
$GNGGA,120152.00,3406.33536113,N,11952.66145669,W,2,13,0.8,7.765,M,-37.022,M,7.0,0131*69
$PYRTM,2024,126.501298120116,17.610945530255
$GNHDT,92.564,T*17
$PYRTM,2024,126.501305573819,17.610952983947
$GNGGA,120152.50,3406.33521421,N,11952.66001224,W,2,13,0.8,7.487,M,-37.022,M,7.4,0131*69
$PYRTM,2024,126.501305573819,17.610952983947
$GNHDT,92.539,T*1F
$PYRTM,2024,126.501311360799,17.610958770938
$GNGGA,120153.00,3406.33500318,N,11952.65859322,W,2,13,0.8,7.161,M,-37.022,M,7.0,0131*6B
$PYRTM,2024,126.501311360799,17.610958770938
$GNHDT,92.519,T*1D
$PYRTM,2024,126.501317703368,17.610965113507
$GNGGA,120153.50,3406.33477386,N,11952.65720504,W,2,13,0.8,6.888,M,-37.022,M,7.4,0131*60
$PYRTM,2024,126.501317703368,17.610965113507
$GNHDT,93.022,T*11
$PYRTM,2024,126.501322333044,17.610969743183
$GNGGA,120154.00,3406.33458883,N,11952.65583166,W,2,13,0.8,6.771,M,-37.022,M,4.0,0131*64
$PYRTM,2024,126.501322333044,17.610969743183
$GNHDT,92.950,T*1C
$PYRTM,2024,126.501328629340,17.610976039479
$GNGGA,120154.50,3406.33448193,N,11952.65446471,W,2,13,0.8,6.833,M,-37.022,M,4.4,0131*6E
$PYRTM,2024,126.501328629340,17.610976039479
$GNHDT,93.091,T*19
$PYRTM,2024,126.501334416389,17.610981826528
$GNGGA,120155.00,3406.33445015,N,11952.65309283,W,2,13,0.8,7.055,M,-37.022,M,5.0,0131*63
$PYRTM,2024,126.501334416389,17.610981826528
$GNHDT,93.042,T*17
$PYRTM,2024,126.501336916829,17.610984326968
$GNGGA,120155.50,3406.33446510,N,11952.65170431,W,2,13,0.8,7.318,M,-37.022,M,5.4,0131*68
$PYRTM,2024,126.501336916829,17.610984326968
$GNHDT,92.554,T*14
$PYRTM,2024,126.501345342257,17.610992752384
$GNGGA,120156.00,3406.33449697,N,11952.65029620,W,2,13,0.8,7.541,M,-37.022,M,6.0,0131*6F
$PYRTM,2024,126.501345342257,17.610992752384
$GNHDT,92.067,T*11
$PYRTM,2024,126.501351638542,17.610999048681
$GNGGA,120156.50,3406.33450747,N,11952.64888449,W,2,13,0.8,7.641,M,-37.022,M,6.4,0131*66
$PYRTM,2024,126.501351638542,17.610999048681
$GNHDT,91.848,T*17
$PYRTM,2024,126.501357425567,17.611004835706
$GNGGA,120157.00,3406.33447860,N,11952.64749306,W,2,13,0.8,7.620,M,-37.022,M,7.0,0131*62
$PYRTM,2024,126.501357425567,17.611004835706
$GNHDT,91.463,T*12
$PYRTM,2024,126.501363768160,17.611011178299
$GNGGA,120157.50,3406.33440749,N,11952.64614526,W,2,13,0.8,7.448,M,-37.022,M,7.4,0131*61
$PYRTM,2024,126.501363768160,17.611011178299
$GNHDT,91.395,T*1C
$PYRTM,2024,126.501368397824,17.611015807963
$GNGGA,120158.00,3406.33426211,N,11952.64480921,W,2,13,0.8,7.194,M,-37.022,M,7.0,0131*67
$PYRTM,2024,126.501368397824,17.611015807963
$GNHDT,91.700,T*14
$PYRTM,2024,126.501374694109,17.611022104248
$GNGGA,120158.50,3406.33408444,N,11952.64349824,W,2,13,0.8,6.928,M,-37.022,M,7.4,0131*64
$PYRTM,2024,126.501374694109,17.611022104248
$GNHDT,91.886,T*15
$PYRTM,2024,126.501380481134,17.611027891273
$GNGGA,120159.00,3406.33390593,N,11952.64221639,W,2,13,0.8,6.712,M,-37.022,M,7.0,0131*63
$PYRTM,2024,126.501380481134,17.611027891273
$GNHDT,92.551,T*11
$PYRTM,2024,126.501386823762,17.611034233900
$GNGGA,120159.50,3406.33377303,N,11952.64094954,W,2,13,0.8,6.612,M,-37.022,M,7.4,0131*6D
$PYRTM,2024,126.501386823762,17.611034233900
$GNHDT,92.670,T*11
$PYRTM,2024,126.501391453391,17.611038863530
$GNGGA,120200.00,3406.33368805,N,11952.63968340,W,2,13,0.8,6.642,M,-37.022,M,4.0,0131*64
$PYRTM,2024,126.501391453391,17.611038863530
$GNHDT,93.173,T*14
$PYRTM,2024,126.501395386204,17.611042796343
$GNGGA,120200.50,3406.33363868,N,11952.63840433,W,2,13,0.8,6.746,M,-37.022,M,4.4,0131*68
$PYRTM,2024,126.501395386204,17.611042796343
$GNHDT,93.908,T*10
$PYRTM,2024,126.501401222164,17.611048632303
$GNGGA,120201.00,3406.33361114,N,11952.63709392,W,2,13,0.8,6.889,M,-37.022,M,5.0,0131*6B
$PYRTM,2024,126.501401222164,17.611048632303
$GNHDT,94.180,T*1F
$PYRTM,2024,126.501407564583,17.611054974722
$GNGGA,120201.50,3406.33358002,N,11952.63574199,W,2,13,0.8,6.973,M,-37.022,M,5.4,0131*63
$PYRTM,2024,126.501407564583,17.611054974722
$GNHDT,94.387,T*1A
$PYRTM,2024,126.501412194259,17.611059604387
$GNGGA,120202.00,3406.33354093,N,11952.63436706,W,2,13,0.8,7.030,M,-37.022,M,6.0,0131*6E
$PYRTM,2024,126.501412194259,17.611059604387
$GNHDT,94.227,T*11
$PYRTM,2024,126.501418531539,17.611065941678
$GNGGA,120202.50,3406.33348327,N,11952.63298210,W,2,13,0.8,7.072,M,-37.022,M,6.4,0131*68
$PYRTM,2024,126.501418531539,17.611065941678
$GNHDT,94.254,T*15
$PYRTM,2024,126.501424277512,17.611071687650
$GNGGA,120203.00,3406.33339743,N,11952.63157947,W,2,13,0.8,7.111,M,-37.022,M,7.0,0131*64
$PYRTM,2024,126.501424277512,17.611071687650
$GNHDT,93.711,T*16
$PYRTM,2024,126.501430573750,17.611077983889
$GNGGA,120203.50,3406.33328151,N,11952.63015514,W,2,13,0.8,7.154,M,-37.022,M,7.4,0131*6C
$PYRTM,2024,126.501430573750,17.611077983889
$GNHDT,93.320,T*10
$PYRTM,2024,126.501436360799,17.611083770938
$GNGGA,120204.00,3406.33313395,N,11952.62869726,W,2,13,0.8,7.159,M,-37.022,M,7.0,0131*64
$PYRTM,2024,126.501436360799,17.611083770938
$GNHDT,92.787,T*18
$PYRTM,2024,126.501442703414,17.611090113553
$GNGGA,120204.50,3406.33298578,N,11952.62723046,W,2,13,0.8,7.150,M,-37.022,M,7.4,0131*6B
$PYRTM,2024,126.501442703414,17.611090113553
$GNHDT,92.150,T*14
$PYRTM,2024,126.501447332986,17.611094743125
$GNGGA,120205.00,3406.33284715,N,11952.62576601,W,2,13,0.8,7.122,M,-37.022,M,7.0,0131*6D
$PYRTM,2024,126.501447332986,17.611094743125
$GNHDT,91.688,T*15
$PYRTM,2024,126.501453629317,17.611101039444
$GNGGA,120205.50,3406.33273131,N,11952.62431945,W,2,13,0.8,7.131,M,-37.022,M,7.4,0131*6B
$PYRTM,2024,126.501453629317,17.611101039444
$GNHDT,91.246,T*13
$PYRTM,2024,126.501459416331,17.611106826470
$GNGGA,120206.00,3406.33263226,N,11952.62290184,W,2,13,0.8,7.202,M,-37.022,M,4.0,0131*65
$PYRTM,2024,126.501459416331,17.611106826470
$GNHDT,91.187,T*1D
$PYRTM,2024,126.501464828079,17.611112238218
$GNGGA,120206.50,3406.33254063,N,11952.62152454,W,2,13,0.8,7.304,M,-37.022,M,4.4,0131*61
$PYRTM,2024,126.501464828079,17.611112238218
$GNHDT,91.074,T*10
$PYRTM,2024,126.501470388576,17.611117798715
$GNGGA,120207.00,3406.33244020,N,11952.62017071,W,2,13,0.8,7.425,M,-37.022,M,5.0,0131*61
$PYRTM,2024,126.501470388576,17.611117798715
$GNHDT,91.398,T*11
$PYRTM,2024,126.501477842292,17.611125252431
$GNGGA,120207.50,3406.33232757,N,11952.61883918,W,2,13,0.8,7.516,M,-37.022,M,5.4,0131*67
$PYRTM,2024,126.501477842292,17.611125252431
$GNHDT,91.769,T*1B
$PYRTM,2024,126.501483629606,17.611131039745
$GNGGA,120208.00,3406.33219866,N,11952.61752872,W,2,13,0.8,7.514,M,-37.022,M,6.0,0131*62
$PYRTM,2024,126.501483629606,17.611131039745
$GNHDT,92.223,T*13
$PYRTM,2024,126.501489925625,17.611137335764
$GNGGA,120208.50,3406.33206478,N,11952.61624429,W,2,13,0.8,7.450,M,-37.022,M,6.4,0131*6D
$PYRTM,2024,126.501489925625,17.611137335764
$GNHDT,92.756,T*14
$PYRTM,2024,126.501494555255,17.611141965394
$GNGGA,120209.00,3406.33193447,N,11952.61498408,W,2,13,0.8,7.331,M,-37.022,M,7.0,0131*69
$PYRTM,2024,126.501494555255,17.611141965394
$GNHDT,93.068,T*1F
$PYRTM,2024,126.501500897836,17.611148307975
$GNGGA,120209.50,3406.33181892,N,11952.61373188,W,2,13,0.8,7.199,M,-37.022,M,7.4,0131*60
$PYRTM,2024,126.501500897836,17.611148307975
$GNHDT,93.461,T*12
$PYRTM,2024,126.501505527477,17.611152937616
$GNGGA,120210.00,3406.33172611,N,11952.61246933,W,2,13,0.8,7.088,M,-37.022,M,7.0,0131*6E
$PYRTM,2024,126.501505527477,17.611152937616
$GNHDT,93.728,T*1C
$PYRTM,2024,126.501512981157,17.611160391296
$GNGGA,120210.50,3406.33166067,N,11952.61118761,W,2,13,0.8,7.024,M,-37.022,M,7.4,0131*6A
$PYRTM,2024,126.501512981157,17.611160391296
$GNHDT,93.518,T*1D
$PYRTM,2024,126.501517610845,17.611165020984
$GNGGA,120211.00,3406.33161030,N,11952.60988093,W,2,13,0.8,7.018,M,-37.022,M,7.0,0131*6A
$PYRTM,2024,126.501517610845,17.611165020984
$GNHDT,93.324,T*14
$PYRTM,2024,126.501523907211,17.611171317350
$GNGGA,120211.50,3406.33157350,N,11952.60854274,W,2,13,0.8,7.050,M,-37.022,M,7.4,0131*6C
$PYRTM,2024,126.501523907211,17.611171317350
$GNHDT,93.450,T*10
$PYRTM,2024,126.501529694132,17.611177104271
$GNGGA,120212.00,3406.33155022,N,11952.60717925,W,2,13,0.8,7.114,M,-37.022,M,4.0,0131*6F
$PYRTM,2024,126.501529694132,17.611177104271
$GNHDT,93.347,T*11
$PYRTM,2024,126.501534879676,17.611182289815
$GNGGA,120212.50,3406.33151708,N,11952.60579413,W,2,13,0.8,7.191,M,-37.022,M,4.4,0131*6A
$PYRTM,2024,126.501534879676,17.611182289815
$GNHDT,92.930,T*1A
$PYRTM,2024,126.501541453391,17.611188863530
$GNGGA,120213.00,3406.33145750,N,11952.60440060,W,2,13,0.8,7.266,M,-37.022,M,5.0,0131*63
$PYRTM,2024,126.501541453391,17.611188863530
$GNHDT,92.759,T*1B
$PYRTM,2024,126.501547749687,17.611195159826
$GNGGA,120213.50,3406.33135167,N,11952.60299257,W,2,13,0.8,7.322,M,-37.022,M,5.4,0131*62
$PYRTM,2024,126.501547749687,17.611195159826
$GNHDT,92.613,T*14
$PYRTM,2024,126.501552379352,17.611199789491
$GNGGA,120214.00,3406.33121134,N,11952.60158386,W,2,13,0.8,7.388,M,-37.022,M,6.0,0131*67
$PYRTM,2024,126.501552379352,17.611199789491
$GNHDT,92.526,T*11
$PYRTM,2024,126.501558721910,17.611206132049
$GNGGA,120214.50,3406.33105590,N,11952.60018116,W,2,13,0.8,7.449,M,-37.022,M,6.4,0131*6E
$PYRTM,2024,126.501558721910,17.611206132049
$GNHDT,92.744,T*17
$PYRTM,2024,126.501564509016,17.611211919155
$GNGGA,120215.00,3406.33089372,N,11952.59877927,W,2,13,0.8,7.493,M,-37.022,M,7.0,0131*66
$PYRTM,2024,126.501564509016,17.611211919155
$GNHDT,92.714,T*12
$PYRTM,2024,126.501570805231,17.611218215370
$GNGGA,120215.50,3406.33074217,N,11952.59737110,W,2,13,0.8,7.488,M,-37.022,M,7.4,0131*6A
$PYRTM,2024,126.501570805231,17.611218215370
$GNHDT,92.843,T*1F
$PYRTM,2024,126.501575434965,17.611222845104
$GNGGA,120216.00,3406.33059683,N,11952.59595900,W,2,13,0.8,7.417,M,-37.022,M,7.0,0131*6B
$PYRTM,2024,126.501575434965,17.611222845104
$GNHDT,93.047,T*12
$PYRTM,2024,126.501581731181,17.611229141308
$GNGGA,120216.50,3406.33046637,N,11952.59455942,W,2,13,0.8,7.310,M,-37.022,M,7.4,0131*60
$PYRTM,2024,126.501581731181,17.611229141308
$GNHDT,93.190,T*19
$PYRTM,2024,126.501587518218,17.611234928356
$GNGGA,120217.00,3406.33035933,N,11952.59318543,W,2,13,0.8,7.217,M,-37.022,M,7.0,0131*6A
$PYRTM,2024,126.501587518218,17.611234928356
$GNHDT,93.125,T*17
$PYRTM,2024,126.501591547234,17.611238957361
$GNGGA,120217.50,3406.33028749,N,11952.59183489,W,2,13,0.8,7.158,M,-37.022,M,7.4,0131*6B
$PYRTM,2024,126.501591547234,17.611238957361
$GNHDT,92.989,T*18
$PYRTM,2024,126.501599601586,17.611247011713
$GNGGA,120218.00,3406.33024031,N,11952.59050513,W,2,13,0.8,7.164,M,-37.022,M,4.0,0131*60
$PYRTM,2024,126.501599601586,17.611247011713
$GNHDT,92.904,T*1D
$PYRTM,2024,126.501604740440,17.611252150579
$GNGGA,120218.50,3406.33020365,N,11952.58917730,W,2,13,0.8,7.178,M,-37.022,M,4.4,0131*62
$PYRTM,2024,126.501604740440,17.611252150579
$GNHDT,92.966,T*19
$PYRTM,2024,126.501610527535,17.611257937674
$GNGGA,120219.00,3406.33016131,N,11952.58783687,W,2,13,0.8,7.163,M,-37.022,M,5.0,0131*61
$PYRTM,2024,126.501610527535,17.611257937674
$GNHDT,92.689,T*17
$PYRTM,2024,126.501616870058,17.611264280197
$GNGGA,120219.50,3406.33008591,N,11952.58649668,W,2,13,0.8,7.103,M,-37.022,M,5.4,0131*61
$PYRTM,2024,126.501616870058,17.611264280197
$GNHDT,92.784,T*1B
$PYRTM,2024,126.501622657106,17.611270067245
$GNGGA,120220.00,3406.32997586,N,11952.58516723,W,2,13,0.8,7.039,M,-37.022,M,6.0,0131*6E
$PYRTM,2024,126.501622657106,17.611270067245
$GNHDT,92.642,T*10
$PYRTM,2024,126.501628953380,17.611276363519
$GNGGA,120220.50,3406.32984264,N,11952.58385908,W,2,13,0.8,6.993,M,-37.022,M,6.4,0131*65
$PYRTM,2024,126.501628953380,17.611276363519
$GNHDT,92.870,T*1F
$PYRTM,2024,126.501633583021,17.611280993160
$GNGGA,120221.00,3406.32970577,N,11952.58256920,W,2,13,0.8,6.990,M,-37.022,M,7.0,0131*6C
$PYRTM,2024,126.501633583021,17.611280993160
$GNHDT,92.771,T*11
$PYRTM,2024,126.501639879375,17.611287289514
$GNGGA,120221.50,3406.32959497,N,11952.58128834,W,2,13,0.8,7.037,M,-37.022,M,7.4,0131*62
$PYRTM,2024,126.501639879375,17.611287289514
$GNHDT,93.149,T*1D
$PYRTM,2024,126.501645666389,17.611293076528
$GNGGA,120222.00,3406.32951629,N,11952.57999903,W,2,13,0.8,7.130,M,-37.022,M,7.0,0131*61
$PYRTM,2024,126.501645666389,17.611293076528
$GNHDT,93.192,T*1B
$PYRTM,2024,126.501650013171,17.611297423310
$GNGGA,120222.50,3406.32946476,N,11952.57869136,W,2,13,0.8,7.216,M,-37.022,M,7.4,0131*69
$PYRTM,2024,126.501650013171,17.611297423310
$GNHDT,93.147,T*13
$PYRTM,2024,126.501656684873,17.611304095012
$GNGGA,120223.00,3406.32943183,N,11952.57735270,W,2,13,0.8,7.255,M,-37.022,M,7.0,0131*63
$PYRTM,2024,126.501656684873,17.611304095012
$GNHDT,92.947,T*1A
$PYRTM,2024,126.501662981169,17.611310391308
$GNGGA,120223.50,3406.32940247,N,11952.57598984,W,2,13,0.8,7.213,M,-37.022,M,7.4,0131*6D
$PYRTM,2024,126.501662981169,17.611310391308
$GNHDT,92.784,T*1B
$PYRTM,2024,126.501668768322,17.611316178461
$GNGGA,120224.00,3406.32935600,N,11952.57460977,W,2,13,0.8,7.127,M,-37.022,M,4.0,0131*63
$PYRTM,2024,126.501668768322,17.611316178461
$GNHDT,92.656,T*15
$PYRTM,2024,126.501675064514,17.611322474653
$GNGGA,120224.50,3406.32926592,N,11952.57323072,W,2,13,0.8,7.020,M,-37.022,M,4.4,0131*62
$PYRTM,2024,126.501675064514,17.611322474653
$GNHDT,92.817,T*1E
$PYRTM,2024,126.501679694167,17.611327104294
$GNGGA,120225.00,3406.32912961,N,11952.57185006,W,2,13,0.8,6.965,M,-37.022,M,5.0,0131*60
$PYRTM,2024,126.501679694167,17.611327104294
$GNHDT,92.774,T*14
$PYRTM,2024,126.501686036736,17.611333446875
$GNGGA,120225.50,3406.32897412,N,11952.57046330,W,2,13,0.8,6.996,M,-37.022,M,5.4,0131*60
$PYRTM,2024,126.501686036736,17.611333446875
$GNHDT,92.066,T*10
$PYRTM,2024,126.501691823785,17.611339233924
$GNGGA,120226.00,3406.32883755,N,11952.56905764,W,2,13,0.8,7.113,M,-37.022,M,6.0,0131*6A
$PYRTM,2024,126.501691823785,17.611339233924
$GNHDT,91.677,T*15
$PYRTM,2024,126.501698120058,17.611345530197
$GNGGA,120226.50,3406.32873949,N,11952.56763628,W,2,13,0.8,7.274,M,-37.022,M,6.4,0131*62
$PYRTM,2024,126.501698120058,17.611345530197
$GNHDT,91.447,T*14
$PYRTM,2024,126.501702749699,17.611350159838
$GNGGA,120227.00,3406.32868350,N,11952.56620618,W,2,13,0.8,7.471,M,-37.022,M,7.0,0131*6D
$PYRTM,2024,126.501702749699,17.611350159838
$GNHDT,91.388,T*10
$PYRTM,2024,126.501709092373,17.611356502512
$GNGGA,120227.50,3406.32863678,N,11952.56477623,W,2,13,0.8,7.617,M,-37.022,M,7.4,0131*62
$PYRTM,2024,126.501709092373,17.611356502512
$GNHDT,91.299,T*11
$PYRTM,2024,126.501714879329,17.611362289468
$GNGGA,120228.00,3406.32856770,N,11952.56335092,W,2,13,0.8,7.697,M,-37.022,M,7.0,0131*66
$PYRTM,2024,126.501714879329,17.611362289468
$GNHDT,91.512,T*15
$PYRTM,2024,126.501721175637,17.611368585775
$GNGGA,120228.50,3406.32845521,N,11952.56194519,W,2,13,0.8,7.708,M,-37.022,M,7.4,0131*6B
$PYRTM,2024,126.501721175637,17.611368585775
$GNHDT,91.777,T*14
$PYRTM,2024,126.501726962650,17.611374372789
$GNGGA,120229.00,3406.32831191,N,11952.56056677,W,2,13,0.8,7.664,M,-37.022,M,7.0,0131*68
$PYRTM,2024,126.501726962650,17.611374372789
$GNHDT,92.490,T*1D
$PYRTM,2024,126.501732101562,17.611379511701
$GNGGA,120229.50,3406.32817333,N,11952.55921439,W,2,13,0.8,7.619,M,-37.022,M,7.4,0131*6F
$PYRTM,2024,126.501732101562,17.611379511701
$GNHDT,92.607,T*11
