$PYRTM,2024,123.083339022836,14.192986432975
$GNGGA,020000.50,3404.05765960,N,11931.45630867,W,2,10,1.0,6.797,M,-37.124,M,5.4,0135*66
$PYRTM,2024,123.083339022836,14.192986432975
$GNHDT,293.266,T*21
$PYRTM,2024,123.083344861088,14.192992271238
$GNGGA,020001.00,3404.05815485,N,11931.45771113,W,2,10,1.0,6.640,M,-37.124,M,6.0,0135*6E
$PYRTM,2024,123.083344861088,14.192992271238
$GNHDT,293.118,T*2B
$PYRTM,2024,123.083350600243,14.192998010382
$GNGGA,020001.50,3404.05865654,N,11931.45912342,W,2,10,1.0,6.496,M,-37.124,M,6.4,0135*62
$PYRTM,2024,123.083350600243,14.192998010382
$GNHDT,292.809,T*23
$PYRTM,2024,123.083356430613,14.193003840752
$GNGGA,020002.00,3404.05918350,N,11931.46051953,W,2,10,1.0,6.422,M,-37.124,M,7.0,0135*63
$PYRTM,2024,123.083356430613,14.193003840752
$GNHDT,292.612,T*27
$PYRTM,2024,123.083362171794,14.193009581933
$GNGGA,020002.50,3404.05968689,N,11931.46188003,W,2,10,1.0,6.530,M,-37.124,M,7.4,0135*6F
$PYRTM,2024,123.083362171794,14.193009581933
$GNHDT,292.714,T*20
$PYRTM,2024,123.083368009225,14.193015419375
$GNGGA,020003.00,3404.06018279,N,11931.46320884,W,2,10,1.0,6.774,M,-37.124,M,7.0,0135*6C
$PYRTM,2024,123.083368009225,14.193015419375
$GNHDT,292.531,T*25
$PYRTM,2024,123.083373744641,14.193021154780
$GNGGA,020003.50,3404.06067463,N,11931.46452943,W,2,10,1.0,7.083,M,-37.124,M,7.4,0135*6E
$PYRTM,2024,123.083373744641,14.193021154780
$GNHDT,292.367,T*20
$PYRTM,2024,123.083379582002,14.193026992141
$GNGGA,020004.00,3404.06118085,N,11931.46587171,W,2,10,1.0,7.346,M,-37.123,M,7.0,0135*60
$PYRTM,2024,123.083379582002,14.193026992141
$GNHDT,292.280,T*28
$PYRTM,2024,123.083385327141,14.193032737280
$GNGGA,020004.50,3404.06169004,N,11931.46725022,W,2,10,1.0,7.457,M,-37.123,M,7.4,0135*64
$PYRTM,2024,123.083385327141,14.193032737280
$GNHDT,292.442,T*20
$PYRTM,2024,123.083391154097,14.193038564236
$GNGGA,020005.00,3404.06220269,N,11931.46865339,W,2,10,1.0,7.410,M,-37.123,M,4.0,0135*61
$PYRTM,2024,123.083391154097,14.193038564236
$GNHDT,292.541,T*22
$PYRTM,2024,123.083396893727,14.193044303866
$GNGGA,020005.50,3404.06269952,N,11931.47006797,W,2,10,1.0,7.219,M,-37.123,M,4.4,0135*6D
$PYRTM,2024,123.083396893727,14.193044303866
$GNHDT,292.082,T*28
$PYRTM,2024,123.083402732083,14.193050142222
$GNGGA,020006.00,3404.06317765,N,11931.47148663,W,2,10,1.0,6.948,M,-37.123,M,5.0,0135*63
$PYRTM,2024,123.083402732083,14.193050142222
$GNHDT,291.928,T*22
$PYRTM,2024,123.083408466042,14.193055876181
$GNGGA,020006.50,3404.06363992,N,11931.47290105,W,2,10,1.0,6.661,M,-37.123,M,5.4,0135*62
$PYRTM,2024,123.083408466042,14.193055876181
$GNHDT,291.709,T*2F
$PYRTM,2024,123.083414302477,14.193061712616
$GNGGA,020007.00,3404.06409921,N,11931.47431749,W,2,10,1.0,6.419,M,-37.123,M,6.0,0135*6C
$PYRTM,2024,123.083414302477,14.193061712616
$GNHDT,291.538,T*2F
$PYRTM,2024,123.083420043924,14.193067454062
$GNGGA,020007.50,3404.06457212,N,11931.47571315,W,2,10,1.0,6.229,M,-37.123,M,6.4,0135*60
$PYRTM,2024,123.083420043924,14.193067454062
$GNHDT,291.718,T*2F
$PYRTM,2024,123.083425877674,14.193073287812
$GNGGA,020008.00,3404.06504595,N,11931.47711237,W,2,10,1.0,6.166,M,-37.123,M,7.0,0135*6D
$PYRTM,2024,123.083425877674,14.193073287812
$GNHDT,292.088,T*22
$PYRTM,2024,123.083431619861,14.193079030000
$GNGGA,020008.50,3404.06552998,N,11931.47848262,W,2,10,1.0,6.208,M,-37.123,M,7.4,0135*66
$PYRTM,2024,123.083431619861,14.193079030000
$GNHDT,291.576,T*25
$PYRTM,2024,123.083437449641,14.193084859780
$GNGGA,020009.00,3404.06601877,N,11931.47981802,W,2,10,1.0,6.363,M,-37.123,M,7.0,0135*67
$PYRTM,2024,123.083437449641,14.193084859780
$GNHDT,291.510,T*25
$PYRTM,2024,123.083443193426,14.193090603565
$GNGGA,020009.50,3404.06650368,N,11931.48113805,W,2,10,1.0,6.597,M,-37.123,M,7.4,0135*61
$PYRTM,2024,123.083443193426,14.193090603565
$GNHDT,291.680,T*2F
$PYRTM,2024,123.083449027315,14.193096437454
$GNGGA,020010.00,3404.06698512,N,11931.48243884,W,2,10,1.0,6.886,M,-37.123,M,7.0,0135*65
$PYRTM,2024,123.083449027315,14.193096437454
$GNHDT,291.659,T*2B
$PYRTM,2024,123.083454767766,14.193102177905
$GNGGA,020010.50,3404.06745112,N,11931.48374787,W,2,10,1.0,7.155,M,-37.123,M,7.4,0135*6E
$PYRTM,2024,123.083454767766,14.193102177905
$GNHDT,291.816,T*2E
$PYRTM,2024,123.083460602199,14.193108012350
$GNGGA,020011.00,3404.06790225,N,11931.48508837,W,2,10,1.0,7.308,M,-37.123,M,4.0,0135*61
$PYRTM,2024,123.083460602199,14.193108012350
$GNHDT,291.776,T*27
$PYRTM,2024,123.083466345799,14.193113755949
$GNGGA,020011.50,3404.06834943,N,11931.48648623,W,2,10,1.0,7.246,M,-37.123,M,4.4,0135*6D
$PYRTM,2024,123.083466345799,14.193113755949
$GNHDT,291.670,T*20
$PYRTM,2024,123.083472181586,14.193119591725
$GNGGA,020012.00,3404.06879209,N,11931.48792552,W,2,10,1.0,6.973,M,-37.123,M,5.0,0135*6D
$PYRTM,2024,123.083472181586,14.193119591725
$GNHDT,291.664,T*25
$PYRTM,2024,123.083477914722,14.193125324861
$GNGGA,020012.50,3404.06923764,N,11931.48936753,W,2,10,1.0,6.611,M,-37.123,M,5.4,0135*64
$PYRTM,2024,123.083477914722,14.193125324861
$GNHDT,291.698,T*26
$PYRTM,2024,123.083483751505,14.193131161644
$GNGGA,020013.00,3404.06967944,N,11931.49079171,W,2,10,1.0,6.277,M,-37.123,M,6.0,0135*6A
$PYRTM,2024,123.083483751505,14.193131161644
$GNHDT,291.901,T*29
$PYRTM,2024,123.083489487650,14.193136897789
$GNGGA,020013.50,3404.07012742,N,11931.49215954,W,2,10,1.0,6.142,M,-37.123,M,6.4,0135*6B
$PYRTM,2024,123.083489487650,14.193136897789
$GNHDT,291.628,T*2D
$PYRTM,2024,123.083495323275,14.193142733414
$GNGGA,020014.00,3404.07058481,N,11931.49346282,W,2,10,1.0,6.283,M,-37.123,M,7.0,0135*67
$PYRTM,2024,123.083495323275,14.193142733414
$GNHDT,291.692,T*2C
$PYRTM,2024,123.083501063229,14.193148473368
$GNGGA,020014.50,3404.07104556,N,11931.49474513,W,2,10,1.0,6.578,M,-37.123,M,7.4,0135*6F
$PYRTM,2024,123.083501063229,14.193148473368
$GNHDT,291.590,T*2D
$PYRTM,2024,123.083506895891,14.193154306030
$GNGGA,020015.00,3404.07151893,N,11931.49603911,W,2,10,1.0,6.964,M,-37.123,M,7.0,0135*66
$PYRTM,2024,123.083506895891,14.193154306030
$GNHDT,291.601,T*26
$PYRTM,2024,123.083512637720,14.193160047859
$GNGGA,020015.50,3404.07200007,N,11931.49738420,W,2,10,1.0,7.280,M,-37.123,M,7.4,0135*63
$PYRTM,2024,123.083512637720,14.193160047859
$GNHDT,291.457,T*27
$PYRTM,2024,123.083518469005,14.193165879144
$GNGGA,020016.00,3404.07248437,N,11931.49881653,W,2,10,1.0,7.347,M,-37.123,M,7.0,0135*6B
$PYRTM,2024,123.083518469005,14.193165879144
$GNHDT,291.663,T*22
$PYRTM,2024,123.083524213565,14.193171623704
$GNGGA,020016.50,3404.07296458,N,11931.50030407,W,2,10,1.0,7.148,M,-37.123,M,7.4,0135*64
$PYRTM,2024,123.083524213565,14.193171623704
$GNHDT,291.825,T*2E
$PYRTM,2024,123.083530049109,14.193177459248
$GNGGA,020017.00,3404.07343226,N,11931.50179599,W,2,10,1.0,6.778,M,-37.123,M,4.0,0135*6F
$PYRTM,2024,123.083530049109,14.193177459248
$GNHDT,291.923,T*29
$PYRTM,2024,123.083535787384,14.193183197523
$GNGGA,020017.50,3404.07388002,N,11931.50324801,W,2,10,1.0,6.466,M,-37.123,M,4.4,0135*67
$PYRTM,2024,123.083535787384,14.193183197523
$GNHDT,291.709,T*2F
$PYRTM,2024,123.083541618669,14.193189028808
$GNGGA,020018.00,3404.07431152,N,11931.50463349,W,2,10,1.0,6.312,M,-37.123,M,5.0,0135*6E
$PYRTM,2024,123.083541618669,14.193189028808
$GNHDT,291.650,T*22
$PYRTM,2024,123.083547360220,14.193194770359
$GNGGA,020018.50,3404.07473287,N,11931.50596455,W,2,10,1.0,6.392,M,-37.123,M,5.4,0135*6B
$PYRTM,2024,123.083547360220,14.193194770359
$GNHDT,291.793,T*2C
$PYRTM,2024,123.083553193646,14.193200603785
$GNGGA,020019.00,3404.07515640,N,11931.50725637,W,2,10,1.0,6.635,M,-37.123,M,6.0,0135*62
$PYRTM,2024,123.083553193646,14.193200603785
$GNHDT,291.620,T*25
$PYRTM,2024,123.083558936690,14.193206346829
$GNGGA,020019.50,3404.07559748,N,11931.50856286,W,2,10,1.0,6.915,M,-37.123,M,6.4,0135*6A
$PYRTM,2024,123.083558936690,14.193206346829
$GNHDT,291.718,T*2F
$PYRTM,2024,123.083564767118,14.193212177257
$GNGGA,020020.00,3404.07606978,N,11931.50990302,W,2,10,1.0,7.106,M,-37.123,M,7.0,0135*69
$PYRTM,2024,123.083564767118,14.193212177257
$GNHDT,291.728,T*2C
$PYRTM,2024,123.083570507060,14.193217917199
$GNGGA,020020.50,3404.07656953,N,11931.51129536,W,2,10,1.0,7.109,M,-37.123,M,7.4,0135*61
$PYRTM,2024,123.083570507060,14.193217917199
$GNHDT,291.654,T*26
$PYRTM,2024,123.083576343299,14.193223753438
$GNGGA,020021.00,3404.07708296,N,11931.51271674,W,2,10,1.0,6.919,M,-37.122,M,7.0,0135*6B
$PYRTM,2024,123.083576343299,14.193223753438
$GNHDT,291.676,T*26
$PYRTM,2024,123.083582085486,14.193229495637
$GNGGA,020021.50,3404.07757341,N,11931.51412763,W,2,10,1.0,6.687,M,-37.122,M,7.4,0135*67
$PYRTM,2024,123.083582085486,14.193229495637
$GNHDT,291.727,T*23
$PYRTM,2024,123.083587915312,14.193235325451
$GNGGA,020022.00,3404.07802573,N,11931.51550594,W,2,10,1.0,6.550,M,-37.122,M,7.0,0135*69
$PYRTM,2024,123.083587915312,14.193235325451
$GNHDT,291.621,T*24
$PYRTM,2024,123.083593654167,14.193241064306
$GNGGA,020022.50,3404.07844200,N,11931.51686165,W,2,10,1.0,6.554,M,-37.122,M,7.4,0135*6F
$PYRTM,2024,123.083593654167,14.193241064306
$GNHDT,291.630,T*24
$PYRTM,2024,123.083599491215,14.193246901354
$GNGGA,020023.00,3404.07883528,N,11931.51821202,W,2,10,1.0,6.707,M,-37.122,M,4.0,0135*6F
$PYRTM,2024,123.083599491215,14.193246901354
$GNHDT,291.608,T*2F
$PYRTM,2024,123.083605230822,14.193252640961
$GNGGA,020023.50,3404.07923040,N,11931.51956577,W,2,10,1.0,6.879,M,-37.122,M,4.4,0135*6C
$PYRTM,2024,123.083605230822,14.193252640961
$GNHDT,291.580,T*2C
$PYRTM,2024,123.083611064988,14.193258475127
$GNGGA,020024.00,3404.07964654,N,11931.52093902,W,2,10,1.0,7.000,M,-37.122,M,5.0,0135*61
$PYRTM,2024,123.083611064988,14.193258475127
$GNHDT,291.227,T*26
$PYRTM,2024,123.083616803600,14.193264213738
$GNGGA,020024.50,3404.08009729,N,11931.52233587,W,2,10,1.0,7.010,M,-37.122,M,5.4,0135*6E
$PYRTM,2024,123.083616803600,14.193264213738
$GNHDT,291.574,T*27
$PYRTM,2024,123.083622638449,14.193270048588
$GNGGA,020025.00,3404.08057964,N,11931.52373805,W,2,10,1.0,6.896,M,-37.122,M,6.0,0135*64
$PYRTM,2024,123.083622638449,14.193270048588
$GNHDT,291.646,T*25
$PYRTM,2024,123.083628377697,14.193275787847
$GNGGA,020025.50,3404.08107595,N,11931.52511971,W,2,10,1.0,6.750,M,-37.122,M,6.4,0135*66
$PYRTM,2024,123.083628377697,14.193275787847
$GNHDT,291.522,T*24
$PYRTM,2024,123.083634213356,14.193281623495
$GNGGA,020026.00,3404.08155691,N,11931.52647061,W,2,10,1.0,6.676,M,-37.122,M,7.0,0135*68
$PYRTM,2024,123.083634213356,14.193281623495
$GNHDT,291.557,T*26
$PYRTM,2024,123.083639953981,14.193287364120
$GNGGA,020026.50,3404.08201160,N,11931.52780448,W,2,10,1.0,6.720,M,-37.122,M,7.4,0135*65
$PYRTM,2024,123.083639953981,14.193287364120
$GNHDT,291.483,T*2E
$PYRTM,2024,123.083645785498,14.193293195637
$GNGGA,020027.00,3404.08244165,N,11931.52915809,W,2,10,1.0,6.804,M,-37.122,M,7.0,0135*63
$PYRTM,2024,123.083645785498,14.193293195637
$GNHDT,291.422,T*25
$PYRTM,2024,123.083651527859,14.193298938009
$GNGGA,020027.50,3404.08286942,N,11931.53056590,W,2,10,1.0,6.810,M,-37.122,M,7.4,0135*66
$PYRTM,2024,123.083651527859,14.193298938009
$GNHDT,291.367,T*23
$PYRTM,2024,123.083657360833,14.193304770972
$GNGGA,020028.00,3404.08330890,N,11931.53204572,W,2,10,1.0,6.636,M,-37.122,M,7.0,0135*69
$PYRTM,2024,123.083657360833,14.193304770972
$GNHDT,291.416,T*22
$PYRTM,2024,123.083663102928,14.193310513079
$GNGGA,020028.50,3404.08375667,N,11931.53354369,W,2,10,1.0,6.380,M,-37.122,M,7.4,0135*6F
$PYRTM,2024,123.083663102928,14.193310513079
$GNHDT,291.311,T*22
$PYRTM,2024,123.083668936447,14.193316346586
$GNGGA,020029.00,3404.08420294,N,11931.53498056,W,2,10,1.0,6.184,M,-37.122,M,4.0,0135*6D
$PYRTM,2024,123.083668936447,14.193316346586
$GNHDT,291.518,T*2D
$PYRTM,2024,123.083674672512,14.193322082650
$GNGGA,020029.50,3404.08463832,N,11931.53631214,W,2,10,1.0,6.248,M,-37.122,M,4.4,0135*6B
$PYRTM,2024,123.083674672512,14.193322082650
$GNHDT,291.735,T*20
$PYRTM,2024,123.083680515231,14.193327925370
$GNGGA,020030.00,3404.08506615,N,11931.53757072,W,2,10,1.0,6.519,M,-37.122,M,5.0,0135*6A
$PYRTM,2024,123.083680515231,14.193327925370
$GNHDT,291.674,T*24
$PYRTM,2024,123.083686247627,14.193333657766
$GNGGA,020030.50,3404.08551679,N,11931.53882611,W,2,10,1.0,6.909,M,-37.122,M,5.4,0135*6A
$PYRTM,2024,123.083686247627,14.193333657766
$GNHDT,291.597,T*2A
$PYRTM,2024,123.083692085451,14.193339495590
$GNGGA,020031.00,3404.08599905,N,11931.54014378,W,2,10,1.0,7.211,M,-37.122,M,6.0,0135*60
$PYRTM,2024,123.083692085451,14.193339495590
$GNHDT,291.467,T*24
$PYRTM,2024,123.083697824803,14.193345234942
$GNGGA,020031.50,3404.08649554,N,11931.54154536,W,2,10,1.0,7.292,M,-37.122,M,6.4,0135*65
$PYRTM,2024,123.083697824803,14.193345234942
$GNHDT,291.789,T*27
$PYRTM,2024,123.083703656933,14.193351067072
$GNGGA,020032.00,3404.08697439,N,11931.54297214,W,2,10,1.0,7.194,M,-37.122,M,7.0,0135*61
$PYRTM,2024,123.083703656933,14.193351067072
$GNHDT,291.815,T*2D
$PYRTM,2024,123.083709401377,14.193356811516
$GNGGA,020032.50,3404.08740756,N,11931.54436881,W,2,10,1.0,7.024,M,-37.122,M,7.4,0135*60
$PYRTM,2024,123.083709401377,14.193356811516
$GNHDT,291.520,T*26
$PYRTM,2024,123.083715230637,14.193362640775
$GNGGA,020033.00,3404.08778496,N,11931.54571003,W,2,10,1.0,6.962,M,-37.122,M,7.0,0135*6E
$PYRTM,2024,123.083715230637,14.193362640775
$GNHDT,291.588,T*24
$PYRTM,2024,123.083720969572,14.193368379711
$GNGGA,020033.50,3404.08814533,N,11931.54699531,W,2,10,1.0,7.039,M,-37.122,M,7.4,0135*63
$PYRTM,2024,123.083720969572,14.193368379711
$GNHDT,291.655,T*27
$PYRTM,2024,123.083726808171,14.193374218310
$GNGGA,020034.00,3404.08851776,N,11931.54826901,W,2,10,1.0,7.163,M,-37.122,M,7.0,0135*6C
$PYRTM,2024,123.083726808171,14.193374218310
$GNHDT,291.601,T*26
$PYRTM,2024,123.083732546701,14.193379956840
$GNGGA,020034.50,3404.08893598,N,11931.54957937,W,2,10,1.0,7.196,M,-37.122,M,7.4,0135*69
$PYRTM,2024,123.083732546701,14.193379956840
$GNHDT,291.522,T*24
$PYRTM,2024,123.083738385012,14.193385795150
$GNGGA,020035.00,3404.08940571,N,11931.55095563,W,2,10,1.0,7.031,M,-37.122,M,4.0,0135*65
$PYRTM,2024,123.083738385012,14.193385795150
$GNHDT,291.702,T*24
$PYRTM,2024,123.083744121887,14.193391532025
$GNGGA,020035.50,3404.08990465,N,11931.55239772,W,2,10,1.0,6.666,M,-37.122,M,4.4,0135*6E
$PYRTM,2024,123.083744121887,14.193391532025
$GNHDT,291.292,T*28
$PYRTM,2024,123.083749952454,14.193397362593
$GNGGA,020036.00,3404.09040519,N,11931.55384372,W,2,10,1.0,6.266,M,-37.122,M,5.0,0135*65
$PYRTM,2024,123.083749952454,14.193397362593
$GNHDT,291.321,T*21
$PYRTM,2024,123.083755692512,14.193403102650
$GNGGA,020036.50,3404.09088178,N,11931.55525161,W,2,10,1.0,5.978,M,-37.122,M,5.4,0135*69
$PYRTM,2024,123.083755692512,14.193403102650
$GNHDT,291.532,T*25
$PYRTM,2024,123.083761528889,14.193408939028
$GNGGA,020037.00,3404.09130802,N,11931.55661550,W,2,10,1.0,5.999,M,-37.122,M,6.0,0135*66
$PYRTM,2024,123.083761528889,14.193408939028
$GNHDT,291.612,T*24
$PYRTM,2024,123.083767271262,14.193414681400
$GNGGA,020037.50,3404.09170904,N,11931.55793454,W,2,10,1.0,6.277,M,-37.122,M,6.4,0135*65
$PYRTM,2024,123.083767271262,14.193414681400
$GNHDT,291.696,T*28
$PYRTM,2024,123.083773101713,14.193420511852
$GNGGA,020038.00,3404.09209577,N,11931.55924804,W,2,10,1.0,6.692,M,-37.121,M,7.0,0135*68
$PYRTM,2024,123.083773101713,14.193420511852
$GNHDT,291.777,T*26
$PYRTM,2024,123.083778841389,14.193426251528
$GNGGA,020038.50,3404.09250102,N,11931.56058398,W,2,10,1.0,7.134,M,-37.121,M,7.4,0135*66
$PYRTM,2024,123.083778841389,14.193426251528
$GNHDT,291.631,T*25
$PYRTM,2024,123.083784675278,14.193432085417
$GNGGA,020039.00,3404.09293923,N,11931.56195315,W,2,10,1.0,7.421,M,-37.121,M,7.0,0135*66
$PYRTM,2024,123.083784675278,14.193432085417
$GNHDT,291.801,T*28
$PYRTM,2024,123.083790414560,14.193437824699
$GNGGA,020039.50,3404.09341022,N,11931.56335213,W,2,10,1.0,7.525,M,-37.121,M,7.4,0135*6B
$PYRTM,2024,123.083790414560,14.193437824699
$GNHDT,291.906,T*2E
$PYRTM,2024,123.083796253472,14.193443663611
$GNGGA,020040.00,3404.09389835,N,11931.56475195,W,2,10,1.0,7.426,M,-37.121,M,7.0,0135*62
$PYRTM,2024,123.083796253472,14.193443663611
$GNHDT,291.862,T*2D
$PYRTM,2024,123.083801989803,14.193449399942
$GNGGA,020040.50,3404.09437224,N,11931.56613334,W,2,10,1.0,7.236,M,-37.121,M,7.4,0135*67
$PYRTM,2024,123.083801989803,14.193449399942
$GNHDT,291.683,T*2C
$PYRTM,2024,123.083807823808,14.193455233947
$GNGGA,020041.00,3404.09481397,N,11931.56749378,W,2,10,1.0,7.053,M,-37.121,M,4.0,0135*67
$PYRTM,2024,123.083807823808,14.193455233947
$GNHDT,291.549,T*29
$PYRTM,2024,123.083813568264,14.193460978403
$GNGGA,020041.50,3404.09523137,N,11931.56882914,W,2,10,1.0,6.970,M,-37.121,M,4.4,0135*66
$PYRTM,2024,123.083813568264,14.193460978403
$GNHDT,291.512,T*27
$PYRTM,2024,123.083819397639,14.193466807778
$GNGGA,020042.00,3404.09563639,N,11931.57014885,W,2,10,1.0,6.983,M,-37.121,M,5.0,0135*6B
$PYRTM,2024,123.083819397639,14.193466807778
$GNHDT,291.512,T*27
$PYRTM,2024,123.083825137419,14.193472547558
$GNGGA,020042.50,3404.09605516,N,11931.57144781,W,2,10,1.0,7.041,M,-37.121,M,5.4,0135*6E
$PYRTM,2024,123.083825137419,14.193472547558
$GNHDT,291.722,T*26
$PYRTM,2024,123.083830977014,14.193478387153
$GNGGA,020043.00,3404.09649202,N,11931.57276820,W,2,10,1.0,7.032,M,-37.121,M,6.0,0135*65
$PYRTM,2024,123.083830977014,14.193478387153
$GNHDT,291.559,T*28
$PYRTM,2024,123.083836710926,14.193484121065
$GNGGA,020043.50,3404.09696183,N,11931.57414112,W,2,10,1.0,6.944,M,-37.121,M,6.4,0135*6F
$PYRTM,2024,123.083836710926,14.193484121065
$GNHDT,291.526,T*20
$PYRTM,2024,123.083842551227,14.193489961366
$GNGGA,020044.00,3404.09745663,N,11931.57554874,W,2,10,1.0,6.758,M,-37.121,M,7.0,0135*61
$PYRTM,2024,123.083842551227,14.193489961366
$GNHDT,291.599,T*24
$PYRTM,2024,123.083848289213,14.193495699352
$GNGGA,020044.50,3404.09794952,N,11931.57696298,W,2,10,1.0,6.563,M,-37.121,M,7.4,0135*6E
$PYRTM,2024,123.083848289213,14.193495699352
$GNHDT,291.650,T*22
$PYRTM,2024,123.083854120845,14.193501530984
$GNGGA,020045.00,3404.09842226,N,11931.57834789,W,2,10,1.0,6.476,M,-37.121,M,7.0,0135*64
$PYRTM,2024,123.083854120845,14.193501530984
$GNHDT,291.677,T*27
$PYRTM,2024,123.083859860856,14.193507270995
$GNGGA,020045.50,3404.09887205,N,11931.57970122,W,2,10,1.0,6.541,M,-37.121,M,7.4,0135*6E
$PYRTM,2024,123.083859860856,14.193507270995
$GNHDT,291.602,T*25
$PYRTM,2024,123.083865696053,14.193513106192
$GNGGA,020046.00,3404.09930595,N,11931.58104079,W,2,10,1.0,6.693,M,-37.121,M,7.0,0135*68
$PYRTM,2024,123.083865696053,14.193513106192
$GNHDT,291.742,T*20
$PYRTM,2024,123.083871434236,14.193518844375
$GNGGA,020046.50,3404.09973537,N,11931.58240761,W,2,10,1.0,6.835,M,-37.121,M,7.4,0135*69
$PYRTM,2024,123.083871434236,14.193518844375
$GNHDT,291.598,T*25
$PYRTM,2024,123.083877274965,14.193524685104
$GNGGA,020047.00,3404.10017068,N,11931.58381108,W,2,10,1.0,6.895,M,-37.121,M,4.0,0135*69
$PYRTM,2024,123.083877274965,14.193524685104
$GNHDT,291.682,T*2D
$PYRTM,2024,123.083883007488,14.193530417627
$GNGGA,020047.50,3404.10061349,N,11931.58523240,W,2,10,1.0,6.849,M,-37.121,M,4.4,0135*69
$PYRTM,2024,123.083883007488,14.193530417627
$GNHDT,291.390,T*2B
$PYRTM,2024,123.083888845278,14.193536255417
$GNGGA,020048.00,3404.10105718,N,11931.58664392,W,2,10,1.0,6.769,M,-37.121,M,5.0,0135*66
$PYRTM,2024,123.083888845278,14.193536255417
$GNHDT,291.482,T*2F
$PYRTM,2024,123.083894586169,14.193541996308
$GNGGA,020048.50,3404.10149580,N,11931.58803207,W,2,10,1.0,6.705,M,-37.121,M,5.4,0135*64
$PYRTM,2024,123.083894586169,14.193541996308
$GNHDT,291.436,T*20
$PYRTM,2024,123.083900416505,14.193547826644
$GNGGA,020049.00,3404.10193223,N,11931.58939384,W,2,10,1.0,6.718,M,-37.121,M,6.0,0135*60
$PYRTM,2024,123.083900416505,14.193547826644
$GNHDT,291.368,T*2C
$PYRTM,2024,123.083906158785,14.193553568935
$GNGGA,020049.50,3404.10236961,N,11931.59073380,W,2,10,1.0,6.817,M,-37.121,M,6.4,0135*62
$PYRTM,2024,123.083906158785,14.193553568935
$GNHDT,291.304,T*26
$PYRTM,2024,123.083911991528,14.193559401667
$GNGGA,020050.00,3404.10280915,N,11931.59206502,W,2,10,1.0,6.974,M,-37.121,M,7.0,0135*6C
$PYRTM,2024,123.083911991528,14.193559401667
$GNHDT,291.315,T*26
$PYRTM,2024,123.083917729491,14.193565139630
$GNGGA,020050.50,3404.10324637,N,11931.59341289,W,2,10,1.0,7.123,M,-37.121,M,7.4,0135*60
$PYRTM,2024,123.083917729491,14.193565139630
$GNHDT,291.074,T*22
$PYRTM,2024,123.083923565602,14.193570975741
$GNGGA,020051.00,3404.10368285,N,11931.59478073,W,2,10,1.0,7.212,M,-37.121,M,7.0,0135*6E
$PYRTM,2024,123.083923565602,14.193570975741
$GNHDT,291.036,T*24
$PYRTM,2024,123.083929308484,14.193576718623
$GNGGA,020051.50,3404.10412474,N,11931.59615936,W,2,10,1.0,7.204,M,-37.121,M,7.4,0135*6B
$PYRTM,2024,123.083929308484,14.193576718623
$GNHDT,291.005,T*24
$PYRTM,2024,123.083935138218,14.193582548356
$GNGGA,020052.00,3404.10457534,N,11931.59754044,W,2,10,1.0,7.126,M,-37.121,M,7.0,0135*66
$PYRTM,2024,123.083935138218,14.193582548356
$GNHDT,290.998,T*28
$PYRTM,2024,123.083940877697,14.193588287836
$GNGGA,020052.50,3404.10502944,N,11931.59893818,W,2,10,1.0,6.966,M,-37.121,M,7.4,0135*65
$PYRTM,2024,123.083940877697,14.193588287836
$GNHDT,290.992,T*22
$PYRTM,2024,123.083946713310,14.193594123461
$GNGGA,020053.00,3404.10548399,N,11931.60035262,W,2,10,1.0,6.780,M,-37.121,M,4.0,0135*6D
$PYRTM,2024,123.083946713310,14.193594123461
$GNHDT,291.012,T*22
$PYRTM,2024,123.083952456690,14.193599866829
$GNGGA,020053.50,3404.10592839,N,11931.60176444,W,2,10,1.0,6.643,M,-37.121,M,4.4,0135*60
$PYRTM,2024,123.083952456690,14.193599866829
$GNHDT,290.921,T*2A
$PYRTM,2024,123.083958292905,14.193605703044
$GNGGA,020054.00,3404.10636204,N,11931.60315984,W,2,10,1.0,6.611,M,-37.121,M,5.0,0135*6F
$PYRTM,2024,123.083958292905,14.193605703044
$GNHDT,290.842,T*2E
$PYRTM,2024,123.083964029028,14.193611439167
$GNGGA,020054.50,3404.10679039,N,11931.60454421,W,2,10,1.0,6.677,M,-37.121,M,5.4,0135*69
$PYRTM,2024,123.083964029028,14.193611439167
$GNHDT,290.825,T*2F
$PYRTM,2024,123.083969868125,14.193617278264
$GNGGA,020055.00,3404.10723132,N,11931.60592232,W,2,10,1.0,6.760,M,-37.120,M,6.0,0135*67
$PYRTM,2024,123.083969868125,14.193617278264
$GNHDT,290.664,T*24
$PYRTM,2024,123.083975603843,14.193623013981
$GNGGA,020055.50,3404.10768430,N,11931.60732826,W,2,10,1.0,6.813,M,-37.120,M,6.4,0135*62
$PYRTM,2024,123.083975603843,14.193623013981
$GNHDT,291.056,T*22
$PYRTM,2024,123.083981436447,14.193628846586
$GNGGA,020056.00,3404.10815092,N,11931.60872873,W,2,10,1.0,6.863,M,-37.120,M,7.0,0135*64
$PYRTM,2024,123.083981436447,14.193628846586
$GNHDT,291.002,T*23
$PYRTM,2024,123.083987179479,14.193634589618
$GNGGA,020056.50,3404.10861790,N,11931.61012378,W,2,10,1.0,6.919,M,-37.120,M,7.4,0135*60
$PYRTM,2024,123.083987179479,14.193634589618
$GNHDT,291.034,T*26
$PYRTM,2024,123.083993010671,14.193640420810
$GNGGA,020057.00,3404.10907875,N,11931.61149994,W,2,10,1.0,6.988,M,-37.120,M,7.0,0135*6A
$PYRTM,2024,123.083993010671,14.193640420810
$GNHDT,291.035,T*27
$PYRTM,2024,123.083998751458,14.193646161597
$GNGGA,020057.50,3404.10952896,N,11931.61287048,W,2,10,1.0,7.077,M,-37.120,M,7.4,0135*67
$PYRTM,2024,123.083998751458,14.193646161597
$GNHDT,291.247,T*20
$PYRTM,2024,123.084004585174,14.193651995313
$GNGGA,020058.00,3404.10996346,N,11931.61424050,W,2,10,1.0,7.170,M,-37.120,M,7.0,0135*67
$PYRTM,2024,123.084004585174,14.193651995313
$GNHDT,291.291,T*2B
$PYRTM,2024,123.084010325741,14.193657735880
$GNGGA,020058.50,3404.11038400,N,11931.61562753,W,2,10,1.0,7.241,M,-37.120,M,7.4,0135*69
$PYRTM,2024,123.084010325741,14.193657735880
$GNHDT,291.312,T*21
$PYRTM,2024,123.084016161875,14.193663572014
$GNGGA,020059.00,3404.11080240,N,11931.61702144,W,2,10,1.0,7.270,M,-37.120,M,4.0,0135*6D
$PYRTM,2024,123.084016161875,14.193663572014
$GNHDT,291.258,T*2E
$PYRTM,2024,123.084021897894,14.193669308032
$GNGGA,020059.50,3404.11122703,N,11931.61841248,W,2,10,1.0,7.250,M,-37.120,M,4.4,0135*62
$PYRTM,2024,123.084021897894,14.193669308032
$GNHDT,291.353,T*24
$PYRTM,2024,123.084027736539,14.193675146678
$GNGGA,020100.00,3404.11166415,N,11931.61979400,W,2,10,1.0,7.190,M,-37.120,M,5.0,0135*64
$PYRTM,2024,123.084027736539,14.193675146678
$GNHDT,291.671,T*21
$PYRTM,2024,123.084033472037,14.193680882176
$GNGGA,020100.50,3404.11211526,N,11931.62117197,W,2,10,1.0,7.092,M,-37.120,M,5.4,0135*6C
$PYRTM,2024,123.084033472037,14.193680882176
$GNHDT,291.358,T*2F
$PYRTM,2024,123.084039310208,14.193686720347
$GNGGA,020101.00,3404.11258195,N,11931.62254650,W,2,10,1.0,6.972,M,-37.120,M,6.0,0135*60
$PYRTM,2024,123.084039310208,14.193686720347
$GNHDT,291.518,T*2D
$PYRTM,2024,123.084045047431,14.193692457569
$GNGGA,020101.50,3404.11305822,N,11931.62392310,W,2,10,1.0,6.846,M,-37.120,M,6.4,0135*61
$PYRTM,2024,123.084045047431,14.193692457569
$GNHDT,291.845,T*28
$PYRTM,2024,123.084050880972,14.193698291111
$GNGGA,020102.00,3404.11353720,N,11931.62529952,W,2,10,1.0,6.715,M,-37.120,M,7.0,0135*6F
$PYRTM,2024,123.084050880972,14.193698291111
$GNHDT,291.968,T*26
$PYRTM,2024,123.084056620069,14.193704030208
$GNGGA,020102.50,3404.11401512,N,11931.62667671,W,2,10,1.0,6.596,M,-37.120,M,7.4,0135*63
$PYRTM,2024,123.084056620069,14.193704030208
$GNHDT,292.028,T*28
$PYRTM,2024,123.084062456146,14.193709866285
$GNGGA,020103.00,3404.11448934,N,11931.62807799,W,2,10,1.0,6.499,M,-37.120,M,7.0,0135*67
$PYRTM,2024,123.084062456146,14.193709866285
$GNHDT,292.100,T*23
$PYRTM,2024,123.084068193519,14.193715603657
$GNGGA,020103.50,3404.11496350,N,11931.62949989,W,2,10,1.0,6.432,M,-37.120,M,7.4,0135*68
$PYRTM,2024,123.084068193519,14.193715603657
$GNHDT,292.382,T*2B
$PYRTM,2024,123.084074031725,14.193721441863
$GNGGA,020104.00,3404.11543109,N,11931.63095076,W,2,10,1.0,6.399,M,-37.120,M,7.0,0135*6F
$PYRTM,2024,123.084074031725,14.193721441863
$GNHDT,292.369,T*2E
$PYRTM,2024,123.084079772153,14.193727182292
$GNGGA,020104.50,3404.11589643,N,11931.63240208,W,2,10,1.0,6.445,M,-37.120,M,7.4,0135*66
$PYRTM,2024,123.084079772153,14.193727182292
$GNHDT,292.547,T*24
$PYRTM,2024,123.084085603125,14.193733013275
$GNGGA,020105.00,3404.11634477,N,11931.63385353,W,2,10,1.0,6.613,M,-37.120,M,4.0,0135*63
$PYRTM,2024,123.084085603125,14.193733013275
$GNHDT,292.524,T*21
$PYRTM,2024,123.084091345544,14.193738755694
$GNGGA,020105.50,3404.11679067,N,11931.63523532,W,2,10,1.0,6.892,M,-37.120,M,4.4,0135*62
$PYRTM,2024,123.084091345544,14.193738755694
$GNHDT,292.446,T*24
$PYRTM,2024,123.084097179109,14.193744589248
$GNGGA,020106.00,3404.11723078,N,11931.63658636,W,2,10,1.0,7.228,M,-37.120,M,5.0,0135*63
$PYRTM,2024,123.084097179109,14.193744589248
$GNHDT,292.357,T*23
$PYRTM,2024,123.084102916366,14.193750326505
$GNGGA,020106.50,3404.11768447,N,11931.63792291,W,2,10,1.0,7.511,M,-37.120,M,5.4,0135*66
$PYRTM,2024,123.084102916366,14.193750326505
$GNHDT,292.531,T*25
$PYRTM,2024,123.084108753137,14.193756163275
$GNGGA,020107.00,3404.11814783,N,11931.63928739,W,2,10,1.0,7.671,M,-37.120,M,6.0,0135*67
$PYRTM,2024,123.084108753137,14.193756163275
$GNHDT,292.603,T*27
$PYRTM,2024,123.084114492882,14.193761903021
$GNGGA,020107.50,3404.11862340,N,11931.64066999,W,2,10,1.0,7.654,M,-37.120,M,6.4,0135*6B
$PYRTM,2024,123.084114492882,14.193761903021
$GNHDT,292.532,T*26
$PYRTM,2024,123.084120334583,14.193767744734
$GNGGA,020108.00,3404.11909354,N,11931.64205707,W,2,10,1.0,7.489,M,-37.120,M,7.0,0135*61
$PYRTM,2024,123.084120334583,14.193767744734
$GNHDT,292.547,T*24
$PYRTM,2024,123.084126066215,14.193773476354
$GNGGA,020108.50,3404.11955604,N,11931.64343771,W,2,10,1.0,7.229,M,-37.120,M,7.4,0135*67
$PYRTM,2024,123.084126066215,14.193773476354
$GNHDT,292.524,T*21
$PYRTM,2024,123.084131900880,14.193779311019
$GNGGA,020109.00,3404.12001683,N,11931.64482595,W,2,10,1.0,6.911,M,-37.120,M,7.0,0135*60
$PYRTM,2024,123.084131900880,14.193779311019
$GNHDT,292.566,T*27
$PYRTM,2024,123.084137643519,14.193785053657
$GNGGA,020109.50,3404.12048359,N,11931.64623303,W,2,10,1.0,6.599,M,-37.120,M,7.4,0135*62
$PYRTM,2024,123.084137643519,14.193785053657
$GNHDT,292.381,T*28
$PYRTM,2024,123.084143478796,14.193790888947
$GNGGA,020110.00,3404.12094996,N,11931.64766022,W,2,10,1.0,6.341,M,-37.120,M,7.0,0135*60
$PYRTM,2024,123.084143478796,14.193790888947
$GNHDT,292.425,T*21
$PYRTM,2024,123.084149213437,14.193796623576
$GNGGA,020110.50,3404.12140853,N,11931.64907923,W,2,10,1.0,6.227,M,-37.120,M,7.4,0135*61
$PYRTM,2024,123.084149213437,14.193796623576
$GNHDT,292.343,T*26
$PYRTM,2024,123.084155049190,14.193802459329
$GNGGA,020111.00,3404.12185422,N,11931.65046944,W,2,10,1.0,6.325,M,-37.120,M,4.0,0135*6E
$PYRTM,2024,123.084155049190,14.193802459329
$GNHDT,292.330,T*22
$PYRTM,2024,123.084160793368,14.193808203519
$GNGGA,020111.50,3404.12229569,N,11931.65183991,W,2,10,1.0,6.557,M,-37.120,M,4.4,0135*67
$PYRTM,2024,123.084160793368,14.193808203519
$GNHDT,292.100,T*23
$PYRTM,2024,123.084166622141,14.193814032280
$GNGGA,020112.00,3404.12275533,N,11931.65321019,W,2,10,1.0,6.842,M,-37.119,M,5.0,0135*62
$PYRTM,2024,123.084166622141,14.193814032280
$GNHDT,292.074,T*21
$PYRTM,2024,123.084172361215,14.193819771354
$GNGGA,020112.50,3404.12325074,N,11931.65461348,W,2,10,1.0,7.055,M,-37.119,M,5.4,0135*6A
$PYRTM,2024,123.084172361215,14.193819771354
$GNHDT,292.272,T*25
$PYRTM,2024,123.084178200741,14.193825610880
$GNGGA,020113.00,3404.12377635,N,11931.65605295,W,2,10,1.0,7.138,M,-37.119,M,6.0,0135*66
$PYRTM,2024,123.084178200741,14.193825610880
$GNHDT,292.050,T*27
$PYRTM,2024,123.084183934734,14.193831344873
$GNGGA,020113.50,3404.12430549,N,11931.65749918,W,2,10,1.0,7.129,M,-37.119,M,6.4,0135*6C
$PYRTM,2024,123.084183934734,14.193831344873
$GNHDT,292.164,T*21
$PYRTM,2024,123.084189771736,14.193837181875
$GNGGA,020114.00,3404.12480952,N,11931.65890553,W,2,10,1.0,7.129,M,-37.119,M,7.0,0135*6E
$PYRTM,2024,123.084189771736,14.193837181875
$GNHDT,292.098,T*23
$PYRTM,2024,123.084195512674,14.193842922813
$GNGGA,020114.50,3404.12526856,N,11931.66025471,W,2,10,1.0,7.237,M,-37.119,M,7.4,0135*6F
$PYRTM,2024,123.084195512674,14.193842922813
$GNHDT,291.877,T*29
$PYRTM,2024,123.084201344005,14.193848754144
$GNGGA,020115.00,3404.12569395,N,11931.66156076,W,2,10,1.0,7.442,M,-37.119,M,7.0,0135*62
$PYRTM,2024,123.084201344005,14.193848754144
$GNHDT,291.875,T*2B
$PYRTM,2024,123.084207088160,14.193854498299
$GNGGA,020115.50,3404.12610418,N,11931.66287390,W,2,10,1.0,7.641,M,-37.119,M,7.4,0135*69
$PYRTM,2024,123.084207088160,14.193854498299
$GNHDT,291.764,T*24
$PYRTM,2024,123.084212917755,14.193860327894
$GNGGA,020116.00,3404.12652958,N,11931.66421506,W,2,10,1.0,7.743,M,-37.119,M,7.0,0135*64
$PYRTM,2024,123.084212917755,14.193860327894
$GNHDT,291.998,T*29
$PYRTM,2024,123.084218661863,14.193866072014
$GNGGA,020116.50,3404.12698386,N,11931.66561865,W,2,10,1.0,7.643,M,-37.119,M,7.4,0135*66
$PYRTM,2024,123.084218661863,14.193866072014
$GNHDT,291.685,T*2A
$PYRTM,2024,123.084224494664,14.193871904803
$GNGGA,020117.00,3404.12745466,N,11931.66705892,W,2,10,1.0,7.348,M,-37.119,M,4.0,0135*6B
$PYRTM,2024,123.084224494664,14.193871904803
$GNHDT,291.543,T*23
$PYRTM,2024,123.084230231898,14.193877642037
$GNGGA,020117.50,3404.12793734,N,11931.66846330,W,2,10,1.0,6.980,M,-37.119,M,4.4,0135*61
$PYRTM,2024,123.084230231898,14.193877642037
$GNHDT,291.096,T*2E
$PYRTM,2024,123.084236067870,14.193883478009
$GNGGA,020118.00,3404.12841483,N,11931.66985193,W,2,10,1.0,6.633,M,-37.119,M,5.0,0135*63
$PYRTM,2024,123.084236067870,14.193883478009
$GNHDT,291.149,T*2D
$PYRTM,2024,123.084241805324,14.193889215463
$GNGGA,020118.50,3404.12888032,N,11931.67124403,W,2,10,1.0,6.422,M,-37.119,M,5.4,0135*65
$PYRTM,2024,123.084241805324,14.193889215463
$GNHDT,291.114,T*25
$PYRTM,2024,123.084247640417,14.193895050556
$GNGGA,020119.00,3404.12934777,N,11931.67262771,W,2,10,1.0,6.287,M,-37.119,M,6.0,0135*68
$PYRTM,2024,123.084247640417,14.193895050556
$GNHDT,291.134,T*27
$PYRTM,2024,123.084253381782,14.193900791921
$GNGGA,020119.50,3404.12981987,N,11931.67403911,W,2,10,1.0,6.249,M,-37.119,M,6.4,0135*6D
$PYRTM,2024,123.084253381782,14.193900791921
$GNHDT,291.243,T*24
$PYRTM,2024,123.084259218785,14.193906628935
$GNGGA,020120.00,3404.13029724,N,11931.67547560,W,2,10,1.0,6.243,M,-37.119,M,7.0,0135*6B
$PYRTM,2024,123.084259218785,14.193906628935
$GNHDT,291.241,T*26
$PYRTM,2024,123.084264959954,14.193912370093
$GNGGA,020120.50,3404.13076928,N,11931.67693460,W,2,10,1.0,6.282,M,-37.119,M,7.4,0135*64
$PYRTM,2024,123.084264959954,14.193912370093
$GNHDT,290.988,T*29
$PYRTM,2024,123.084270793484,14.193918203623
$GNGGA,020121.00,3404.13122535,N,11931.67837901,W,2,10,1.0,6.394,M,-37.119,M,7.0,0135*68
$PYRTM,2024,123.084270793484,14.193918203623
$GNHDT,291.096,T*2E
$PYRTM,2024,123.084276533438,14.193923943576
$GNGGA,020121.50,3404.13166193,N,11931.67978113,W,2,10,1.0,6.631,M,-37.119,M,7.4,0135*6A
$PYRTM,2024,123.084276533438,14.193923943576
$GNHDT,291.245,T*22
$PYRTM,2024,123.084282366319,14.193929776470
$GNGGA,020122.00,3404.13208722,N,11931.68112531,W,2,10,1.0,6.961,M,-37.119,M,7.0,0135*6A
$PYRTM,2024,123.084282366319,14.193929776470
$GNHDT,291.244,T*23
$PYRTM,2024,123.084288102940,14.193935513079
$GNGGA,020122.50,3404.13251996,N,11931.68244696,W,2,10,1.0,7.340,M,-37.119,M,7.4,0135*60
$PYRTM,2024,123.084288102940,14.193935513079
$GNHDT,291.324,T*24
$PYRTM,2024,123.084293938252,14.193941348391
$GNGGA,020123.00,3404.13297433,N,11931.68378562,W,2,10,1.0,7.587,M,-37.119,M,4.0,0135*60
$PYRTM,2024,123.084293938252,14.193941348391
$GNHDT,291.346,T*20
$PYRTM,2024,123.084299681782,14.193947091921
$GNGGA,020123.50,3404.13345432,N,11931.68517534,W,2,10,1.0,7.594,M,-37.119,M,4.4,0135*60
$PYRTM,2024,123.084299681782,14.193947091921
$GNHDT,291.193,T*2A
$PYRTM,2024,123.084305515000,14.193952925139
$GNGGA,020124.00,3404.13394418,N,11931.68659452,W,2,10,1.0,7.308,M,-37.119,M,5.0,0135*68
$PYRTM,2024,123.084305515000,14.193952925139
$GNHDT,291.183,T*2B
$PYRTM,2024,123.084311254722,14.193958664861
$GNGGA,020124.50,3404.13441245,N,11931.68802401,W,2,10,1.0,6.957,M,-37.119,M,5.4,0135*6F
$PYRTM,2024,123.084311254722,14.193958664861
$GNHDT,291.071,T*27
$PYRTM,2024,123.084317091586,14.193964501725
$GNGGA,020125.00,3404.13484757,N,11931.68943171,W,2,10,1.0,6.596,M,-37.119,M,6.0,0135*64
$PYRTM,2024,123.084317091586,14.193964501725
$GNHDT,290.939,T*23
$PYRTM,2024,123.084322825197,14.193970235336
$GNGGA,020125.50,3404.13525823,N,11931.69078877,W,2,10,1.0,6.347,M,-37.119,M,6.4,0135*66
$PYRTM,2024,123.084322825197,14.193970235336
$GNHDT,291.141,T*25
$PYRTM,2024,123.084328661204,14.193976071343
$GNGGA,020126.00,3404.13565291,N,11931.69212052,W,2,10,1.0,6.265,M,-37.119,M,7.0,0135*62
$PYRTM,2024,123.084328661204,14.193976071343
$GNHDT,291.132,T*21
$PYRTM,2024,123.084334400428,14.193981810567
$GNGGA,020126.50,3404.13606217,N,11931.69344765,W,2,10,1.0,6.349,M,-37.119,M,7.4,0135*65
$PYRTM,2024,123.084334400428,14.193981810567
$GNHDT,291.376,T*23
$PYRTM,2024,123.084340234259,14.193987644398
$GNGGA,020127.00,3404.13649830,N,11931.69479295,W,2,10,1.0,6.415,M,-37.118,M,7.0,0135*6D
$PYRTM,2024,123.084340234259,14.193987644398
$GNHDT,291.439,T*2F
$PYRTM,2024,123.084345975961,14.193993386100
$GNGGA,020127.50,3404.13696762,N,11931.69618264,W,2,10,1.0,6.426,M,-37.118,M,7.4,0135*6D
$PYRTM,2024,123.084345975961,14.193993386100
$GNHDT,291.408,T*2D
$PYRTM,2024,123.084351810544,14.193999220694
$GNGGA,020128.00,3404.13745727,N,11931.69762252,W,2,10,1.0,6.322,M,-37.118,M,7.0,0135*67
$PYRTM,2024,123.084351810544,14.193999220694
$GNHDT,291.469,T*2A
$PYRTM,2024,123.084357549086,14.194004959225
$GNGGA,020128.50,3404.13794976,N,11931.69908271,W,2,10,1.0,6.142,M,-37.118,M,7.4,0135*67
$PYRTM,2024,123.084357549086,14.194004959225
$GNHDT,291.561,T*23
$PYRTM,2024,123.084363388252,14.194010798403
$GNGGA,020129.00,3404.13842026,N,11931.70052609,W,2,10,1.0,6.006,M,-37.118,M,4.0,0135*68
$PYRTM,2024,123.084363388252,14.194010798403
$GNHDT,291.592,T*2F
$PYRTM,2024,123.084369127060,14.194016537199
$GNGGA,020129.50,3404.13886587,N,11931.70193643,W,2,10,1.0,6.011,M,-37.118,M,4.4,0135*6B
$PYRTM,2024,123.084369127060,14.194016537199
$GNHDT,291.521,T*27
$PYRTM,2024,123.084374958160,14.194022368299
$GNGGA,020130.00,3404.13928620,N,11931.70331855,W,2,10,1.0,6.178,M,-37.118,M,5.0,0135*65
$PYRTM,2024,123.084374958160,14.194022368299
$GNHDT,291.523,T*25
$PYRTM,2024,123.084380703113,14.194028113252
$GNGGA,020130.50,3404.13969506,N,11931.70468782,W,2,10,1.0,6.464,M,-37.118,M,5.4,0135*60
$PYRTM,2024,123.084380703113,14.194028113252
$GNHDT,291.509,T*2D
$PYRTM,2024,123.084386535660,14.194033945799
$GNGGA,020131.00,3404.14011153,N,11931.70606107,W,2,10,1.0,6.747,M,-37.118,M,6.0,0135*65
$PYRTM,2024,123.084386535660,14.194033945799
$GNHDT,291.483,T*2E
$PYRTM,2024,123.084392277257,14.194039687396
$GNGGA,020131.50,3404.14055238,N,11931.70745194,W,2,10,1.0,6.940,M,-37.118,M,6.4,0135*6F
$PYRTM,2024,123.084392277257,14.194039687396
$GNHDT,291.247,T*20
$PYRTM,2024,123.084398104572,14.194045514722
$GNGGA,020132.00,3404.14101842,N,11931.70885788,W,2,10,1.0,6.970,M,-37.118,M,7.0,0135*60
$PYRTM,2024,123.084398104572,14.194045514722
$GNHDT,291.294,T*2E
$PYRTM,2024,123.084403849039,14.194051259190
$GNGGA,020132.50,3404.14150119,N,11931.71026593,W,2,10,1.0,6.886,M,-37.118,M,7.4,0135*62
$PYRTM,2024,123.084403849039,14.194051259190
$GNHDT,291.310,T*23
$PYRTM,2024,123.084409683519,14.194057093669
$GNGGA,020133.00,3404.14198233,N,11931.71167071,W,2,10,1.0,6.712,M,-37.118,M,7.0,0135*62
$PYRTM,2024,123.084409683519,14.194057093669
$GNHDT,291.338,T*29
$PYRTM,2024,123.084415420220,14.194062830359
$GNGGA,020133.50,3404.14245341,N,11931.71307250,W,2,10,1.0,6.528,M,-37.118,M,7.4,0135*6A
$PYRTM,2024,123.084415420220,14.194062830359
$GNHDT,291.377,T*22
$PYRTM,2024,123.084421258067,14.194068668206
$GNGGA,020134.00,3404.14290788,N,11931.71448194,W,2,10,1.0,6.401,M,-37.118,M,7.0,0135*68
$PYRTM,2024,123.084421258067,14.194068668206
$GNHDT,291.422,T*25
$PYRTM,2024,123.084426994896,14.194074405035
$GNGGA,020134.50,3404.14335747,N,11931.71587263,W,2,10,1.0,6.338,M,-37.118,M,7.4,0135*60
$PYRTM,2024,123.084426994896,14.194074405035
$GNHDT,291.432,T*24
$PYRTM,2024,123.084432831169,14.194080241308
$GNGGA,020135.00,3404.14380190,N,11931.71726444,W,2,10,1.0,6.329,M,-37.118,M,4.0,0135*6B
$PYRTM,2024,123.084432831169,14.194080241308
$GNHDT,291.524,T*22
$PYRTM,2024,123.084438575914,14.194085986053
$GNGGA,020135.50,3404.14424915,N,11931.71865395,W,2,10,1.0,6.373,M,-37.118,M,4.4,0135*6A
$PYRTM,2024,123.084438575914,14.194085986053
$GNHDT,291.525,T*23
$PYRTM,2024,123.084444408472,14.194091818611
$GNGGA,020136.00,3404.14470476,N,11931.72005188,W,2,10,1.0,6.416,M,-37.118,M,5.0,0135*67
$PYRTM,2024,123.084444408472,14.194091818611
$GNHDT,291.392,T*29
$PYRTM,2024,123.084450146123,14.194097556273
$GNGGA,020136.50,3404.14517014,N,11931.72145452,W,2,10,1.0,6.433,M,-37.118,M,5.4,0135*66
$PYRTM,2024,123.084450146123,14.194097556273
$GNHDT,291.503,T*27
$PYRTM,2024,123.084455977477,14.194103387616
$GNGGA,020137.00,3404.14564517,N,11931.72285920,W,2,10,1.0,6.426,M,-37.118,M,6.0,0135*64
$PYRTM,2024,123.084455977477,14.194103387616
$GNHDT,291.518,T*2D
$PYRTM,2024,123.084461717373,14.194109127512
$GNGGA,020137.50,3404.14612104,N,11931.72426414,W,2,10,1.0,6.409,M,-37.118,M,6.4,0135*69
$PYRTM,2024,123.084461717373,14.194109127512
$GNHDT,291.735,T*20
$PYRTM,2024,123.084467549664,14.194114959803
$GNGGA,020138.00,3404.14659479,N,11931.72566692,W,2,10,1.0,6.382,M,-37.118,M,7.0,0135*6B
$PYRTM,2024,123.084467549664,14.194114959803
$GNHDT,291.955,T*28
$PYRTM,2024,123.084473291146,14.194120701285
$GNGGA,020138.50,3404.14706273,N,11931.72706888,W,2,10,1.0,6.352,M,-37.118,M,7.4,0135*61
$PYRTM,2024,123.084473291146,14.194120701285
$GNHDT,292.010,T*23
$PYRTM,2024,123.084479124884,14.194126535035
$GNGGA,020139.00,3404.14751646,N,11931.72847407,W,2,10,1.0,6.354,M,-37.118,M,7.0,0135*66
$PYRTM,2024,123.084479124884,14.194126535035
$GNHDT,292.084,T*2E
$PYRTM,2024,123.084484864722,14.194132274861
$GNGGA,020139.50,3404.14795131,N,11931.72987286,W,2,10,1.0,6.375,M,-37.118,M,7.4,0135*69
$PYRTM,2024,123.084484864722,14.194132274861
$GNHDT,292.037,T*26
$PYRTM,2024,123.084490705174,14.194138115312
$GNGGA,020140.00,3404.14836984,N,11931.73125929,W,2,10,1.0,6.455,M,-37.118,M,7.0,0135*6C
$PYRTM,2024,123.084490705174,14.194138115312
$GNHDT,291.902,T*2A
$PYRTM,2024,123.084496441597,14.194143851736
$GNGGA,020140.50,3404.14878761,N,11931.73264060,W,2,10,1.0,6.542,M,-37.118,M,7.4,0135*67
$PYRTM,2024,123.084496441597,14.194143851736
$GNHDT,292.150,T*26
$PYRTM,2024,123.084502276065,14.194149686204
$GNGGA,020141.00,3404.14921593,N,11931.73404029,W,2,10,1.0,6.579,M,-37.118,M,4.0,0135*63
$PYRTM,2024,123.084502276065,14.194149686204
$GNHDT,292.037,T*26
$PYRTM,2024,123.084508017396,14.194155427535
$GNGGA,020141.50,3404.14967473,N,11931.73546559,W,2,10,1.0,6.516,M,-37.118,M,4.4,0135*63
$PYRTM,2024,123.084508017396,14.194155427535
$GNHDT,292.115,T*27
$PYRTM,2024,123.084513857442,14.194161267581
$GNGGA,020142.00,3404.15015343,N,11931.73691711,W,2,10,1.0,6.359,M,-37.118,M,5.0,0135*63
$PYRTM,2024,123.084513857442,14.194161267581
$GNHDT,292.070,T*25
$PYRTM,2024,123.084519586632,14.194166996782
$GNGGA,020142.50,3404.15063427,N,11931.73836012,W,2,10,1.0,6.192,M,-37.118,M,5.4,0135*64
$PYRTM,2024,123.084519586632,14.194166996782
$GNHDT,291.889,T*28
$PYRTM,2024,123.084525422905,14.194172833044
$GNGGA,020143.00,3404.15109765,N,11931.73978180,W,2,10,1.0,6.110,M,-37.118,M,6.0,0135*64
$PYRTM,2024,123.084525422905,14.194172833044
$GNHDT,291.850,T*2C
$PYRTM,2024,123.084531159144,14.194178569282
$GNGGA,020143.50,3404.15154707,N,11931.74117182,W,2,10,1.0,6.166,M,-37.117,M,6.4,0135*63
$PYRTM,2024,123.084531159144,14.194178569282
$GNHDT,291.980,T*20
$PYRTM,2024,123.084537002130,14.194184412280
$GNGGA,020144.00,3404.15198241,N,11931.74255878,W,2,10,1.0,6.330,M,-37.117,M,7.0,0135*6B
$PYRTM,2024,123.084537002130,14.194184412280
$GNHDT,291.993,T*22
$PYRTM,2024,123.084542734213,14.194190144352
$GNGGA,020144.50,3404.15241971,N,11931.74395196,W,2,10,1.0,6.510,M,-37.117,M,7.4,0135*65
$PYRTM,2024,123.084542734213,14.194190144352
$GNHDT,291.939,T*22
$PYRTM,2024,123.084548573924,14.194195984062
$GNGGA,020145.00,3404.15286811,N,11931.74535751,W,2,10,1.0,6.629,M,-37.117,M,7.0,0135*61
$PYRTM,2024,123.084548573924,14.194195984062
$GNHDT,292.095,T*2E
$PYRTM,2024,123.084554309086,14.194201719225
$GNGGA,020145.50,3404.15333764,N,11931.74677811,W,2,10,1.0,6.668,M,-37.117,M,7.4,0135*69
$PYRTM,2024,123.084554309086,14.194201719225
$GNHDT,292.017,T*24
$PYRTM,2024,123.084560146829,14.194207556968
$GNGGA,020146.00,3404.15382561,N,11931.74820457,W,2,10,1.0,6.599,M,-37.117,M,7.0,0135*69
$PYRTM,2024,123.084560146829,14.194207556968
$GNHDT,292.193,T*29
$PYRTM,2024,123.084565882616,14.194213292755
$GNGGA,020146.50,3404.15431780,N,11931.74962464,W,2,10,1.0,6.488,M,-37.117,M,7.4,0135*6C
$PYRTM,2024,123.084565882616,14.194213292755
$GNHDT,291.933,T*28
$PYRTM,2024,123.084571721481,14.194219131620
$GNGGA,020147.00,3404.15479711,N,11931.75101849,W,2,10,1.0,6.412,M,-37.117,M,4.0,0135*67
$PYRTM,2024,123.084571721481,14.194219131620
$GNHDT,291.848,T*25
$PYRTM,2024,123.084577456690,14.194224866829
$GNGGA,020147.50,3404.15525737,N,11931.75238724,W,2,10,1.0,6.418,M,-37.117,M,4.4,0135*6D
$PYRTM,2024,123.084577456690,14.194224866829
$GNHDT,291.974,T*2B
$PYRTM,2024,123.084583291898,14.194230702037
$GNGGA,020148.00,3404.15570358,N,11931.75373960,W,2,10,1.0,6.506,M,-37.117,M,5.0,0135*61
$PYRTM,2024,123.084583291898,14.194230702037
$GNHDT,291.940,T*2C
$PYRTM,2024,123.084589032685,14.194236442824
$GNGGA,020148.50,3404.15614759,N,11931.75510705,W,2,10,1.0,6.610,M,-37.117,M,5.4,0135*6E
$PYRTM,2024,123.084589032685,14.194236442824
$GNHDT,291.831,T*2B
$PYRTM,2024,123.084594866528,14.194242276678
$GNGGA,020149.00,3404.15659874,N,11931.75650033,W,2,10,1.0,6.647,M,-37.117,M,6.0,0135*63
$PYRTM,2024,123.084594866528,14.194242276678
$GNHDT,291.809,T*20
$PYRTM,2024,123.084600607569,14.194248017708
$GNGGA,020149.50,3404.15706155,N,11931.75791845,W,2,10,1.0,6.597,M,-37.117,M,6.4,0135*68
$PYRTM,2024,123.084600607569,14.194248017708
$GNHDT,291.788,T*26
$PYRTM,2024,123.084606445590,14.194253855741
$GNGGA,020150.00,3404.15753076,N,11931.75935237,W,2,10,1.0,6.472,M,-37.117,M,7.0,0135*65
$PYRTM,2024,123.084606445590,14.194253855741
$GNHDT,291.946,T*2A
$PYRTM,2024,123.084612178160,14.194259588299
$GNGGA,020150.50,3404.15799690,N,11931.76078383,W,2,10,1.0,6.321,M,-37.117,M,7.4,0135*60
$PYRTM,2024,123.084612178160,14.194259588299
$GNHDT,291.765,T*25
$PYRTM,2024,123.084618017465,14.194265427616
$GNGGA,020151.00,3404.15845635,N,11931.76219811,W,2,10,1.0,6.222,M,-37.117,M,7.0,0135*66
$PYRTM,2024,123.084618017465,14.194265427616
$GNHDT,291.777,T*26
$PYRTM,2024,123.084623753773,14.194271163912
$GNGGA,020151.50,3404.15891281,N,11931.76359287,W,2,10,1.0,6.221,M,-37.117,M,7.4,0135*66
$PYRTM,2024,123.084623753773,14.194271163912
$GNHDT,291.779,T*28
$PYRTM,2024,123.084629587176,14.194276997315
$GNGGA,020152.00,3404.15936819,N,11931.76498104,W,2,10,1.0,6.311,M,-37.117,M,7.0,0135*63
$PYRTM,2024,123.084629587176,14.194276997315
$GNHDT,291.863,T*2C
$PYRTM,2024,123.084635329178,14.194282739317
$GNGGA,020152.50,3404.15982704,N,11931.76637500,W,2,10,1.0,6.440,M,-37.117,M,7.4,0135*6A
$PYRTM,2024,123.084635329178,14.194282739317
$GNHDT,291.564,T*26
$PYRTM,2024,123.084641165718,14.194288575856
$GNGGA,020153.00,3404.16029517,N,11931.76778693,W,2,10,1.0,6.553,M,-37.117,M,4.0,0135*62
$PYRTM,2024,123.084641165718,14.194288575856
$GNHDT,291.638,T*2C
$PYRTM,2024,123.084646904919,14.194294315058
$GNGGA,020153.50,3404.16077682,N,11931.76922222,W,2,10,1.0,6.588,M,-37.117,M,4.4,0135*6E
$PYRTM,2024,123.084646904919,14.194294315058
$GNHDT,291.548,T*28
$PYRTM,2024,123.084652741551,14.194300151690
$GNGGA,020154.00,3404.16126014,N,11931.77067716,W,2,10,1.0,6.536,M,-37.117,M,5.0,0135*6B
$PYRTM,2024,123.084652741551,14.194300151690
$GNHDT,291.546,T*26
$PYRTM,2024,123.084658477130,14.194305887269
$GNGGA,020154.50,3404.16173157,N,11931.77214218,W,2,10,1.0,6.444,M,-37.117,M,5.4,0135*65
$PYRTM,2024,123.084658477130,14.194305887269
$GNHDT,291.355,T*22
$PYRTM,2024,123.084664311574,14.194311721713
$GNGGA,020155.00,3404.16218139,N,11931.77359238,W,2,10,1.0,6.392,M,-37.117,M,6.0,0135*66
$PYRTM,2024,123.084664311574,14.194311721713
$GNHDT,291.260,T*25
$PYRTM,2024,123.084670051458,14.194317461609
$GNGGA,020155.50,3404.16261675,N,11931.77501004,W,2,10,1.0,6.446,M,-37.117,M,6.4,0135*6E
$PYRTM,2024,123.084670051458,14.194317461609
$GNHDT,291.321,T*21
$PYRTM,2024,123.084675883113,14.194323293252
$GNGGA,020156.00,3404.16304133,N,11931.77638761,W,2,10,1.0,6.636,M,-37.117,M,7.0,0135*62
$PYRTM,2024,123.084675883113,14.194323293252
$GNHDT,291.276,T*22
$PYRTM,2024,123.084681635139,14.194329045289
$GNGGA,020156.50,3404.16347126,N,11931.77775055,W,2,10,1.0,6.891,M,-37.117,M,7.4,0135*6B
$PYRTM,2024,123.084681635139,14.194329045289
$GNHDT,291.250,T*26
$PYRTM,2024,123.084687462847,14.194334872986
$GNGGA,020157.00,3404.16392272,N,11931.77912281,W,2,10,1.0,7.093,M,-37.117,M,7.0,0135*6E
$PYRTM,2024,123.084687462847,14.194334872986
$GNHDT,291.117,T*26
$PYRTM,2024,123.084693204306,14.194340614444
$GNGGA,020157.50,3404.16439622,N,11931.78052203,W,2,10,1.0,7.150,M,-37.117,M,7.4,0135*6E
$PYRTM,2024,123.084693204306,14.194340614444
$GNHDT,291.154,T*21
$PYRTM,2024,123.084699040347,14.194346450486
$GNGGA,020158.00,3404.16488046,N,11931.78194597,W,2,10,1.0,7.017,M,-37.117,M,7.0,0135*6D
$PYRTM,2024,123.084699040347,14.194346450486
$GNHDT,291.143,T*27
$PYRTM,2024,123.084704775093,14.194352185243
$GNGGA,020158.50,3404.16535792,N,11931.78338882,W,2,10,1.0,6.746,M,-37.117,M,7.4,0135*6A
$PYRTM,2024,123.084704775093,14.194352185243
$GNHDT,291.097,T*2F
$PYRTM,2024,123.084710612280,14.194358022419
$GNGGA,020159.00,3404.16581918,N,11931.78484292,W,2,10,1.0,6.401,M,-37.117,M,4.0,0135*61
$PYRTM,2024,123.084710612280,14.194358022419
$GNHDT,290.983,T*22
$PYRTM,2024,123.084716351204,14.194363761343
$GNGGA,020159.50,3404.16625701,N,11931.78629803,W,2,10,1.0,6.091,M,-37.117,M,4.4,0135*61
$PYRTM,2024,123.084716351204,14.194363761343
$GNHDT,290.884,T*24
$PYRTM,2024,123.084722182257,14.194369592407
$GNGGA,020200.00,3404.16667981,N,11931.78772751,W,2,10,1.0,5.934,M,-37.116,M,5.0,0135*6D
$PYRTM,2024,123.084722182257,14.194369592407
$GNHDT,290.959,T*25
$PYRTM,2024,123.084727921539,14.194375331678
$GNGGA,020200.50,3404.16710598,N,11931.78912221,W,2,10,1.0,5.921,M,-37.116,M,5.4,0135*67
$PYRTM,2024,123.084727921539,14.194375331678
$GNHDT,291.006,T*27
$PYRTM,2024,123.084733758148,14.194381168287
$GNGGA,020201.00,3404.16754544,N,11931.79049472,W,2,10,1.0,6.064,M,-37.116,M,6.0,0135*68
$PYRTM,2024,123.084733758148,14.194381168287
$GNHDT,291.189,T*21
$PYRTM,2024,123.084739501539,14.194386911678
$GNGGA,020201.50,3404.16799786,N,11931.79186536,W,2,10,1.0,6.273,M,-37.116,M,6.4,0135*63
$PYRTM,2024,123.084739501539,14.194386911678
$GNHDT,291.076,T*20
$PYRTM,2024,123.084745335289,14.194392745428
$GNGGA,020202.00,3404.16847276,N,11931.79324283,W,2,10,1.0,6.475,M,-37.116,M,7.0,0135*65
$PYRTM,2024,123.084745335289,14.194392745428
$GNHDT,291.096,T*2E
$PYRTM,2024,123.084751070914,14.194398481065
$GNGGA,020202.50,3404.16896183,N,11931.79463746,W,2,10,1.0,6.626,M,-37.116,M,7.4,0135*6D
$PYRTM,2024,123.084751070914,14.194398481065
$GNHDT,291.268,T*2D
$PYRTM,2024,123.084756907338,14.194404317477
$GNGGA,020203.00,3404.16944674,N,11931.79603624,W,2,10,1.0,6.679,M,-37.116,M,7.0,0135*67
$PYRTM,2024,123.084756907338,14.194404317477
$GNHDT,291.299,T*23
$PYRTM,2024,123.084762646007,14.194410056134
$GNGGA,020203.50,3404.16990541,N,11931.79742990,W,2,10,1.0,6.709,M,-37.116,M,7.4,0135*68
$PYRTM,2024,123.084762646007,14.194410056134
$GNHDT,291.345,T*23
$PYRTM,2024,123.084768477859,14.194415887998
$GNGGA,020204.00,3404.17033907,N,11931.79880984,W,2,10,1.0,6.693,M,-37.116,M,7.0,0135*67
$PYRTM,2024,123.084768477859,14.194415887998
$GNHDT,291.375,T*20
$PYRTM,2024,123.084774221863,14.194421632002
$GNGGA,020204.50,3404.17075534,N,11931.80019231,W,2,10,1.0,6.665,M,-37.116,M,7.4,0135*6A
$PYRTM,2024,123.084774221863,14.194421632002
$GNHDT,291.331,T*20
$PYRTM,2024,123.084780058449,14.194427468588
$GNGGA,020205.00,3404.17117190,N,11931.80159460,W,2,10,1.0,6.538,M,-37.116,M,4.0,0135*6A
$PYRTM,2024,123.084780058449,14.194427468588
$GNHDT,291.373,T*26
$PYRTM,2024,123.084785795231,14.194433205370
$GNGGA,020205.50,3404.17159940,N,11931.80303613,W,2,10,1.0,6.333,M,-37.116,M,4.4,0135*62
$PYRTM,2024,123.084785795231,14.194433205370
$GNHDT,291.212,T*20
$PYRTM,2024,123.084791629931,14.194439040069
$GNGGA,020206.00,3404.17204542,N,11931.80450005,W,2,10,1.0,6.044,M,-37.116,M,5.0,0135*67
$PYRTM,2024,123.084791629931,14.194439040069
$GNHDT,291.223,T*22
$PYRTM,2024,123.084797370775,14.194444780914
$GNGGA,020206.50,3404.17251447,N,11931.80596173,W,2,10,1.0,5.795,M,-37.116,M,5.4,0135*61
$PYRTM,2024,123.084797370775,14.194444780914
$GNHDT,290.990,T*20
$PYRTM,2024,123.084803202350,14.194450612500
$GNGGA,020207.00,3404.17299217,N,11931.80738994,W,2,10,1.0,5.664,M,-37.116,M,6.0,0135*6D
$PYRTM,2024,123.084803202350,14.194450612500
$GNHDT,291.066,T*21
$PYRTM,2024,123.084808945463,14.194456355602
$GNGGA,020207.50,3404.17346263,N,11931.80876677,W,2,10,1.0,5.770,M,-37.116,M,6.4,0135*6F
$PYRTM,2024,123.084808945463,14.194456355602
$GNHDT,291.332,T*23
$PYRTM,2024,123.084814777824,14.194462187963
$GNGGA,020208.00,3404.17391064,N,11931.81010388,W,2,10,1.0,6.097,M,-37.116,M,7.0,0135*6E
$PYRTM,2024,123.084814777824,14.194462187963
$GNHDT,291.517,T*22
$PYRTM,2024,123.084820517523,14.194467927662
$GNGGA,020208.50,3404.17434858,N,11931.81144073,W,2,10,1.0,6.483,M,-37.116,M,7.4,0135*66
$PYRTM,2024,123.084820517523,14.194467927662
$GNHDT,291.444,T*25
$PYRTM,2024,123.084826347350,14.194473757500
$GNGGA,020209.00,3404.17478569,N,11931.81281757,W,2,10,1.0,6.829,M,-37.116,M,7.0,0135*66
$PYRTM,2024,123.084826347350,14.194473757500
$GNHDT,291.536,T*21
$PYRTM,2024,123.084832090613,14.194479500752
$GNGGA,020209.50,3404.17523059,N,11931.81425365,W,2,10,1.0,6.948,M,-37.116,M,7.4,0135*65
$PYRTM,2024,123.084832090613,14.194479500752
$GNHDT,291.873,T*2D
$PYRTM,2024,123.084837931111,14.194485341250
$GNGGA,020210.00,3404.17568020,N,11931.81574220,W,2,10,1.0,6.782,M,-37.116,M,7.0,0135*60
$PYRTM,2024,123.084837931111,14.194485341250
$GNHDT,291.735,T*20
$PYRTM,2024,123.084843668958,14.194491079097
$GNGGA,020210.50,3404.17612711,N,11931.81723488,W,2,10,1.0,6.453,M,-37.116,M,7.4,0135*61
$PYRTM,2024,123.084843668958,14.194491079097
$GNHDT,291.387,T*2D
$PYRTM,2024,123.084849499722,14.194496909861
$GNGGA,020211.00,3404.17656920,N,11931.81869359,W,2,10,1.0,6.070,M,-37.116,M,4.0,0135*61
$PYRTM,2024,123.084849499722,14.194496909861
$GNHDT,291.506,T*22
$PYRTM,2024,123.084855239988,14.194502650127
$GNGGA,020211.50,3404.17701152,N,11931.82010203,W,2,10,1.0,5.775,M,-37.116,M,4.4,0135*64
$PYRTM,2024,123.084855239988,14.194502650127
$GNHDT,291.716,T*21
$PYRTM,2024,123.084861074769,14.194508484907
$GNGGA,020212.00,3404.17745061,N,11931.82148496,W,2,10,1.0,5.638,M,-37.116,M,5.0,0135*68
$PYRTM,2024,123.084861074769,14.194508484907
$GNHDT,291.669,T*28
$PYRTM,2024,123.084866814572,14.194514224711
$GNGGA,020212.50,3404.17790061,N,11931.82286797,W,2,10,1.0,5.651,M,-37.116,M,5.4,0135*6D
$PYRTM,2024,123.084866814572,14.194514224711
$GNHDT,291.586,T*2A
$PYRTM,2024,123.084872646157,14.194520056308
$GNGGA,020213.00,3404.17836544,N,11931.82426486,W,2,10,1.0,5.784,M,-37.116,M,6.0,0135*69
$PYRTM,2024,123.084872646157,14.194520056308
$GNHDT,291.559,T*28
$PYRTM,2024,123.084878388519,14.194525798657
$GNGGA,020213.50,3404.17883545,N,11931.82567260,W,2,10,1.0,5.962,M,-37.116,M,6.4,0135*6B
$PYRTM,2024,123.084878388519,14.194525798657
$GNHDT,291.563,T*21
$PYRTM,2024,123.084884224734,14.194531634873
$GNGGA,020214.00,3404.17930035,N,11931.82709418,W,2,10,1.0,6.150,M,-37.116,M,7.0,0135*6E
$PYRTM,2024,123.084884224734,14.194531634873
$GNHDT,291.295,T*2F
$PYRTM,2024,123.084889958461,14.194537368600
$GNGGA,020214.50,3404.17976153,N,11931.82851780,W,2,10,1.0,6.306,M,-37.116,M,7.4,0135*6D
$PYRTM,2024,123.084889958461,14.194537368600
$GNHDT,291.688,T*27
$PYRTM,2024,123.084895796736,14.194543206875
$GNGGA,020215.00,3404.18021594,N,11931.82994358,W,2,10,1.0,6.439,M,-37.116,M,7.0,0135*64
$PYRTM,2024,123.084895796736,14.194543206875
$GNHDT,291.822,T*29
$PYRTM,2024,123.084901534479,14.194548944606
$GNGGA,020215.50,3404.18066604,N,11931.83135006,W,2,10,1.0,6.546,M,-37.116,M,7.4,0135*6F
$PYRTM,2024,123.084901534479,14.194548944606
$GNHDT,291.822,T*29
$PYRTM,2024,123.084907372407,14.194554782558
$GNGGA,020216.00,3404.18110029,N,11931.83273186,W,2,10,1.0,6.697,M,-37.116,M,7.0,0135*63
$PYRTM,2024,123.084907372407,14.194554782558
$GNHDT,291.751,T*22
$PYRTM,2024,123.084913106157,14.194560516296
$GNGGA,020216.50,3404.18152296,N,11931.83409247,W,2,10,1.0,6.842,M,-37.116,M,7.4,0135*61
$PYRTM,2024,123.084913106157,14.194560516296
$GNHDT,291.655,T*27
$PYRTM,2024,123.084918944248,14.194566354387
$GNGGA,020217.00,3404.18194736,N,11931.83544883,W,2,10,1.0,6.971,M,-37.115,M,4.0,0135*6F
$PYRTM,2024,123.084918944248,14.194566354387
$GNHDT,291.447,T*26
$PYRTM,2024,123.084924684259,14.194572094398
$GNGGA,020217.50,3404.18238876,N,11931.83681509,W,2,10,1.0,6.982,M,-37.115,M,4.4,0135*69
$PYRTM,2024,123.084924684259,14.194572094398
$GNHDT,291.515,T*20
$PYRTM,2024,123.084930521157,14.194577931296
$GNGGA,020218.00,3404.18285112,N,11931.83820820,W,2,10,1.0,6.855,M,-37.115,M,5.0,0135*63
$PYRTM,2024,123.084930521157,14.194577931296
$GNHDT,291.251,T*27
$PYRTM,2024,123.084936256516,14.194583666644
$GNGGA,020218.50,3404.18332606,N,11931.83963801,W,2,10,1.0,6.591,M,-37.115,M,5.4,0135*6D
$PYRTM,2024,123.084936256516,14.194583666644
$GNHDT,291.219,T*2B
$PYRTM,2024,123.084942093889,14.194589504028
$GNGGA,020219.00,3404.18380909,N,11931.84107195,W,2,10,1.0,6.264,M,-37.115,M,6.0,0135*63
$PYRTM,2024,123.084942093889,14.194589504028
$GNHDT,291.122,T*20
$PYRTM,2024,123.084947830660,14.194595240799
$GNGGA,020219.50,3404.18427989,N,11931.84250867,W,2,10,1.0,5.989,M,-37.115,M,6.4,0135*6E
$PYRTM,2024,123.084947830660,14.194595240799
$GNHDT,290.927,T*2C
$PYRTM,2024,123.084953667789,14.194601077928
$GNGGA,020220.00,3404.18474065,N,11931.84393910,W,2,10,1.0,5.836,M,-37.115,M,7.0,0135*63
$PYRTM,2024,123.084953667789,14.194601077928
$GNHDT,290.892,T*23
$PYRTM,2024,123.084959405938,14.194606816076
$GNGGA,020220.50,3404.18519120,N,11931.84537239,W,2,10,1.0,5.834,M,-37.115,M,7.4,0135*62
$PYRTM,2024,123.084959405938,14.194606816076
$GNHDT,291.096,T*2E
$PYRTM,2024,123.084965243299,14.194612653437
$GNGGA,020221.00,3404.18563959,N,11931.84679880,W,2,10,1.0,6.003,M,-37.115,M,7.0,0135*67
$PYRTM,2024,123.084965243299,14.194612653437
$GNHDT,291.168,T*2E
$PYRTM,2024,123.084970985000,14.194618395139
$GNGGA,020221.50,3404.18608287,N,11931.84820166,W,2,10,1.0,6.301,M,-37.115,M,7.4,0135*62
$PYRTM,2024,123.084970985000,14.194618395139
$GNHDT,291.246,T*21
$PYRTM,2024,123.084976814248,14.194624224387
$GNGGA,020222.00,3404.18653078,N,11931.84957979,W,2,10,1.0,6.661,M,-37.115,M,7.0,0135*68
$PYRTM,2024,123.084976814248,14.194624224387
$GNHDT,291.130,T*23
$PYRTM,2024,123.084982553183,14.194629963333
$GNGGA,020222.50,3404.18699588,N,11931.85094982,W,2,10,1.0,7.005,M,-37.115,M,7.4,0135*63
$PYRTM,2024,123.084982553183,14.194629963333
$GNHDT,291.328,T*28
$PYRTM,2024,123.084988391296,14.194635801435
$GNGGA,020223.00,3404.18748020,N,11931.85233966,W,2,10,1.0,7.210,M,-37.115,M,4.0,0135*69
$PYRTM,2024,123.084988391296,14.194635801435
$GNHDT,291.391,T*2A
$PYRTM,2024,123.084994129931,14.194641540081
$GNGGA,020223.50,3404.18796591,N,11931.85376665,W,2,10,1.0,7.215,M,-37.115,M,4.4,0135*6D
$PYRTM,2024,123.084994129931,14.194641540081
$GNHDT,291.432,T*24
$PYRTM,2024,123.084999974745,14.194647384896
$GNGGA,020224.00,3404.18843843,N,11931.85520774,W,2,10,1.0,7.031,M,-37.115,M,5.0,0135*6F
$PYRTM,2024,123.084999974745,14.194647384896
$GNHDT,291.444,T*25
$PYRTM,2024,123.085005703981,14.194653114120
$GNGGA,020224.50,3404.18888021,N,11931.85663726,W,2,10,1.0,6.787,M,-37.115,M,5.4,0135*6D
$PYRTM,2024,123.085005703981,14.194653114120
$GNHDT,291.477,T*25
$PYRTM,2024,123.085011535729,14.194658945868
$GNGGA,020225.00,3404.18929224,N,11931.85804473,W,2,10,1.0,6.556,M,-37.115,M,6.0,0135*61
$PYRTM,2024,123.085011535729,14.194658945868
$GNHDT,291.594,T*29
$PYRTM,2024,123.085017277245,14.194664687396
$GNGGA,020225.50,3404.18968367,N,11931.85941529,W,2,10,1.0,6.422,M,-37.115,M,6.4,0135*6F
$PYRTM,2024,123.085017277245,14.194664687396
$GNHDT,291.638,T*2C
$PYRTM,2024,123.085023108218,14.194670518356
$GNGGA,020226.00,3404.19007050,N,11931.86076025,W,2,10,1.0,6.439,M,-37.115,M,7.0,0135*67
$PYRTM,2024,123.085023108218,14.194670518356
$GNHDT,291.614,T*22
$PYRTM,2024,123.085028855266,14.194676265405
$GNGGA,020226.50,3404.19047543,N,11931.86209808,W,2,10,1.0,6.537,M,-37.115,M,7.4,0135*67
$PYRTM,2024,123.085028855266,14.194676265405
$GNHDT,291.768,T*28
$PYRTM,2024,123.085034685220,14.194682095359
$GNGGA,020227.00,3404.19091265,N,11931.86346229,W,2,10,1.0,6.613,M,-37.115,M,7.0,0135*69
$PYRTM,2024,123.085034685220,14.194682095359
$GNHDT,291.816,T*2E
$PYRTM,2024,123.085040429120,14.194687839259
$GNGGA,020227.50,3404.19138903,N,11931.86486663,W,2,10,1.0,6.597,M,-37.115,M,7.4,0135*6F
$PYRTM,2024,123.085040429120,14.194687839259
$GNHDT,291.667,T*26
$PYRTM,2024,123.085046264572,14.194693674711
$GNGGA,020228.00,3404.19188853,N,11931.86629127,W,2,10,1.0,6.497,M,-37.115,M,7.0,0135*6F
$PYRTM,2024,123.085046264572,14.194693674711
$GNHDT,291.815,T*2D
$PYRTM,2024,123.085051995822,14.194699405961
$GNGGA,020228.50,3404.19237772,N,11931.86770080,W,2,10,1.0,6.407,M,-37.115,M,7.4,0135*6D
$PYRTM,2024,123.085051995822,14.194699405961
$GNHDT,291.903,T*2B
$PYRTM,2024,123.085057831505,14.194705241644
$GNGGA,020229.00,3404.19284213,N,11931.86908325,W,2,10,1.0,6.391,M,-37.115,M,4.0,0135*61
$PYRTM,2024,123.085057831505,14.194705241644
$GNHDT,291.968,T*26
$PYRTM,2024,123.085063580000,14.194710990139
