$PYRTM,2024,124.500000126458,15.609647536609
$GNGGA,120000.00,3535.38151102,N,12143.53538037,W,2,12,0.9,5.734,M,-37.134,M,7.0,0135*6A
$PYRTM,2024,124.500000126458,15.609647536609
$GNHDT,355.732,T*2E
$PYRTM,2024,124.500005856204,15.609653266343
$GNGGA,120000.50,3535.38247910,N,12143.53548274,W,2,12,0.9,5.755,M,-37.134,M,7.4,0135*61
$PYRTM,2024,124.500005856204,15.609653266343
$GNHDT,355.697,T*20
$PYRTM,2024,124.500011698565,15.609659108704
$GNGGA,120001.00,3535.38348404,N,12143.53551425,W,2,12,0.9,5.808,M,-37.134,M,4.0,0135*69
$PYRTM,2024,124.500011698565,15.609659108704
$GNHDT,355.688,T*2E
$PYRTM,2024,124.500017431840,15.609664841979
$GNGGA,120001.50,3535.38451403,N,12143.53548925,W,2,12,0.9,5.835,M,-37.134,M,4.4,0135*6B
$PYRTM,2024,124.500017431840,15.609664841979
$GNHDT,355.654,T*2F
$PYRTM,2024,124.500023274965,15.609670685104
$GNGGA,120002.00,3535.38554827,N,12143.53542525,W,2,12,0.9,5.871,M,-37.134,M,5.0,0135*60
$PYRTM,2024,124.500023274965,15.609670685104
$GNHDT,355.699,T*2E
$PYRTM,2024,124.500029006262,15.609676416400
$GNGGA,120002.50,3535.38656471,N,12143.53540117,W,2,12,0.9,5.961,M,-37.134,M,5.4,0135*68
$PYRTM,2024,124.500029006262,15.609676416400
$GNHDT,355.672,T*2B
$PYRTM,2024,124.500034849514,15.609682259664
$GNGGA,120003.00,3535.38754842,N,12143.53542386,W,2,12,0.9,6.141,M,-37.134,M,6.0,0135*65
$PYRTM,2024,124.500034849514,15.609682259664
$GNHDT,355.814,T*25
$PYRTM,2024,124.500040579456,15.609687989595
$GNGGA,120003.50,3535.38851087,N,12143.53548490,W,2,12,0.9,6.399,M,-37.133,M,6.4,0135*65
$PYRTM,2024,124.500040579456,15.609687989595
$GNHDT,355.908,T*29
$PYRTM,2024,124.500046423322,15.609693833461
$GNGGA,120004.00,3535.38947439,N,12143.53553879,W,2,12,0.9,6.686,M,-37.133,M,7.0,0135*6F
$PYRTM,2024,124.500046423322,15.609693833461
$GNHDT,355.968,T*2F
$PYRTM,2024,124.500052162396,15.609699572535
$GNGGA,120004.50,3535.39045605,N,12143.53555705,W,2,12,0.9,6.874,M,-37.133,M,7.4,0135*68
$PYRTM,2024,124.500052162396,15.609699572535
$GNHDT,356.171,T*2C
$PYRTM,2024,124.500058001551,15.609705411701
$GNGGA,120005.00,3535.39149085,N,12143.53554059,W,2,12,0.9,6.857,M,-37.133,M,7.0,0135*65
$PYRTM,2024,124.500058001551,15.609705411701
$GNHDT,355.942,T*27
$PYRTM,2024,124.500063733241,15.609711143380
$GNGGA,120005.50,3535.39258624,N,12143.53557891,W,2,12,0.9,6.586,M,-37.133,M,7.4,0135*64
$PYRTM,2024,124.500063733241,15.609711143380
$GNHDT,355.940,T*25
$PYRTM,2024,124.500069567986,15.609716978125
$GNGGA,120006.00,3535.39370152,N,12143.53570580,W,2,12,0.9,6.165,M,-37.133,M,7.0,0135*6A
$PYRTM,2024,124.500069567986,15.609716978125
$GNHDT,355.697,T*20
$PYRTM,2024,124.500075304340,15.609722714479
$GNGGA,120006.50,3535.39477684,N,12143.53591217,W,2,12,0.9,5.800,M,-37.133,M,7.4,0135*68
$PYRTM,2024,124.500075304340,15.609722714479
$GNHDT,355.296,T*25
$PYRTM,2024,124.500081143461,15.609728553611
$GNGGA,120007.00,3535.39574934,N,12143.53610840,W,2,12,0.9,5.780,M,-37.133,M,4.0,0135*68
$PYRTM,2024,124.500081143461,15.609728553611
$GNHDT,355.174,T*2A
$PYRTM,2024,124.500086879387,15.609734289537
$GNGGA,120007.50,3535.39665265,N,12143.53617420,W,2,12,0.9,6.067,M,-37.133,M,4.4,0135*65
$PYRTM,2024,124.500086879387,15.609734289537
$GNHDT,355.402,T*2E
$PYRTM,2024,124.500092720903,15.609740131042
$GNGGA,120008.00,3535.39753221,N,12143.53609433,W,2,12,0.9,6.613,M,-37.133,M,5.0,0135*66
$PYRTM,2024,124.500092720903,15.609740131042
$GNHDT,355.620,T*2C
$PYRTM,2024,124.500098458646,15.609745868785
$GNGGA,120008.50,3535.39846480,N,12143.53585250,W,2,12,0.9,7.139,M,-37.133,M,5.4,0135*6B
$PYRTM,2024,124.500098458646,15.609745868785
$GNHDT,355.720,T*2D
$PYRTM,2024,124.500104293611,15.609751703750
$GNGGA,120009.00,3535.39948991,N,12143.53559936,W,2,12,0.9,7.365,M,-37.133,M,6.0,0135*6B
$PYRTM,2024,124.500104293611,15.609751703750
$GNHDT,355.880,T*28
$PYRTM,2024,124.500110025671,15.609757435810
$GNGGA,120009.50,3535.40059685,N,12143.53546971,W,2,12,0.9,7.233,M,-37.133,M,6.4,0135*68
$PYRTM,2024,124.500110025671,15.609757435810
$GNHDT,356.104,T*2E
$PYRTM,2024,124.500115865301,15.609763275440
$GNGGA,120010.00,3535.40172821,N,12143.53551041,W,2,12,0.9,6.824,M,-37.133,M,7.0,0135*69
$PYRTM,2024,124.500115865301,15.609763275440
$GNHDT,356.228,T*23
$PYRTM,2024,124.500121605197,15.609769015336
$GNGGA,120010.50,3535.40282694,N,12143.53570882,W,2,12,0.9,6.352,M,-37.133,M,7.4,0135*6A
$PYRTM,2024,124.500121605197,15.609769015336
$GNHDT,355.410,T*2D
$PYRTM,2024,124.500127445706,15.609774855845
$GNGGA,120011.00,3535.40384502,N,12143.53601574,W,2,12,0.9,6.092,M,-37.132,M,7.0,0135*6E
$PYRTM,2024,124.500127445706,15.609774855845
$GNHDT,354.799,T*2E
$PYRTM,2024,124.500133177951,15.609780588102
$GNGGA,120011.50,3535.40476356,N,12143.53634999,W,2,12,0.9,6.160,M,-37.132,M,7.4,0135*67
$PYRTM,2024,124.500133177951,15.609780588102
$GNHDT,354.792,T*25
$PYRTM,2024,124.500139016898,15.609786427037
$GNGGA,120012.00,3535.40559770,N,12143.53659938,W,2,12,0.9,6.531,M,-37.132,M,7.0,0135*69
$PYRTM,2024,124.500139016898,15.609786427037
$GNHDT,354.629,T*24
$PYRTM,2024,124.500144747176,15.609792157315
$GNGGA,120012.50,3535.40643856,N,12143.53668831,W,2,12,0.9,6.958,M,-37.132,M,7.4,0135*62
$PYRTM,2024,124.500144747176,15.609792157315
$GNHDT,354.632,T*2E
$PYRTM,2024,124.500150589028,15.609797999167
$GNGGA,120013.00,3535.40734601,N,12143.53659244,W,2,12,0.9,7.263,M,-37.132,M,4.0,0135*64
$PYRTM,2024,124.500150589028,15.609797999167
$GNHDT,354.643,T*28
$PYRTM,2024,124.500156322708,15.609803732847
$GNGGA,120013.50,3535.40835937,N,12143.53639086,W,2,12,0.9,7.212,M,-37.132,M,4.4,0135*6D
$PYRTM,2024,124.500156322708,15.609803732847
$GNHDT,354.856,T*22
$PYRTM,2024,124.500162161227,15.609809571366
$GNGGA,120014.00,3535.40942202,N,12143.53620067,W,2,12,0.9,6.841,M,-37.132,M,5.0,0135*6C
$PYRTM,2024,124.500162161227,15.609809571366
$GNHDT,354.565,T*2F
$PYRTM,2024,124.500167907500,15.609815317639
$GNGGA,120014.50,3535.41046493,N,12143.53610205,W,2,12,0.9,6.368,M,-37.132,M,5.4,0135*6A
$PYRTM,2024,124.500167907500,15.609815317639
$GNHDT,354.447,T*2E
$PYRTM,2024,124.500173735741,15.609821145880
$GNGGA,120015.00,3535.41147299,N,12143.53611680,W,2,12,0.9,5.994,M,-37.132,M,6.0,0135*67
$PYRTM,2024,124.500173735741,15.609821145880
$GNHDT,354.795,T*22
$PYRTM,2024,124.500179475521,15.609826885660
$GNGGA,120015.50,3535.41243384,N,12143.53626844,W,2,12,0.9,5.850,M,-37.132,M,6.4,0135*67
$PYRTM,2024,124.500179475521,15.609826885660
$GNHDT,354.490,T*24
$PYRTM,2024,124.500185312118,15.609832722257
$GNGGA,120016.00,3535.41334640,N,12143.53652806,W,2,12,0.9,6.006,M,-37.132,M,7.0,0135*65
$PYRTM,2024,124.500185312118,15.609832722257
$GNHDT,354.356,T*29
$PYRTM,2024,124.500191047245,15.609838457384
$GNGGA,120016.50,3535.41422239,N,12143.53680834,W,2,12,0.9,6.422,M,-37.132,M,7.4,0135*62
$PYRTM,2024,124.500191047245,15.609838457384
$GNHDT,354.330,T*29
$PYRTM,2024,124.500196885590,15.609844295729
$GNGGA,120017.00,3535.41508486,N,12143.53709134,W,2,12,0.9,6.853,M,-37.132,M,7.0,0135*6A
$PYRTM,2024,124.500196885590,15.609844295729
$GNHDT,354.262,T*2F
$PYRTM,2024,124.500202618912,15.609850029063
$GNGGA,120017.50,3535.41597741,N,12143.53729384,W,2,12,0.9,7.190,M,-37.132,M,7.4,0135*69
$PYRTM,2024,124.500202618912,15.609850029063
$GNHDT,354.345,T*2B
$PYRTM,2024,124.500208459838,15.609855869977
$GNGGA,120018.00,3535.41693746,N,12143.53736844,W,2,12,0.9,7.234,M,-37.132,M,7.0,0135*63
$PYRTM,2024,124.500208459838,15.609855869977
$GNHDT,354.168,T*26
$PYRTM,2024,124.500214190440,15.609861600579
$GNGGA,120018.50,3535.41796080,N,12143.53735313,W,2,12,0.9,7.034,M,-37.132,M,7.4,0135*63
$PYRTM,2024,124.500214190440,15.609861600579
$GNHDT,353.997,T*29
$PYRTM,2024,124.500220032512,15.609867442650
$GNGGA,120019.00,3535.41899690,N,12143.53727013,W,2,12,0.9,6.702,M,-37.132,M,4.0,0135*64
$PYRTM,2024,124.500220032512,15.609867442650
$GNHDT,354.114,T*2D
$PYRTM,2024,124.500225764016,15.609873174155
$GNGGA,120019.50,3535.42000992,N,12143.53717289,W,2,12,0.9,6.409,M,-37.131,M,4.4,0135*6A
$PYRTM,2024,124.500225764016,15.609873174155
$GNHDT,354.309,T*23
$PYRTM,2024,124.500231608125,15.609879018264
$GNGGA,120020.00,3535.42097006,N,12143.53712527,W,2,12,0.9,6.225,M,-37.131,M,5.0,0135*64
$PYRTM,2024,124.500231608125,15.609879018264
$GNHDT,354.441,T*28
$PYRTM,2024,124.500237343021,15.609884753160
$GNGGA,120020.50,3535.42189284,N,12143.53717274,W,2,12,0.9,6.252,M,-37.131,M,5.4,0135*67
$PYRTM,2024,124.500237343021,15.609884753160
$GNHDT,354.516,T*2B
$PYRTM,2024,124.500243179410,15.609890589549
$GNGGA,120021.00,3535.42281149,N,12143.53735189,W,2,12,0.9,6.378,M,-37.131,M,6.0,0135*65
$PYRTM,2024,124.500243179410,15.609890589549
$GNHDT,354.674,T*2C
$PYRTM,2024,124.500248915648,15.609896325787
$GNGGA,120021.50,3535.42376465,N,12143.53761857,W,2,12,0.9,6.493,M,-37.131,M,6.4,0135*6F
$PYRTM,2024,124.500248915648,15.609896325787
$GNHDT,354.860,T*27
$PYRTM,2024,124.500254763646,15.609902173785
$GNGGA,120022.00,3535.42473826,N,12143.53794370,W,2,12,0.9,6.564,M,-37.131,M,7.0,0135*68
$PYRTM,2024,124.500254763646,15.609902173785
$GNHDT,354.846,T*23
$PYRTM,2024,124.500260487130,15.609907897269
$GNGGA,120022.50,3535.42570178,N,12143.53818892,W,2,12,0.9,6.627,M,-37.131,M,7.4,0135*61
$PYRTM,2024,124.500260487130,15.609907897269
$GNHDT,354.891,T*29
$PYRTM,2024,124.500266328484,15.609913738623
$GNGGA,120023.00,3535.42665057,N,12143.53830015,W,2,12,0.9,6.729,M,-37.131,M,7.0,0135*68
$PYRTM,2024,124.500266328484,15.609913738623
$GNHDT,355.076,T*29
$PYRTM,2024,124.500272063981,15.609919474120
$GNGGA,120023.50,3535.42758827,N,12143.53826820,W,2,12,0.9,6.886,M,-37.131,M,7.4,0135*6A
$PYRTM,2024,124.500272063981,15.609919474120
$GNHDT,355.431,T*2E
$PYRTM,2024,124.500277908866,15.609925319005
$GNGGA,120024.00,3535.42852196,N,12143.53813992,W,2,12,0.9,7.048,M,-37.131,M,7.0,0135*6F
$PYRTM,2024,124.500277908866,15.609925319005
$GNHDT,355.648,T*22
$PYRTM,2024,124.500283638160,15.609931048299
$GNGGA,120024.50,3535.42946112,N,12143.53797522,W,2,12,0.9,7.207,M,-37.131,M,7.4,0135*6B
$PYRTM,2024,124.500283638160,15.609931048299
$GNHDT,355.437,T*28
$PYRTM,2024,124.500289479954,15.609936890093
$GNGGA,120025.00,3535.43043384,N,12143.53786708,W,2,12,0.9,7.203,M,-37.131,M,4.0,0135*66
$PYRTM,2024,124.500289479954,15.609936890093
$GNHDT,355.169,T*26
$PYRTM,2024,124.500295207546,15.609942617685
$GNGGA,120025.50,3535.43147104,N,12143.53790366,W,2,12,0.9,6.966,M,-37.131,M,4.4,0135*6A
$PYRTM,2024,124.500295207546,15.609942617685
$GNHDT,355.006,T*2E
$PYRTM,2024,124.500301059444,15.609948469583
$GNGGA,120026.00,3535.43254843,N,12143.53806094,W,2,12,0.9,6.586,M,-37.131,M,5.0,0135*6E
$PYRTM,2024,124.500301059444,15.609948469583
$GNHDT,355.173,T*2D
$PYRTM,2024,124.500306788669,15.609954198808
$GNGGA,120026.50,3535.43361440,N,12143.53829120,W,2,12,0.9,6.190,M,-37.131,M,5.4,0135*67
$PYRTM,2024,124.500306788669,15.609954198808
$GNHDT,354.927,T*25
$PYRTM,2024,124.500312623912,15.609960034051
$GNGGA,120027.00,3535.43460347,N,12143.53851684,W,2,12,0.9,6.043,M,-37.131,M,6.0,0135*6B
$PYRTM,2024,124.500312623912,15.609960034051
$GNHDT,355.207,T*2D
$PYRTM,2024,124.500318362928,15.609965773067
$GNGGA,120027.50,3535.43549997,N,12143.53867772,W,2,12,0.9,6.236,M,-37.130,M,6.4,0135*6B
$PYRTM,2024,124.500318362928,15.609965773067
$GNHDT,355.478,T*23
$PYRTM,2024,124.500324203553,15.609971613692
$GNGGA,120028.00,3535.43635125,N,12143.53874132,W,2,12,0.9,6.646,M,-37.130,M,7.0,0135*6E
$PYRTM,2024,124.500324203553,15.609971613692
$GNHDT,355.649,T*23
$PYRTM,2024,124.500329938657,15.609977348796
$GNGGA,120028.50,3535.43723691,N,12143.53866443,W,2,12,0.9,7.098,M,-37.130,M,7.4,0135*65
$PYRTM,2024,124.500329938657,15.609977348796
$GNHDT,356.135,T*2C
$PYRTM,2024,124.500335772384,15.609983182523
$GNGGA,120029.00,3535.43821199,N,12143.53852827,W,2,12,0.9,7.357,M,-37.130,M,7.0,0135*6E
$PYRTM,2024,124.500335772384,15.609983182523
$GNHDT,356.232,T*28
$PYRTM,2024,124.500341509306,15.609988919444
$GNGGA,120029.50,3535.43924966,N,12143.53837513,W,2,12,0.9,7.337,M,-37.130,M,7.4,0135*6C
$PYRTM,2024,124.500341509306,15.609988919444
$GNHDT,355.954,T*20
$PYRTM,2024,124.500347348773,15.609994758912
$GNGGA,120030.00,3535.44030492,N,12143.53829769,W,2,12,0.9,7.081,M,-37.130,M,7.0,0135*66
$PYRTM,2024,124.500347348773,15.609994758912
$GNHDT,355.981,T*28
$PYRTM,2024,124.500353083912,15.610000494051
$GNGGA,120030.50,3535.44133518,N,12143.53833694,W,2,12,0.9,6.772,M,-37.130,M,7.4,0135*64
$PYRTM,2024,124.500353083912,15.610000494051
$GNHDT,355.817,T*26
$PYRTM,2024,124.500358919525,15.610006329664
$GNGGA,120031.00,3535.44232445,N,12143.53848075,W,2,12,0.9,6.473,M,-37.130,M,4.0,0135*6B
$PYRTM,2024,124.500358919525,15.610006329664
$GNHDT,355.734,T*28
$PYRTM,2024,124.500364655856,15.610012066007
$GNGGA,120031.50,3535.44326939,N,12143.53870666,W,2,12,0.9,6.333,M,-37.130,M,4.4,0135*64
$PYRTM,2024,124.500364655856,15.610012066007
$GNHDT,355.472,T*29
$PYRTM,2024,124.500370500197,15.610017910336
$GNGGA,120032.00,3535.44417192,N,12143.53894793,W,2,12,0.9,6.322,M,-37.130,M,5.0,0135*6A
$PYRTM,2024,124.500370500197,15.610017910336
$GNHDT,355.001,T*29
$PYRTM,2024,124.500376227350,15.610023637488
$GNGGA,120032.50,3535.44505851,N,12143.53913383,W,2,12,0.9,6.470,M,-37.130,M,5.4,0135*64
$PYRTM,2024,124.500376227350,15.610023637488
$GNHDT,354.973,T*24
$PYRTM,2024,124.500382075069,15.610029485208
$GNGGA,120033.00,3535.44596376,N,12143.53923968,W,2,12,0.9,6.608,M,-37.130,M,6.0,0135*62
$PYRTM,2024,124.500382075069,15.610029485208
$GNHDT,354.724,T*28
$PYRTM,2024,124.500387801690,15.610035211829
$GNGGA,120033.50,3535.44692509,N,12143.53925562,W,2,12,0.9,6.619,M,-37.130,M,6.4,0135*6A
$PYRTM,2024,124.500387801690,15.610035211829
$GNHDT,354.441,T*28
$PYRTM,2024,124.500393648565,15.610041058715
$GNGGA,120034.00,3535.44793079,N,12143.53920957,W,2,12,0.9,6.471,M,-37.130,M,7.0,0135*6C
$PYRTM,2024,124.500393648565,15.610041058715
$GNHDT,354.441,T*28
$PYRTM,2024,124.500399385116,15.610046795255
$GNGGA,120034.50,3535.44894501,N,12143.53914291,W,2,12,0.9,6.221,M,-37.130,M,7.4,0135*6A
$PYRTM,2024,124.500399385116,15.610046795255
$GNHDT,354.584,T*20
$PYRTM,2024,124.500405217998,15.610052628137
$GNGGA,120035.00,3535.44991148,N,12143.53909383,W,2,12,0.9,6.036,M,-37.130,M,7.0,0135*6D
$PYRTM,2024,124.500405217998,15.610052628137
$GNHDT,354.809,T*28
$PYRTM,2024,124.500410955174,15.610058365312
$GNGGA,120035.50,3535.45082206,N,12143.53908810,W,2,12,0.9,6.030,M,-37.130,M,7.4,0135*69
$PYRTM,2024,124.500410955174,15.610058365312
$GNHDT,355.123,T*28
$PYRTM,2024,124.500416793588,15.610064203727
$GNGGA,120036.00,3535.45170566,N,12143.53914010,W,2,12,0.9,6.212,M,-37.129,M,7.0,0135*69
$PYRTM,2024,124.500416793588,15.610064203727
$GNHDT,355.248,T*26
$PYRTM,2024,124.500422530162,15.610069940301
$GNGGA,120036.50,3535.45261402,N,12143.53925546,W,2,12,0.9,6.444,M,-37.129,M,7.4,0135*69
$PYRTM,2024,124.500422530162,15.610069940301
$GNHDT,354.924,T*26
$PYRTM,2024,124.500428370127,15.610075780266
$GNGGA,120037.00,3535.45356382,N,12143.53943321,W,2,12,0.9,6.579,M,-37.129,M,4.0,0135*68
$PYRTM,2024,124.500428370127,15.610075780266
$GNHDT,354.787,T*21
$PYRTM,2024,124.500434101424,15.610081511551
$GNGGA,120037.50,3535.45454759,N,12143.53965562,W,2,12,0.9,6.604,M,-37.129,M,4.4,0135*62
$PYRTM,2024,124.500434101424,15.610081511551
$GNHDT,354.843,T*26
$PYRTM,2024,124.500439941678,15.610087351817
$GNGGA,120038.00,3535.45553478,N,12143.53983343,W,2,12,0.9,6.556,M,-37.129,M,5.0,0135*62
$PYRTM,2024,124.500439941678,15.610087351817
$GNHDT,354.855,T*21
$PYRTM,2024,124.500445674977,15.610093085116
$GNGGA,120038.50,3535.45651894,N,12143.53995158,W,2,12,0.9,6.480,M,-37.129,M,5.4,0135*69
$PYRTM,2024,124.500445674977,15.610093085116
$GNHDT,355.017,T*2E
$PYRTM,2024,124.500451519005,15.610098929155
$GNGGA,120039.00,3535.45751149,N,12143.53997290,W,2,12,0.9,6.412,M,-37.129,M,6.0,0135*6C
$PYRTM,2024,124.500451519005,15.610098929155
$GNHDT,355.062,T*2C
$PYRTM,2024,124.500457249016,15.610104659167
$GNGGA,120039.50,3535.45850695,N,12143.53995056,W,2,12,0.9,6.411,M,-37.129,M,6.4,0135*6C
$PYRTM,2024,124.500457249016,15.610104659167
$GNHDT,354.701,T*2F
$PYRTM,2024,124.500463093044,15.610110503183
$GNGGA,120040.00,3535.45946634,N,12143.53991147,W,2,12,0.9,6.548,M,-37.129,M,7.0,0135*67
$PYRTM,2024,124.500463093044,15.610110503183
$GNHDT,354.823,T*20
$PYRTM,2024,124.500468825451,15.610116235602
$GNGGA,120040.50,3535.46037937,N,12143.53987829,W,2,12,0.9,6.807,M,-37.129,M,7.4,0135*66
$PYRTM,2024,124.500468825451,15.610116235602
$GNHDT,354.833,T*21
$PYRTM,2024,124.500474664201,15.610122074340
$GNGGA,120041.00,3535.46127031,N,12143.53985702,W,2,12,0.9,7.094,M,-37.129,M,7.0,0135*6E
$PYRTM,2024,124.500474664201,15.610122074340
$GNHDT,355.186,T*27
$PYRTM,2024,124.500480400058,15.610127810197
$GNGGA,120041.50,3535.46222058,N,12143.53987928,W,2,12,0.9,7.177,M,-37.128,M,7.4,0135*6F
$PYRTM,2024,124.500480400058,15.610127810197
$GNHDT,355.369,T*24
$PYRTM,2024,124.500486237546,15.610133647685
$GNGGA,120042.00,3535.46327269,N,12143.53994300,W,2,12,0.9,6.972,M,-37.128,M,7.0,0135*67
$PYRTM,2024,124.500486237546,15.610133647685
$GNHDT,355.320,T*29
$PYRTM,2024,124.500491971574,15.610139381713
$GNGGA,120042.50,3535.46436367,N,12143.54006576,W,2,12,0.9,6.569,M,-37.128,M,7.4,0135*6A
$PYRTM,2024,124.500491971574,15.610139381713
$GNHDT,355.264,T*28
$PYRTM,2024,124.500497811528,15.610145221667
$GNGGA,120043.00,3535.46542217,N,12143.54026153,W,2,12,0.9,6.172,M,-37.128,M,4.0,0135*62
$PYRTM,2024,124.500497811528,15.610145221667
$GNHDT,354.950,T*25
$PYRTM,2024,124.500503541748,15.610150951898
$GNGGA,120043.50,3535.46639258,N,12143.54045653,W,2,12,0.9,6.026,M,-37.128,M,4.4,0135*65
$PYRTM,2024,124.500503541748,15.610150951898
$GNHDT,354.903,T*23
$PYRTM,2024,124.500509386944,15.610156797083
$GNGGA,120044.00,3535.46727837,N,12143.54059099,W,2,12,0.9,6.214,M,-37.128,M,5.0,0135*61
$PYRTM,2024,124.500509386944,15.610156797083
$GNHDT,354.833,T*21
$PYRTM,2024,124.500515117894,15.610162528032
$GNGGA,120044.50,3535.46813917,N,12143.54063963,W,2,12,0.9,6.569,M,-37.128,M,5.4,0135*63
$PYRTM,2024,124.500515117894,15.610162528032
$GNHDT,355.200,T*2A
$PYRTM,2024,124.500520960012,15.610168370150
$GNGGA,120045.00,3535.46903140,N,12143.54060432,W,2,12,0.9,6.937,M,-37.128,M,6.0,0135*67
$PYRTM,2024,124.500520960012,15.610168370150
$GNHDT,355.410,T*2D
$PYRTM,2024,124.500526696690,15.610174106829
$GNGGA,120045.50,3535.46999449,N,12143.54046105,W,2,12,0.9,7.139,M,-37.128,M,6.4,0135*6B
$PYRTM,2024,124.500526696690,15.610174106829
$GNHDT,355.507,T*2A
$PYRTM,2024,124.500532537697,15.610179947836
$GNGGA,120046.00,3535.47100058,N,12143.54030626,W,2,12,0.9,7.138,M,-37.128,M,7.0,0135*63
$PYRTM,2024,124.500532537697,15.610179947836
$GNHDT,355.865,T*23
$PYRTM,2024,124.500538271644,15.610185681782
$GNGGA,120046.50,3535.47202474,N,12143.54022767,W,2,12,0.9,6.946,M,-37.128,M,7.4,0135*6E
$PYRTM,2024,124.500538271644,15.610185681782
$GNHDT,355.744,T*2F
$PYRTM,2024,124.500544105150,15.610191515289
$GNGGA,120047.00,3535.47304563,N,12143.54026873,W,2,12,0.9,6.665,M,-37.128,M,7.0,0135*6E
$PYRTM,2024,124.500544105150,15.610191515289
$GNHDT,355.745,T*2E
$PYRTM,2024,124.500549836632,15.610197246771
$GNGGA,120047.50,3535.47404605,N,12143.54040594,W,2,12,0.9,6.444,M,-37.128,M,7.4,0135*6E
$PYRTM,2024,124.500549836632,15.610197246771
$GNHDT,355.982,T*2B
$PYRTM,2024,124.500555679063,15.610203089201
$GNGGA,120048.00,3535.47503899,N,12143.54064491,W,2,12,0.9,6.289,M,-37.128,M,7.0,0135*68
$PYRTM,2024,124.500555679063,15.610203089201
$GNHDT,355.567,T*2C
$PYRTM,2024,124.500561413299,15.610208823437
$GNGGA,120048.50,3535.47602453,N,12143.54092938,W,2,12,0.9,6.266,M,-37.128,M,7.4,0135*67
$PYRTM,2024,124.500561413299,15.610208823437
$GNHDT,355.379,T*25
$PYRTM,2024,124.500567252836,15.610214662975
$GNGGA,120049.00,3535.47699400,N,12143.54112987,W,2,12,0.9,6.375,M,-37.128,M,4.0,0135*6E
$PYRTM,2024,124.500567252836,15.610214662975
$GNHDT,355.137,T*2D
$PYRTM,2024,124.500572986736,15.610220396875
$GNGGA,120049.50,3535.47796500,N,12143.54122853,W,2,12,0.9,6.545,M,-37.127,M,4.4,0135*61
$PYRTM,2024,124.500572986736,15.610220396875
$GNHDT,355.219,T*22
$PYRTM,2024,124.500578828843,15.610226238981
$GNGGA,120050.00,3535.47894368,N,12143.54119431,W,2,12,0.9,6.719,M,-37.127,M,5.0,0135*67
$PYRTM,2024,124.500578828843,15.610226238981
$GNHDT,355.173,T*2D
$PYRTM,2024,124.500584560926,15.610231971065
$GNGGA,120050.50,3535.47992259,N,12143.54107538,W,2,12,0.9,6.840,M,-37.127,M,5.4,0135*66
$PYRTM,2024,124.500584560926,15.610231971065
$GNHDT,355.356,T*28
$PYRTM,2024,124.500590405023,15.610237815162
$GNGGA,120051.00,3535.48089272,N,12143.54087603,W,2,12,0.9,6.929,M,-37.127,M,6.0,0135*6C
$PYRTM,2024,124.500590405023,15.610237815162
$GNHDT,355.445,T*2D
$PYRTM,2024,124.500596140127,15.610243550266
$GNGGA,120051.50,3535.48188503,N,12143.54071422,W,2,12,0.9,6.894,M,-37.127,M,6.4,0135*63
$PYRTM,2024,124.500596140127,15.610243550266
$GNHDT,355.123,T*28
$PYRTM,2024,124.500601976910,15.610249387049
$GNGGA,120052.00,3535.48290844,N,12143.54066885,W,2,12,0.9,6.726,M,-37.127,M,7.0,0135*65
$PYRTM,2024,124.500601976910,15.610249387049
$GNHDT,355.145,T*28
$PYRTM,2024,124.500607712894,15.610255123032
$GNGGA,120052.50,3535.48396250,N,12143.54083476,W,2,12,0.9,6.426,M,-37.127,M,7.4,0135*64
$PYRTM,2024,124.500607712894,15.610255123032
$GNHDT,355.375,T*29
$PYRTM,2024,124.500613551227,15.610260961377
$GNGGA,120053.00,3535.48500876,N,12143.54112625,W,2,12,0.9,6.095,M,-37.127,M,7.0,0135*62
$PYRTM,2024,124.500613551227,15.610260961377
$GNHDT,355.372,T*2E
$PYRTM,2024,124.500619288137,15.610266698275
$GNGGA,120053.50,3535.48597727,N,12143.54146319,W,2,12,0.9,5.947,M,-37.127,M,7.4,0135*68
$PYRTM,2024,124.500619288137,15.610266698275
$GNHDT,355.195,T*25
$PYRTM,2024,124.500625124803,15.610272534942
$GNGGA,120054.00,3535.48686533,N,12143.54172424,W,2,12,0.9,6.096,M,-37.127,M,7.0,0135*62
$PYRTM,2024,124.500625124803,15.610272534942
$GNHDT,355.480,T*24
$PYRTM,2024,124.500630862627,15.610278272766
$GNGGA,120054.50,3535.48771142,N,12143.54183226,W,2,12,0.9,6.375,M,-37.127,M,7.4,0135*6C
$PYRTM,2024,124.500630862627,15.610278272766
$GNHDT,355.675,T*2C
$PYRTM,2024,124.500636704699,15.610284114850
$GNGGA,120055.00,3535.48856619,N,12143.54173195,W,2,12,0.9,6.717,M,-37.127,M,4.0,0135*68
$PYRTM,2024,124.500636704699,15.610284114850
$GNHDT,356.065,T*28
$PYRTM,2024,124.500642434722,15.610289844873
$GNGGA,120055.50,3535.48951767,N,12143.54149594,W,2,12,0.9,6.844,M,-37.127,M,4.4,0135*62
$PYRTM,2024,124.500642434722,15.610289844873
$GNHDT,355.848,T*2C
$PYRTM,2024,124.500648274988,15.610295685139
$GNGGA,120056.00,3535.49056382,N,12143.54129615,W,2,12,0.9,6.616,M,-37.127,M,5.0,0135*64
$PYRTM,2024,124.500648274988,15.610295685139
$GNHDT,355.819,T*28
$PYRTM,2024,124.500654012350,15.610301422488
$GNGGA,120056.50,3535.49164652,N,12143.54121372,W,2,12,0.9,6.219,M,-37.127,M,5.4,0135*6A
$PYRTM,2024,124.500654012350,15.610301422488
$GNHDT,355.853,T*26
$PYRTM,2024,124.500659845602,15.610307255741
$GNGGA,120057.00,3535.49270434,N,12143.54127510,W,2,12,0.9,5.811,M,-37.127,M,6.0,0135*68
$PYRTM,2024,124.500659845602,15.610307255741
$GNHDT,355.651,T*2A
$PYRTM,2024,124.500665578900,15.610312989039
$GNGGA,120057.50,3535.49368157,N,12143.54145416,W,2,12,0.9,5.715,M,-37.126,M,6.4,0135*68
$PYRTM,2024,124.500665578900,15.610312989039
$GNHDT,355.488,T*2C
$PYRTM,2024,124.500671418241,15.610318828380
$GNGGA,120058.00,3535.49458126,N,12143.54176184,W,2,12,0.9,5.950,M,-37.126,M,7.0,0135*64
$PYRTM,2024,124.500671418241,15.610318828380
$GNHDT,355.459,T*20
$PYRTM,2024,124.500677154456,15.610324564595
$GNGGA,120058.50,3535.49545247,N,12143.54208251,W,2,12,0.9,6.428,M,-37.126,M,7.4,0135*6C
$PYRTM,2024,124.500677154456,15.610324564595
$GNHDT,355.678,T*21
$PYRTM,2024,124.500682989306,15.610330399444
$GNGGA,120059.00,3535.49634030,N,12143.54230352,W,2,11,1.0,6.951,M,-37.126,M,7.0,0135*6A
$PYRTM,2024,124.500682989306,15.610330399444
$GNHDT,355.591,T*25
$PYRTM,2024,124.500688724826,15.610336134965
$GNGGA,120059.50,3535.49728705,N,12143.54233371,W,2,11,1.0,7.293,M,-37.126,M,7.4,0135*60
$PYRTM,2024,124.500688724826,15.610336134965
$GNHDT,355.518,T*24
$PYRTM,2024,124.500694565289,15.610341975428
$GNGGA,120100.00,3535.49829867,N,12143.54220830,W,2,11,1.0,7.349,M,-37.126,M,7.0,0135*63
$PYRTM,2024,124.500694565289,15.610341975428
$GNHDT,355.423,T*2D
$PYRTM,2024,124.500700308715,15.610347718866
$GNGGA,120100.50,3535.49936100,N,12143.54203887,W,2,11,1.0,7.118,M,-37.126,M,7.4,0135*6E
$PYRTM,2024,124.500700308715,15.610347718866
$GNHDT,355.217,T*2C
$PYRTM,2024,124.500706137604,15.610353547743
$GNGGA,120101.00,3535.50043082,N,12143.54191028,W,2,11,1.0,6.641,M,-37.126,M,4.0,0135*6A
$PYRTM,2024,124.500706137604,15.610353547743
$GNHDT,354.968,T*2E
$PYRTM,2024,124.500711877002,15.610359287141
$GNGGA,120101.50,3535.50146282,N,12143.54187978,W,2,11,1.0,6.182,M,-37.126,M,4.4,0135*6E
$PYRTM,2024,124.500711877002,15.610359287141
$GNHDT,355.015,T*2C
$PYRTM,2024,124.500717710150,15.610365120289
$GNGGA,120102.00,3535.50244872,N,12143.54196861,W,2,11,1.0,5.832,M,-37.126,M,5.0,0135*61
$PYRTM,2024,124.500717710150,15.610365120289
$GNHDT,354.741,T*2B
$PYRTM,2024,124.500723450810,15.610370860949
$GNGGA,120102.50,3535.50338482,N,12143.54219537,W,2,11,1.0,5.784,M,-37.126,M,5.4,0135*61
$PYRTM,2024,124.500723450810,15.610370860949
$GNHDT,354.541,T*29
$PYRTM,2024,124.500729285660,15.610376695799
$GNGGA,120103.00,3535.50428495,N,12143.54245454,W,2,11,1.0,5.967,M,-37.126,M,6.0,0135*6C
$PYRTM,2024,124.500729285660,15.610376695799
$GNHDT,354.393,T*20
$PYRTM,2024,124.500735028426,15.610382438565
$GNGGA,120103.50,3535.50517816,N,12143.54267087,W,2,11,1.0,6.289,M,-37.126,M,6.4,0135*65
$PYRTM,2024,124.500735028426,15.610382438565
$GNHDT,354.102,T*2A
$PYRTM,2024,124.500740867546,15.610388277685
$GNGGA,120104.00,3535.50608274,N,12143.54276533,W,2,11,1.0,6.628,M,-37.126,M,7.0,0135*64
$PYRTM,2024,124.500740867546,15.610388277685
$GNHDT,354.288,T*2B
$PYRTM,2024,124.500746596343,15.610394006481
$GNGGA,120104.50,3535.50702868,N,12143.54274290,W,2,11,1.0,6.858,M,-37.126,M,7.4,0135*6C
$PYRTM,2024,124.500746596343,15.610394006481
$GNHDT,354.570,T*2B
$PYRTM,2024,124.500752433264,15.610399843403
$GNGGA,120105.00,3535.50802806,N,12143.54264675,W,2,11,1.0,6.858,M,-37.126,M,7.0,0135*65
$PYRTM,2024,124.500752433264,15.610399843403
$GNHDT,354.750,T*2B
$PYRTM,2024,124.500758169213,15.610405579352
$GNGGA,120105.50,3535.50907165,N,12143.54255719,W,2,11,1.0,6.620,M,-37.126,M,7.4,0135*64
$PYRTM,2024,124.500758169213,15.610405579352
$GNHDT,354.581,T*25
$PYRTM,2024,124.500764009907,15.610411420046
$GNGGA,120106.00,3535.51010713,N,12143.54252728,W,2,11,1.0,6.278,M,-37.125,M,7.0,0135*60
$PYRTM,2024,124.500764009907,15.610411420046
$GNHDT,354.366,T*2A
$PYRTM,2024,124.500769745602,15.610417155741
$GNGGA,120106.50,3535.51110469,N,12143.54261024,W,2,11,1.0,5.990,M,-37.125,M,7.4,0135*6B
$PYRTM,2024,124.500769745602,15.610417155741
$GNHDT,354.229,T*20
$PYRTM,2024,124.500775585914,15.610422996065
$GNGGA,120107.00,3535.51205846,N,12143.54277423,W,2,11,1.0,5.867,M,-37.125,M,4.0,0135*63
$PYRTM,2024,124.500775585914,15.610422996065
$GNHDT,354.217,T*2D
$PYRTM,2024,124.500781317465,15.610428727604
$GNGGA,120107.50,3535.51298852,N,12143.54297264,W,2,11,1.0,5.909,M,-37.125,M,4.4,0135*61
$PYRTM,2024,124.500781317465,15.610428727604
$GNHDT,354.388,T*2A
$PYRTM,2024,124.500787160706,15.610434570845
$GNGGA,120108.00,3535.51391595,N,12143.54314242,W,2,11,1.0,6.016,M,-37.125,M,5.0,0135*6A
$PYRTM,2024,124.500787160706,15.610434570845
$GNHDT,354.640,T*2B
$PYRTM,2024,124.500792896690,15.610440306829
$GNGGA,120108.50,3535.51486789,N,12143.54327035,W,2,11,1.0,6.145,M,-37.125,M,5.4,0135*60
$PYRTM,2024,124.500792896690,15.610440306829
$GNHDT,354.621,T*2C
$PYRTM,2024,124.500798731458,15.610446141597
$GNGGA,120109.00,3535.51586478,N,12143.54336942,W,2,11,1.0,6.203,M,-37.125,M,6.0,0135*67
$PYRTM,2024,124.500798731458,15.610446141597
$GNHDT,354.488,T*2D
$PYRTM,2024,124.500804466840,15.610451876979
$GNGGA,120109.50,3535.51688963,N,12143.54344672,W,2,11,1.0,6.146,M,-37.125,M,6.4,0135*67
$PYRTM,2024,124.500804466840,15.610451876979
$GNHDT,354.314,T*2F
$PYRTM,2024,124.500810303507,15.610457713646
$GNGGA,120110.00,3535.51790131,N,12143.54349829,W,2,11,1.0,6.036,M,-37.125,M,7.0,0135*63
$PYRTM,2024,124.500810303507,15.610457713646
$GNHDT,354.393,T*20
$PYRTM,2024,124.500816044282,15.610463454421
$GNGGA,120110.50,3535.51886915,N,12143.54354107,W,2,11,1.0,5.972,M,-37.125,M,7.4,0135*67
$PYRTM,2024,124.500816044282,15.610463454421
$GNHDT,354.751,T*2A
$PYRTM,2024,124.500821876667,15.610469286806
$GNGGA,120111.00,3535.51980161,N,12143.54357836,W,2,11,1.0,5.975,M,-37.124,M,7.0,0135*65
$PYRTM,2024,124.500821876667,15.610469286806
$GNHDT,355.004,T*2C
$PYRTM,2024,124.500827613507,15.610475023646
$GNGGA,120111.50,3535.52072732,N,12143.54361462,W,2,11,1.0,6.044,M,-37.124,M,7.4,0135*63
$PYRTM,2024,124.500827613507,15.610475023646
$GNHDT,355.301,T*2A
$PYRTM,2024,124.500833451192,15.610480861331
$GNGGA,120112.00,3535.52166715,N,12143.54365247,W,2,11,1.0,6.097,M,-37.124,M,7.0,0135*6B
$PYRTM,2024,124.500833451192,15.610480861331
$GNHDT,355.455,T*2C
$PYRTM,2024,124.500839191262,15.610486601400
$GNGGA,120112.50,3535.52263966,N,12143.54369931,W,2,11,1.0,6.075,M,-37.124,M,7.4,0135*6C
$PYRTM,2024,124.500839191262,15.610486601400
$GNHDT,355.745,T*2E
$PYRTM,2024,124.500845026609,15.610492436748
$GNGGA,120113.00,3535.52363689,N,12143.54378385,W,2,11,1.0,6.019,M,-37.124,M,4.0,0135*6F
$PYRTM,2024,124.500845026609,15.610492436748
$GNHDT,355.793,T*25
$PYRTM,2024,124.500850766771,15.610498176910
$GNGGA,120113.50,3535.52462054,N,12143.54392790,W,2,11,1.0,5.965,M,-37.124,M,4.4,0135*6B
$PYRTM,2024,124.500850766771,15.610498176910
$GNHDT,355.555,T*2D
$PYRTM,2024,124.500856600255,15.610504010405
$GNGGA,120114.00,3535.52556879,N,12143.54406390,W,2,11,1.0,6.006,M,-37.124,M,5.0,0135*6C
$PYRTM,2024,124.500856600255,15.610504010405
$GNHDT,355.661,T*29
$PYRTM,2024,124.500862341562,15.610509751701
$GNGGA,120114.50,3535.52650618,N,12143.54416319,W,2,11,1.0,6.124,M,-37.124,M,5.4,0135*60
$PYRTM,2024,124.500862341562,15.610509751701
$GNHDT,355.918,T*28
$PYRTM,2024,124.500868174225,15.610515584363
$GNGGA,120115.00,3535.52747640,N,12143.54420905,W,2,11,1.0,6.221,M,-37.124,M,6.0,0135*6D
$PYRTM,2024,124.500868174225,15.610515584363
$GNHDT,356.115,T*2E
$PYRTM,2024,124.500873912755,15.610521322905
$GNGGA,120115.50,3535.52850355,N,12143.54422667,W,2,11,1.0,6.205,M,-37.124,M,6.4,0135*6B
$PYRTM,2024,124.500873912755,15.610521322905
$GNHDT,356.069,T*24
$PYRTM,2024,124.500879749421,15.610527159560
$GNGGA,120116.00,3535.52957960,N,12143.54419260,W,2,11,1.0,6.064,M,-37.124,M,7.0,0135*6C
$PYRTM,2024,124.500879749421,15.610527159560
$GNHDT,356.039,T*21
$PYRTM,2024,124.500885492569,15.610532902708
$GNGGA,120116.50,3535.53064061,N,12143.54419325,W,2,11,1.0,5.923,M,-37.124,M,7.4,0135*64
$PYRTM,2024,124.500885492569,15.610532902708
$GNHDT,355.793,T*25
$PYRTM,2024,124.500891325127,15.610538735278
$GNGGA,120117.00,3535.53163555,N,12143.54424647,W,2,11,1.0,5.923,M,-37.124,M,7.0,0135*6F
$PYRTM,2024,124.500891325127,15.610538735278
$GNHDT,355.764,T*2D
$PYRTM,2024,124.500897061308,15.610544471447
$GNGGA,120117.50,3535.53256915,N,12143.54429254,W,2,11,1.0,6.090,M,-37.124,M,7.4,0135*6A
$PYRTM,2024,124.500897061308,15.610544471447
$GNHDT,356.081,T*22
$PYRTM,2024,124.500902899606,15.610550309745
$GNGGA,120118.00,3535.53347762,N,12143.54431186,W,2,11,1.0,6.341,M,-37.124,M,7.0,0135*61
$PYRTM,2024,124.500902899606,15.610550309745
$GNHDT,356.417,T*29
$PYRTM,2024,124.500908632755,15.610556042894
$GNGGA,120118.50,3535.53440642,N,12143.54436376,W,2,11,1.0,6.514,M,-37.124,M,7.4,0135*6F
$PYRTM,2024,124.500908632755,15.610556042894
$GNHDT,356.801,T*22
$PYRTM,2024,124.500914471759,15.610561881910
$GNGGA,120119.00,3535.53540744,N,12143.54437790,W,2,11,1.0,6.456,M,-37.123,M,4.0,0135*67
$PYRTM,2024,124.500914471759,15.610561881910
$GNHDT,356.915,T*26
$PYRTM,2024,124.500920214317,15.610567624456
$GNGGA,120119.50,3535.53646990,N,12143.54435659,W,2,11,1.0,6.156,M,-37.123,M,4.4,0135*67
$PYRTM,2024,124.500920214317,15.610567624456
$GNHDT,357.078,T*25
$PYRTM,2024,124.500926053750,15.610573463889
$GNGGA,120120.00,3535.53753229,N,12143.54438641,W,2,11,1.0,5.784,M,-37.123,M,5.0,0135*6F
$PYRTM,2024,124.500926053750,15.610573463889
$GNHDT,356.894,T*2E
$PYRTM,2024,124.500931780486,15.610579190625
$GNGGA,120120.50,3535.53854933,N,12143.54445397,W,2,11,1.0,5.504,M,-37.123,M,5.4,0135*68
$PYRTM,2024,124.500931780486,15.610579190625
$GNHDT,356.552,T*29
$PYRTM,2024,124.500937624259,15.610585034398
$GNGGA,120121.00,3535.53948169,N,12143.54456603,W,2,11,1.0,5.501,M,-37.123,M,6.0,0135*6F
$PYRTM,2024,124.500937624259,15.610585034398
$GNHDT,356.563,T*2B
$PYRTM,2024,124.500943356991,15.610590767130
$GNGGA,120121.50,3535.54037044,N,12143.54468014,W,2,11,1.0,5.698,M,-37.123,M,6.4,0135*68
$PYRTM,2024,124.500943356991,15.610590767130
$GNHDT,356.425,T*28
$PYRTM,2024,124.500949197662,15.610596607801
$GNGGA,120122.00,3535.54126686,N,12143.54479570,W,2,11,1.0,5.983,M,-37.123,M,7.0,0135*60
$PYRTM,2024,124.500949197662,15.610596607801
$GNHDT,356.675,T*2F
$PYRTM,2024,124.500954928322,15.610602338472
$GNGGA,120122.50,3535.54224586,N,12143.54485662,W,2,11,1.0,6.168,M,-37.123,M,7.4,0135*6E
$PYRTM,2024,124.500954928322,15.610602338472
$GNHDT,356.677,T*2D
$PYRTM,2024,124.500960767523,15.610608177662
$GNGGA,120123.00,3535.54329559,N,12143.54486108,W,2,11,1.0,6.186,M,-37.123,M,7.0,0135*68
$PYRTM,2024,124.500960767523,15.610608177662
$GNHDT,356.291,T*21
$PYRTM,2024,124.500966508380,15.610613918519
$GNGGA,120123.50,3535.54435437,N,12143.54480904,W,2,11,1.0,6.093,M,-37.123,M,7.4,0135*6D
$PYRTM,2024,124.500966508380,15.610613918519
$GNHDT,355.808,T*28
$PYRTM,2024,124.500972343715,15.610619753854
$GNGGA,120124.00,3535.54538489,N,12143.54475563,W,2,11,1.0,5.982,M,-37.123,M,7.0,0135*6F
$PYRTM,2024,124.500972343715,15.610619753854
$GNHDT,355.879,T*2E
$PYRTM,2024,124.500978079294,15.610625489433
$GNGGA,120124.50,3535.54637634,N,12143.54470292,W,2,11,1.0,5.975,M,-37.123,M,7.4,0135*62
$PYRTM,2024,124.500978079294,15.610625489433
$GNHDT,356.142,T*2C
$PYRTM,2024,124.500983915509,15.610631325660
$GNGGA,120125.00,3535.54735574,N,12143.54465699,W,2,11,1.0,6.055,M,-37.123,M,4.0,0135*66
$PYRTM,2024,124.500983915509,15.610631325660
$GNHDT,356.307,T*2F
$PYRTM,2024,124.500989659479,15.610637069618
$GNGGA,120125.50,3535.54835319,N,12143.54463619,W,2,11,1.0,6.128,M,-37.123,M,4.4,0135*60
$PYRTM,2024,124.500989659479,15.610637069618
$GNHDT,356.498,T*2E
$PYRTM,2024,124.500995491771,15.610642901910
$GNGGA,120126.00,3535.54938213,N,12143.54465814,W,2,11,1.0,6.126,M,-37.123,M,5.0,0135*6F
$PYRTM,2024,124.500995491771,15.610642901910
$GNHDT,356.398,T*29
$PYRTM,2024,124.501001231748,15.610648641875
$GNGGA,120126.50,3535.55039548,N,12143.54474570,W,2,11,1.0,6.113,M,-37.123,M,5.4,0135*67
$PYRTM,2024,124.501001231748,15.610648641875
$GNHDT,356.303,T*2B
$PYRTM,2024,124.501007067118,15.610654477257
$GNGGA,120127.00,3535.55137784,N,12143.54488171,W,2,11,1.0,6.104,M,-37.122,M,6.0,0135*68
$PYRTM,2024,124.501007067118,15.610654477257
$GNHDT,356.163,T*2F
$PYRTM,2024,124.501012804097,15.610660214248
$GNGGA,120127.50,3535.55234932,N,12143.54502385,W,2,11,1.0,6.107,M,-37.122,M,6.4,0135*63
$PYRTM,2024,124.501012804097,15.610660214248
$GNHDT,355.894,T*2D
$PYRTM,2024,124.501018640313,15.610666050451
$GNGGA,120128.00,3535.55335679,N,12143.54512893,W,2,11,1.0,6.011,M,-37.122,M,7.0,0135*67
$PYRTM,2024,124.501018640313,15.610666050451
$GNHDT,355.625,T*29
$PYRTM,2024,124.501024382222,15.610671792361
$GNGGA,120128.50,3535.55441293,N,12143.54519803,W,2,11,1.0,5.806,M,-37.122,M,7.4,0135*6D
$PYRTM,2024,124.501024382222,15.610671792361
$GNHDT,355.759,T*23
$PYRTM,2024,124.501030215139,15.610677625278
$GNGGA,120129.00,3535.55546792,N,12143.54518788,W,2,11,1.0,5.579,M,-37.122,M,7.0,0135*67
$PYRTM,2024,124.501030215139,15.610677625278
$GNHDT,355.777,T*2F
$PYRTM,2024,124.501035956262,15.610683366400
$GNGGA,120129.50,3535.55648106,N,12143.54514874,W,2,11,1.0,5.464,M,-37.122,M,7.4,0135*6D
$PYRTM,2024,124.501035956262,15.610683366400
$GNHDT,355.716,T*28
$PYRTM,2024,124.501041787674,15.610689197812
$GNGGA,120130.00,3535.55743833,N,12143.54510525,W,2,11,1.0,5.520,M,-37.122,M,7.0,0135*6D
$PYRTM,2024,124.501041787674,15.610689197812
$GNHDT,355.621,T*2D
$PYRTM,2024,124.501047521748,15.610694931887
$GNGGA,120130.50,3535.55837279,N,12143.54510901,W,2,11,1.0,5.712,M,-37.122,M,7.4,0135*6D
$PYRTM,2024,124.501047521748,15.610694931887
$GNHDT,355.671,T*28
$PYRTM,2024,124.501053360150,15.610700770289
$GNGGA,120131.00,3535.55930434,N,12143.54515447,W,2,11,1.0,5.962,M,-37.122,M,4.0,0135*64
$PYRTM,2024,124.501053360150,15.610700770289
$GNHDT,355.736,T*2A
$PYRTM,2024,124.501059097766,15.610706507905
$GNGGA,120131.50,3535.56026542,N,12143.54523553,W,2,11,1.0,6.154,M,-37.122,M,4.4,0135*67
$PYRTM,2024,124.501059097766,15.610706507905
$GNHDT,355.607,T*29
$PYRTM,2024,124.501064934838,15.610712344977
$GNGGA,120132.00,3535.56125165,N,12143.54533751,W,2,11,1.0,6.223,M,-37.122,M,5.0,0135*65
$PYRTM,2024,124.501064934838,15.610712344977
$GNHDT,355.425,T*2B
$PYRTM,2024,124.501070677627,15.610718087766
$GNGGA,120132.50,3535.56227567,N,12143.54544010,W,2,11,1.0,6.120,M,-37.122,M,5.4,0135*61
$PYRTM,2024,124.501070677627,15.610718087766
$GNHDT,355.487,T*23
$PYRTM,2024,124.501076512153,15.610723922303
$GNGGA,120133.00,3535.56334528,N,12143.54559066,W,2,11,1.0,5.809,M,-37.122,M,6.0,0135*66
$PYRTM,2024,124.501076512153,15.610723922303
$GNHDT,355.232,T*2B
$PYRTM,2024,124.501082245995,15.610729656134
$GNGGA,120133.50,3535.56441002,N,12143.54575320,W,2,11,1.0,5.478,M,-37.122,M,6.4,0135*6A
$PYRTM,2024,124.501082245995,15.610729656134
$GNHDT,355.139,T*23
$PYRTM,2024,124.501088084259,15.610735494398
$GNGGA,120134.00,3535.56540979,N,12143.54590402,W,2,11,1.0,5.317,M,-37.122,M,7.0,0135*6A
$PYRTM,2024,124.501088084259,15.610735494398
$GNHDT,355.087,T*27
$PYRTM,2024,124.501093827604,15.610741237755
$GNGGA,120134.50,3535.56633869,N,12143.54599297,W,2,11,1.0,5.417,M,-37.122,M,7.4,0135*68
$PYRTM,2024,124.501093827604,15.610741237755
$GNHDT,355.327,T*2E
$PYRTM,2024,124.501099656829,15.610747066968
$GNGGA,120135.00,3535.56722353,N,12143.54599730,W,2,11,1.0,5.763,M,-37.121,M,7.0,0135*60
$PYRTM,2024,124.501099656829,15.610747066968
$GNHDT,355.574,T*2E
$PYRTM,2024,124.501105396204,15.610752806343
$GNGGA,120135.50,3535.56814487,N,12143.54592576,W,2,11,1.0,6.096,M,-37.121,M,7.4,0135*60
$PYRTM,2024,124.501105396204,15.610752806343
$GNHDT,355.793,T*25
$PYRTM,2024,124.501111232222,15.610758642361
$GNGGA,120136.00,3535.56911658,N,12143.54582306,W,2,11,1.0,6.327,M,-37.121,M,7.0,0135*6F
$PYRTM,2024,124.501111232222,15.610758642361
$GNHDT,355.907,T*26
$PYRTM,2024,124.501116966400,15.610764376539
$GNGGA,120136.50,3535.57012008,N,12143.54573525,W,2,11,1.0,6.407,M,-37.121,M,7.4,0135*6A
$PYRTM,2024,124.501116966400,15.610764376539
$GNHDT,355.934,T*26
$PYRTM,2024,124.501122811331,15.610770221470
$GNGGA,120137.00,3535.57112712,N,12143.54574466,W,2,11,1.0,6.333,M,-37.121,M,4.0,0135*65
$PYRTM,2024,124.501122811331,15.610770221470
$GNHDT,356.088,T*2B
$PYRTM,2024,124.501128549062,15.610775959201
$GNGGA,120137.50,3535.57212948,N,12143.54584876,W,2,11,1.0,6.169,M,-37.121,M,4.4,0135*69
$PYRTM,2024,124.501128549062,15.610775959201
$GNHDT,355.814,T*25
$PYRTM,2024,124.501134379884,15.610781790023
$GNGGA,120138.00,3535.57312772,N,12143.54605574,W,2,11,1.0,5.937,M,-37.121,M,5.0,0135*65
$PYRTM,2024,124.501134379884,15.610781790023
$GNHDT,355.819,T*28
$PYRTM,2024,124.501140115775,15.610787525914
$GNGGA,120138.50,3535.57413479,N,12143.54631388,W,2,11,1.0,5.701,M,-37.121,M,5.4,0135*63
$PYRTM,2024,124.501140115775,15.610787525914
$GNHDT,355.702,T*2D
$PYRTM,2024,124.501145955255,15.610793365394
$GNGGA,120139.00,3535.57512534,N,12143.54655802,W,2,11,1.0,5.577,M,-37.121,M,6.0,0135*60
$PYRTM,2024,124.501145955255,15.610793365394
$GNHDT,355.356,T*28
$PYRTM,2024,124.501151689201,15.610799099340
$GNGGA,120139.50,3535.57607455,N,12143.54666695,W,2,11,1.0,5.625,M,-37.121,M,6.4,0135*64
$PYRTM,2024,124.501151689201,15.610799099340
$GNHDT,355.462,T*28
$PYRTM,2024,124.501157528819,15.610804938970
$GNGGA,120140.00,3535.57698119,N,12143.54664474,W,2,11,1.0,5.856,M,-37.121,M,7.0,0135*64
$PYRTM,2024,124.501157528819,15.610804938970
$GNHDT,355.360,T*2D
$PYRTM,2024,124.501163270764,15.610810680903
$GNGGA,120140.50,3535.57789995,N,12143.54653556,W,2,11,1.0,6.127,M,-37.121,M,7.4,0135*61
$PYRTM,2024,124.501163270764,15.610810680903
$GNHDT,355.720,T*2D
$PYRTM,2024,124.501169105046,15.610816515185
$GNGGA,120141.00,3535.57888317,N,12143.54643034,W,2,11,1.0,6.264,M,-37.121,M,7.0,0135*6B
$PYRTM,2024,124.501169105046,15.610816515185
$GNHDT,355.590,T*24
$PYRTM,2024,124.501174841875,15.610822252014
$GNGGA,120141.50,3535.57993380,N,12143.54638294,W,2,11,1.0,6.169,M,-37.121,M,7.4,0135*65
$PYRTM,2024,124.501174841875,15.610822252014
$GNHDT,355.473,T*28
$PYRTM,2024,124.501180674074,15.610828084213
$GNGGA,120142.00,3535.58100331,N,12143.54643630,W,2,11,1.0,5.937,M,-37.121,M,7.0,0135*66
$PYRTM,2024,124.501180674074,15.610828084213
$GNHDT,355.326,T*2F
$PYRTM,2024,124.501186416053,15.610833826192
$GNGGA,120142.50,3535.58205727,N,12143.54656517,W,2,11,1.0,5.712,M,-37.121,M,7.4,0135*69
$PYRTM,2024,124.501186416053,15.610833826192
$GNHDT,355.580,T*25
$PYRTM,2024,124.501192248519,15.610839658669
$GNGGA,120143.00,3535.58307152,N,12143.54675566,W,2,11,1.0,5.616,M,-37.120,M,4.0,0135*6E
$PYRTM,2024,124.501192248519,15.610839658669
$GNHDT,355.666,T*2E
$PYRTM,2024,124.501197988206,15.610845398345
$GNGGA,120143.50,3535.58401616,N,12143.54690060,W,2,11,1.0,5.744,M,-37.120,M,4.4,0135*67
$PYRTM,2024,124.501197988206,15.610845398345
$GNHDT,356.064,T*29
$PYRTM,2024,124.501203825382,15.610851235521
$GNGGA,120144.00,3535.58492432,N,12143.54693883,W,2,11,1.0,6.074,M,-37.120,M,5.0,0135*6F
$PYRTM,2024,124.501203825382,15.610851235521
$GNHDT,356.503,T*2D
$PYRTM,2024,124.501209558866,15.610856969005
$GNGGA,120144.50,3535.58583641,N,12143.54688771,W,2,11,1.0,6.417,M,-37.120,M,5.4,0135*60
$PYRTM,2024,124.501209558866,15.610856969005
$GNHDT,356.633,T*2D
$PYRTM,2024,124.501215397234,15.610862807373
$GNGGA,120145.00,3535.58681696,N,12143.54677522,W,2,11,1.0,6.593,M,-37.120,M,6.0,0135*61
$PYRTM,2024,124.501215397234,15.610862807373
$GNHDT,356.605,T*28
$PYRTM,2024,124.501221134769,15.610868544907
$GNGGA,120145.50,3535.58785637,N,12143.54671313,W,2,11,1.0,6.515,M,-37.120,M,6.4,0135*62
$PYRTM,2024,124.501221134769,15.610868544907
$GNHDT,356.510,T*2F
$PYRTM,2024,124.501226975451,15.610874385590
$GNGGA,120146.00,3535.58892016,N,12143.54675767,W,2,11,1.0,6.235,M,-37.120,M,7.0,0135*6B
$PYRTM,2024,124.501226975451,15.610874385590
$GNHDT,356.302,T*2A
$PYRTM,2024,124.501232711100,15.610880121238
$GNGGA,120146.50,3535.58999327,N,12143.54685844,W,2,11,1.0,5.873,M,-37.120,M,7.4,0135*6B
$PYRTM,2024,124.501232711100,15.610880121238
$GNHDT,355.762,T*2B
$PYRTM,2024,124.501238547963,15.610885958102
$GNGGA,120147.00,3535.59103227,N,12143.54698444,W,2,11,1.0,5.630,M,-37.120,M,7.0,0135*69
$PYRTM,2024,124.501238547963,15.610885958102
$GNHDT,355.652,T*29
$PYRTM,2024,124.501244285810,15.610891695949
$GNGGA,120147.50,3535.59198424,N,12143.54705771,W,2,11,1.0,5.675,M,-37.120,M,7.4,0135*6E
$PYRTM,2024,124.501244285810,15.610891695949
$GNHDT,355.935,T*27
$PYRTM,2024,124.501250120984,15.610897531123
$GNGGA,120148.00,3535.59288517,N,12143.54705698,W,2,11,1.0,5.977,M,-37.120,M,7.0,0135*68
$PYRTM,2024,124.501250120984,15.610897531123
$GNHDT,356.182,T*20
$PYRTM,2024,124.501255860637,15.610903270775
$GNGGA,120148.50,3535.59378012,N,12143.54697831,W,2,11,1.0,6.395,M,-37.119,M,7.4,0135*6F
$PYRTM,2024,124.501255860637,15.610903270775
$GNHDT,356.685,T*20
$PYRTM,2024,124.501261694734,15.610909104873
$GNGGA,120149.00,3535.59473770,N,12143.54688106,W,2,11,1.0,6.664,M,-37.119,M,4.0,0135*6B
$PYRTM,2024,124.501261694734,15.610909104873
$GNHDT,356.833,T*23
$PYRTM,2024,124.501267433912,15.610914844051
$GNGGA,120149.50,3535.59578593,N,12143.54681870,W,2,11,1.0,6.616,M,-37.119,M,4.4,0135*6B
$PYRTM,2024,124.501267433912,15.610914844051
$GNHDT,356.724,T*2A
$PYRTM,2024,124.501273272650,15.610920682789
$GNGGA,120150.00,3535.59688008,N,12143.54682246,W,2,11,1.0,6.317,M,-37.119,M,5.0,0135*60
$PYRTM,2024,124.501273272650,15.610920682789
$GNHDT,356.327,T*2D
$PYRTM,2024,124.501279006204,15.610926416343
$GNGGA,120150.50,3535.59797069,N,12143.54686742,W,2,11,1.0,5.939,M,-37.119,M,5.4,0135*69
$PYRTM,2024,124.501279006204,15.610926416343
$GNHDT,356.199,T*2A
$PYRTM,2024,124.501284841262,15.610932251400
$GNGGA,120151.00,3535.59899185,N,12143.54693994,W,2,11,1.0,5.661,M,-37.119,M,6.0,0135*6B
$PYRTM,2024,124.501284841262,15.610932251400
$GNHDT,356.337,T*2C
$PYRTM,2024,124.501290578414,15.610937988553
$GNGGA,120151.50,3535.59992497,N,12143.54700205,W,2,11,1.0,5.661,M,-37.119,M,6.4,0135*6E
$PYRTM,2024,124.501290578414,15.610937988553
$GNHDT,356.862,T*27
$PYRTM,2024,124.501296417882,15.610943828021
$GNGGA,120152.00,3535.60079031,N,12143.54701919,W,2,11,1.0,5.918,M,-37.119,M,7.0,0135*65
$PYRTM,2024,124.501296417882,15.610943828021
$GNHDT,357.130,T*28
$PYRTM,2024,124.501302152697,15.610949562836
$GNGGA,120152.50,3535.60165227,N,12143.54701930,W,2,11,1.0,6.251,M,-37.119,M,7.4,0135*63
$PYRTM,2024,124.501302152697,15.610949562836
$GNHDT,357.237,T*2C
$PYRTM,2024,124.501307991609,15.610955401748
$GNGGA,120153.00,3535.60255314,N,12143.54700272,W,2,11,1.0,6.490,M,-37.119,M,7.0,0135*65
$PYRTM,2024,124.501307991609,15.610955401748
$GNHDT,357.265,T*2B
$PYRTM,2024,124.501313734005,15.610961144144
$GNGGA,120153.50,3535.60352122,N,12143.54696229,W,2,11,1.0,6.445,M,-37.119,M,7.4,0135*6D
$PYRTM,2024,124.501313734005,15.610961144144
$GNHDT,357.400,T*2E
$PYRTM,2024,124.501319568148,15.610966978287
$GNGGA,120154.00,3535.60454431,N,12143.54692405,W,2,11,1.0,6.151,M,-37.119,M,7.0,0135*61
$PYRTM,2024,124.501319568148,15.610966978287
$GNHDT,357.603,T*2F
$PYRTM,2024,124.501325301678,15.610972711817
$GNGGA,120154.50,3535.60557936,N,12143.54690156,W,2,11,1.0,5.721,M,-37.119,M,7.4,0135*6B
$PYRTM,2024,124.501325301678,15.610972711817
$GNHDT,357.369,T*26
$PYRTM,2024,124.501331142975,15.610978553113
$GNGGA,120155.00,3535.60659002,N,12143.54690686,W,2,11,1.0,5.367,M,-37.119,M,4.0,0135*67
$PYRTM,2024,124.501331142975,15.610978553113
$GNHDT,357.316,T*2E
$PYRTM,2024,124.501336874769,15.610984284907
$GNGGA,120155.50,3535.60756354,N,12143.54696795,W,2,11,1.0,5.209,M,-37.119,M,4.4,0135*64
$PYRTM,2024,124.501336874769,15.610984284907
$GNHDT,356.899,T*23
$PYRTM,2024,124.501342715787,15.610990125926
$GNGGA,120156.00,3535.60849511,N,12143.54706918,W,2,11,1.0,5.322,M,-37.119,M,5.0,0135*6A
$PYRTM,2024,124.501342715787,15.610990125926
$GNHDT,356.763,T*29
$PYRTM,2024,124.501348455845,15.610995865984
$GNGGA,120156.50,3535.60942430,N,12143.54718532,W,2,11,1.0,5.565,M,-37.118,M,5.4,0135*6C
$PYRTM,2024,124.501348455845,15.610995865984
$GNHDT,356.901,T*23
$PYRTM,2024,124.501354285498,15.611001695637
$GNGGA,120157.00,3535.61038037,N,12143.54727124,W,2,11,1.0,5.877,M,-37.118,M,6.0,0135*68
$PYRTM,2024,124.501354285498,15.611001695637
$GNHDT,356.844,T*23
$PYRTM,2024,124.501360026100,15.611007436250
$GNGGA,120157.50,3535.61137774,N,12143.54729899,W,2,11,1.0,6.116,M,-37.118,M,6.4,0135*6B
$PYRTM,2024,124.501360026100,15.611007436250
$GNHDT,356.738,T*27
$PYRTM,2024,124.501365860544,15.611013270683
$GNGGA,120158.00,3535.61239126,N,12143.54725431,W,2,11,1.0,6.288,M,-37.118,M,7.0,0135*6E
$PYRTM,2024,124.501365860544,15.611013270683
$GNHDT,356.729,T*27
$PYRTM,2024,124.501371604155,15.611019014294
$GNGGA,120158.50,3535.61338698,N,12143.54716607,W,2,11,1.0,6.428,M,-37.118,M,7.4,0135*66
$PYRTM,2024,124.501371604155,15.611019014294
$GNHDT,356.675,T*2F
$PYRTM,2024,124.501377434178,15.611024844329
$GNGGA,120159.00,3535.61435540,N,12143.54707975,W,2,11,1.0,6.560,M,-37.118,M,7.0,0135*6D
$PYRTM,2024,124.501377434178,15.611024844329
$GNHDT,356.650,T*28
$PYRTM,2024,124.501383174028,15.611030584167
$GNGGA,120159.50,3535.61531123,N,12143.54700486,W,2,11,1.0,6.686,M,-37.118,M,7.4,0135*65
$PYRTM,2024,124.501383174028,15.611030584167
$GNHDT,356.512,T*2D
$PYRTM,2024,124.501389010544,15.611036420683
$GNGGA,120200.00,3535.61626886,N,12143.54698205,W,2,11,1.0,6.744,M,-37.118,M,7.0,0135*6A
$PYRTM,2024,124.501389010544,15.611036420683
$GNHDT,356.367,T*29
$PYRTM,2024,124.501394747118,15.611042157257
$GNGGA,120200.50,3535.61726123,N,12143.54704614,W,2,11,1.0,6.611,M,-37.118,M,7.4,0135*6D
$PYRTM,2024,124.501394747118,15.611042157257
$GNHDT,356.077,T*2B
$PYRTM,2024,124.501400582778,15.611047992917
$GNGGA,120201.00,3535.61829167,N,12143.54715101,W,2,11,1.0,6.313,M,-37.118,M,4.0,0135*6A
$PYRTM,2024,124.501400582778,15.611047992917
$GNHDT,355.804,T*24
$PYRTM,2024,124.501406328171,15.611053738310
$GNGGA,120201.50,3535.61934759,N,12143.54726280,W,2,11,1.0,5.941,M,-37.118,M,4.4,0135*69
$PYRTM,2024,124.501406328171,15.611053738310
$GNHDT,355.983,T*2A
$PYRTM,2024,124.501412156157,15.611059566296
$GNGGA,120202.00,3535.62039126,N,12143.54742015,W,2,11,1.0,5.576,M,-37.117,M,5.0,0135*68
$PYRTM,2024,124.501412156157,15.611059566296
$GNHDT,355.751,T*2B
$PYRTM,2024,124.501417893565,15.611065303704
$GNGGA,120202.50,3535.62138749,N,12143.54756264,W,2,11,1.0,5.420,M,-37.117,M,5.4,0135*65
$PYRTM,2024,124.501417893565,15.611065303704
$GNHDT,355.204,T*2E
$PYRTM,2024,124.501423735949,15.611071146088
$GNGGA,120203.00,3535.62232167,N,12143.54764619,W,2,11,1.0,5.562,M,-37.117,M,6.0,0135*6D
$PYRTM,2024,124.501423735949,15.611071146088
$GNHDT,355.189,T*28
$PYRTM,2024,124.501429473090,15.611076883229
$GNGGA,120203.50,3535.62321652,N,12143.54765388,W,2,11,1.0,5.901,M,-37.117,M,6.4,0135*6B
$PYRTM,2024,124.501429473090,15.611076883229
$GNHDT,355.591,T*25
$PYRTM,2024,124.501435307940,15.611082718079
$GNGGA,120204.00,3535.62412869,N,12143.54756842,W,2,11,1.0,6.309,M,-37.117,M,7.0,0135*61
$PYRTM,2024,124.501435307940,15.611082718079
$GNHDT,355.928,T*2B
$PYRTM,2024,124.501441049375,15.611088459514
$GNGGA,120204.50,3535.62511455,N,12143.54745264,W,2,11,1.0,6.562,M,-37.117,M,7.4,0135*66
$PYRTM,2024,124.501441049375,15.611088459514
$GNHDT,355.869,T*2F
$PYRTM,2024,124.501446878391,15.611094288530
$GNGGA,120205.00,3535.62617824,N,12143.54738204,W,2,11,1.0,6.580,M,-37.117,M,7.0,0135*69
$PYRTM,2024,124.501446878391,15.611094288530
$GNHDT,355.964,T*23
$PYRTM,2024,124.501452622847,15.611100032986
$GNGGA,120205.50,3535.62725967,N,12143.54737563,W,2,11,1.0,6.406,M,-37.117,M,7.4,0135*68
$PYRTM,2024,124.501452622847,15.611100032986
$GNHDT,355.722,T*2F
$PYRTM,2024,124.501458455463,15.611105865602
$GNGGA,120206.00,3535.62829601,N,12143.54745484,W,2,11,1.0,6.227,M,-37.117,M,7.0,0135*6E
$PYRTM,2024,124.501458455463,15.611105865602
$GNHDT,355.721,T*2C
$PYRTM,2024,124.501464190127,15.611111600266
$GNGGA,120206.50,3535.62926944,N,12143.54759822,W,2,11,1.0,6.178,M,-37.117,M,7.4,0135*6B
$PYRTM,2024,124.501464190127,15.611111600266
$GNHDT,356.206,T*2F
$PYRTM,2024,124.501470028137,15.611117438275
$GNGGA,120207.00,3535.63019664,N,12143.54775819,W,2,11,1.0,6.279,M,-37.117,M,4.0,0135*65
$PYRTM,2024,124.501470028137,15.611117438275
$GNHDT,356.204,T*2D
$PYRTM,2024,124.501475769248,15.611123179375
$GNGGA,120207.50,3535.63112410,N,12143.54791581,W,2,11,1.0,6.445,M,-37.117,M,4.4,0135*60
$PYRTM,2024,124.501475769248,15.611123179375
$GNHDT,356.235,T*2F
$PYRTM,2024,124.501481603356,15.611129013495
$GNGGA,120208.00,3535.63210130,N,12143.54801334,W,2,11,1.0,6.539,M,-37.117,M,5.0,0135*6D
$PYRTM,2024,124.501481603356,15.611129013495
$GNHDT,356.109,T*23
$PYRTM,2024,124.501487340023,15.611134750162
$GNGGA,120208.50,3535.63313877,N,12143.54805435,W,2,11,1.0,6.454,M,-37.117,M,5.4,0135*6C
$PYRTM,2024,124.501487340023,15.611134750162
$GNHDT,355.767,T*2E
$PYRTM,2024,124.501493177442,15.611140587581
$GNGGA,120209.00,3535.63418998,N,12143.54801176,W,2,11,1.0,6.291,M,-37.117,M,6.0,0135*6A
$PYRTM,2024,124.501493177442,15.611140587581
$GNHDT,355.478,T*23
$PYRTM,2024,124.501498910671,15.611146320822
$GNGGA,120209.50,3535.63521103,N,12143.54793226,W,2,11,1.0,6.150,M,-37.117,M,6.4,0135*66
$PYRTM,2024,124.501498910671,15.611146320822
$GNHDT,355.587,T*22
$PYRTM,2024,124.501504755660,15.611152165810
$GNGGA,120210.00,3535.63620199,N,12143.54779825,W,2,11,1.0,6.112,M,-37.116,M,7.0,0135*65
$PYRTM,2024,124.501504755660,15.611152165810
$GNHDT,355.598,T*2C
$PYRTM,2024,124.501510489896,15.611157900046
$GNGGA,120210.50,3535.63718618,N,12143.54768539,W,2,11,1.0,6.151,M,-37.116,M,7.4,0135*67
$PYRTM,2024,124.501510489896,15.611157900046
$GNHDT,355.380,T*23
$PYRTM,2024,124.501516325139,15.611163735278
$GNGGA,120211.00,3535.63819318,N,12143.54767359,W,2,11,1.0,6.157,M,-37.116,M,7.0,0135*65
$PYRTM,2024,124.501516325139,15.611163735278
$GNHDT,354.967,T*21
$PYRTM,2024,124.501522062523,15.611169472662
$GNGGA,120211.50,3535.63922662,N,12143.54776513,W,2,11,1.0,6.101,M,-37.116,M,7.4,0135*6E
$PYRTM,2024,124.501522062523,15.611169472662
$GNHDT,354.694,T*22
$PYRTM,2024,124.501527905370,15.611175315509
$GNGGA,120212.00,3535.64025055,N,12143.54796814,W,2,11,1.0,5.973,M,-37.116,M,7.0,0135*6D
$PYRTM,2024,124.501527905370,15.611175315509
$GNHDT,354.645,T*2E
$PYRTM,2024,124.501533638449,15.611181048588
$GNGGA,120212.50,3535.64123380,N,12143.54820567,W,2,11,1.0,5.870,M,-37.116,M,7.4,0135*69
$PYRTM,2024,124.501533638449,15.611181048588
$GNHDT,354.729,T*25
$PYRTM,2024,124.501539477257,15.611186887396
$GNGGA,120213.00,3535.64216086,N,12143.54839412,W,2,11,1.0,5.833,M,-37.116,M,4.0,0135*66
$PYRTM,2024,124.501539477257,15.611186887396
$GNHDT,355.183,T*22
$PYRTM,2024,124.501545207361,15.611192617500
$GNGGA,120213.50,3535.64302353,N,12143.54845588,W,2,11,1.0,5.947,M,-37.116,M,4.4,0135*63
$PYRTM,2024,124.501545207361,15.611192617500
$GNHDT,355.610,T*2F
$PYRTM,2024,124.501551047407,15.611198457546
$GNGGA,120214.00,3535.64385559,N,12143.54838947,W,2,11,1.0,6.133,M,-37.116,M,5.0,0135*6A
$PYRTM,2024,124.501551047407,15.611198457546
$GNHDT,356.156,T*29
$PYRTM,2024,124.501556784780,15.611204194919
$GNGGA,120214.50,3535.64472633,N,12143.54823871,W,2,11,1.0,6.259,M,-37.116,M,5.4,0135*6A
$PYRTM,2024,124.501556784780,15.611204194919
$GNHDT,356.733,T*2C
$PYRTM,2024,124.501562624282,15.611210034421
$GNGGA,120215.00,3535.64569237,N,12143.54810700,W,2,11,1.0,6.153,M,-37.116,M,6.0,0135*62
$PYRTM,2024,124.501562624282,15.611210034421
$GNHDT,357.060,T*2C
$PYRTM,2024,124.501568359468,15.611215769606
$GNGGA,120215.50,3535.64671547,N,12143.54804524,W,2,11,1.0,5.827,M,-37.116,M,6.4,0135*61
$PYRTM,2024,124.501568359468,15.611215769606
$GNHDT,356.650,T*28
$PYRTM,2024,124.501574196782,15.611221606921
$GNGGA,120216.00,3535.64773678,N,12143.54809393,W,2,11,1.0,5.446,M,-37.116,M,7.0,0135*62
$PYRTM,2024,124.501574196782,15.611221606921
$GNHDT,356.719,T*24
$PYRTM,2024,124.501579936667,15.611227346806
$GNGGA,120216.50,3535.64873553,N,12143.54822794,W,2,11,1.0,5.229,M,-37.116,M,7.4,0135*63
$PYRTM,2024,124.501579936667,15.611227346806
$GNHDT,356.688,T*2D
$PYRTM,2024,124.501585767859,15.611233177998
$GNGGA,120217.00,3535.64970320,N,12143.54840069,W,2,11,1.0,5.276,M,-37.116,M,7.0,0135*68
$PYRTM,2024,124.501585767859,15.611233177998
$GNHDT,356.687,T*22
$PYRTM,2024,124.501591512153,15.611238922303
$GNGGA,120217.50,3535.65065218,N,12143.54858791,W,2,11,1.0,5.562,M,-37.116,M,7.4,0135*64
$PYRTM,2024,124.501591512153,15.611238922303
$GNHDT,356.424,T*29
$PYRTM,2024,124.501597346794,15.611244756933
$GNGGA,120218.00,3535.65159756,N,12143.54876137,W,2,11,1.0,5.994,M,-37.115,M,7.0,0135*6B
$PYRTM,2024,124.501597346794,15.611244756933
$GNHDT,356.244,T*29
$PYRTM,2024,124.501603077998,15.611250488148
$GNGGA,120218.50,3535.65258184,N,12143.54889081,W,2,11,1.0,6.417,M,-37.115,M,7.4,0135*68
$PYRTM,2024,124.501603077998,15.611250488148
$GNHDT,355.700,T*2F
$PYRTM,2024,124.501608920579,15.611256330729
$GNGGA,120219.00,3535.65363383,N,12143.54894947,W,2,11,1.0,6.634,M,-37.115,M,4.0,0135*6B
$PYRTM,2024,124.501608920579,15.611256330729
$GNHDT,355.441,T*29
$PYRTM,2024,124.501614658947,15.611262069086
$GNGGA,120219.50,3535.65473662,N,12143.54892722,W,2,11,1.0,6.609,M,-37.115,M,4.4,0135*63
$PYRTM,2024,124.501614658947,15.611262069086
$GNHDT,355.286,T*24
$PYRTM,2024,124.501620492384,15.611267902523
$GNGGA,120220.00,3535.65586277,N,12143.54880921,W,2,11,1.0,6.394,M,-37.115,M,5.0,0135*6D
$PYRTM,2024,124.501620492384,15.611267902523
$GNHDT,355.263,T*2F
$PYRTM,2024,124.501626229653,15.611273639792
$GNGGA,120220.50,3535.65696890,N,12143.54867003,W,2,11,1.0,6.177,M,-37.115,M,5.4,0135*62
$PYRTM,2024,124.501626229653,15.611273639792
$GNHDT,354.820,T*23
$PYRTM,2024,124.501632069606,15.611279479745
$GNGGA,120221.00,3535.65800940,N,12143.54853567,W,2,11,1.0,6.070,M,-37.115,M,6.0,0135*6A
$PYRTM,2024,124.501632069606,15.611279479745
$GNHDT,354.805,T*24
$PYRTM,2024,124.501637800220,15.611285210359
$GNGGA,120221.50,3535.65896767,N,12143.54846200,W,2,11,1.0,6.150,M,-37.115,M,6.4,0135*6E
$PYRTM,2024,124.501637800220,15.611285210359
$GNHDT,355.402,T*2E
$PYRTM,2024,124.501643640035,15.611291050174
$GNGGA,120222.00,3535.65986993,N,12143.54843386,W,2,11,1.0,6.349,M,-37.115,M,7.0,0135*68
$PYRTM,2024,124.501643640035,15.611291050174
$GNHDT,355.717,T*29
$PYRTM,2024,124.501649374549,15.611296784688
$GNGGA,120222.50,3535.66076809,N,12143.54848966,W,2,11,1.0,6.489,M,-37.115,M,7.4,0135*6A
$PYRTM,2024,124.501649374549,15.611296784688
$GNHDT,356.163,T*2F
$PYRTM,2024,124.501655221123,15.611302631262
$GNGGA,120223.00,3535.66172347,N,12143.54861994,W,2,11,1.0,6.418,M,-37.115,M,7.0,0135*60
$PYRTM,2024,124.501655221123,15.611302631262
$GNHDT,356.235,T*2F
$PYRTM,2024,124.501660947546,15.611308357685
$GNGGA,120223.50,3535.66275378,N,12143.54879762,W,2,11,1.0,6.067,M,-37.115,M,7.4,0135*6B
$PYRTM,2024,124.501660947546,15.611308357685
$GNHDT,356.186,T*24
$PYRTM,2024,124.501666795035,15.611314205185
$GNGGA,120224.00,3535.66380818,N,12143.54896502,W,2,11,1.0,5.546,M,-37.115,M,7.0,0135*6B
$PYRTM,2024,124.501666795035,15.611314205185
$GNHDT,356.393,T*22
$PYRTM,2024,124.501672524861,15.611319935000
$GNGGA,120224.50,3535.66481263,N,12143.54908574,W,2,11,1.0,5.140,M,-37.115,M,7.4,0135*6F
$PYRTM,2024,124.501672524861,15.611319935000
$GNHDT,356.023,T*2A
$PYRTM,2024,124.501678366215,15.611325776354
$GNGGA,120225.00,3535.66570537,N,12143.54912804,W,2,11,1.0,5.057,M,-37.115,M,4.0,0135*63
$PYRTM,2024,124.501678366215,15.611325776354
$GNHDT,356.082,T*21
$PYRTM,2024,124.501684096366,15.611331506505
$GNGGA,120225.50,3535.66652976,N,12143.54906379,W,2,11,1.0,5.247,M,-37.115,M,4.4,0135*6F
$PYRTM,2024,124.501684096366,15.611331506505
$GNHDT,356.814,T*26
$PYRTM,2024,124.501689943796,15.611337353935
$GNGGA,120226.00,3535.66734351,N,12143.54893629,W,2,11,1.0,5.604,M,-37.114,M,5.0,0135*6D
$PYRTM,2024,124.501689943796,15.611337353935
$GNHDT,357.135,T*2D
$PYRTM,2024,124.501695675764,15.611343085903
$GNGGA,120226.50,3535.66822519,N,12143.54880298,W,2,11,1.0,5.918,M,-37.114,M,5.4,0135*60
$PYRTM,2024,124.501695675764,15.611343085903
$GNHDT,357.232,T*29
$PYRTM,2024,124.501701514722,15.611348924873
$GNGGA,120227.00,3535.66919968,N,12143.54874223,W,2,11,1.0,5.986,M,-37.114,M,6.0,0135*6C
$PYRTM,2024,124.501701514722,15.611348924873
$GNHDT,357.171,T*2D
$PYRTM,2024,124.501707247477,15.611354657627
$GNGGA,120227.50,3535.67021531,N,12143.54876916,W,2,11,1.0,5.886,M,-37.114,M,6.4,0135*60
$PYRTM,2024,124.501707247477,15.611354657627
$GNHDT,357.037,T*2E
$PYRTM,2024,124.501713086840,15.611360496979
$GNGGA,120228.00,3535.67121867,N,12143.54892949,W,2,11,1.0,5.706,M,-37.114,M,7.0,0135*67
$PYRTM,2024,124.501713086840,15.611360496979
$GNHDT,357.161,T*2C
$PYRTM,2024,124.501718821481,15.611366231620
$GNGGA,120228.50,3535.67217935,N,12143.54916250,W,2,11,1.0,5.581,M,-37.114,M,7.4,0135*65
$PYRTM,2024,124.501718821481,15.611366231620
$GNHDT,356.671,T*2B
$PYRTM,2024,124.501724666736,15.611372076875
