$PYRTM,2024,128.166666734826,19.276314144965
$GNGGA,040000.00,3300.35100898,N,11803.12806407,W,2,12,0.8,8.484,M,-37.185,M,14.0,0131*5A
$PYRTM,2024,128.166666734826,19.276314144965
$GNHDT,119.139,T*29
$PYRTM,2024,128.166672464606,19.276319874745
$GNGGA,040000.50,3300.35054400,N,11803.12724410,W,2,12,0.8,8.385,M,-37.185,M,14.4,0131*59
$PYRTM,2024,128.166672464606,19.276319874745
$GNHDT,119.013,T*20
$PYRTM,2024,128.166678308785,19.276325718924
$GNGGA,040001.00,3300.35006749,N,11803.12644784,W,2,12,0.8,8.337,M,-37.185,M,15.0,0131*51
$PYRTM,2024,128.166678308785,19.276325718924
$GNHDT,118.910,T*2B
$PYRTM,2024,128.166684034178,19.276331444317
$GNGGA,040001.50,3300.34959367,N,11803.12565931,W,2,12,0.8,8.331,M,-37.185,M,15.4,0131*5C
$PYRTM,2024,128.166684034178,19.276331444317
$GNHDT,118.994,T*27
$PYRTM,2024,128.166689885324,19.276337295463
$GNGGA,040002.00,3300.34914147,N,11803.12487172,W,2,12,0.8,8.350,M,-37.185,M,16.0,0131*51
$PYRTM,2024,128.166689885324,19.276337295463
$GNHDT,118.895,T*27
$PYRTM,2024,128.166695611898,19.276343022037
$GNGGA,040002.50,3300.34869402,N,11803.12407306,W,2,12,0.8,8.373,M,-37.185,M,16.4,0131*57
$PYRTM,2024,128.166695611898,19.276343022037
$GNHDT,118.932,T*2B
$PYRTM,2024,128.166701455822,19.276348865961
$GNGGA,040003.00,3300.34825075,N,11803.12326524,W,2,12,0.8,8.409,M,-37.185,M,17.0,0131*52
$PYRTM,2024,128.166701455822,19.276348865961
$GNHDT,118.918,T*23
$PYRTM,2024,128.166707183229,19.276354593368
$GNGGA,040003.50,3300.34779893,N,11803.12244907,W,2,12,0.8,8.443,M,-37.185,M,17.4,0131*53
$PYRTM,2024,128.166707183229,19.276354593368
$GNHDT,118.806,T*2D
$PYRTM,2024,128.166713029676,19.276360439815
$GNGGA,040004.00,3300.34734460,N,11803.12162959,W,2,12,0.8,8.512,M,-37.185,M,18.0,0131*5A
$PYRTM,2024,128.166713029676,19.276360439815
$GNHDT,118.828,T*21
$PYRTM,2024,128.166718759144,19.276366169282
$GNGGA,040004.50,3300.34688772,N,11803.12080431,W,2,12,0.8,8.589,M,-37.185,M,18.4,0131*51
$PYRTM,2024,128.166718759144,19.276366169282
$GNHDT,118.718,T*2D
$PYRTM,2024,128.166724604398,19.276372014537
$GNGGA,040005.00,3300.34643825,N,11803.11997240,W,2,12,0.8,8.686,M,-37.185,M,19.0,0131*5A
$PYRTM,2024,128.166724604398,19.276372014537
$GNHDT,118.548,T*2A
$PYRTM,2024,128.166730332685,19.276377742824
$GNGGA,040005.50,3300.34599718,N,11803.11913543,W,2,12,0.8,8.795,M,-37.185,M,19.4,0131*55
$PYRTM,2024,128.166730332685,19.276377742824
$GNHDT,118.305,T*25
$PYRTM,2024,128.166736179144,19.276383589282
$GNGGA,040006.00,3300.34556741,N,11803.11828963,W,2,12,0.8,8.908,M,-37.185,M,20.0,0131*5F
$PYRTM,2024,128.166736179144,19.276383589282
$GNHDT,118.327,T*25
$PYRTM,2024,128.166741906204,19.276389316343
$GNGGA,040006.50,3300.34513906,N,11803.11744132,W,2,12,0.8,9.004,M,-37.185,M,20.4,0131*5F
$PYRTM,2024,128.166741906204,19.276389316343
$GNHDT,118.465,T*24
$PYRTM,2024,128.166747754560,19.276395164699
$GNGGA,040007.00,3300.34471069,N,11803.11659137,W,2,12,0.8,9.069,M,-37.185,M,21.0,0131*58
$PYRTM,2024,128.166747754560,19.276395164699
$GNHDT,118.474,T*24
$PYRTM,2024,128.166753478484,19.276400888623
$GNGGA,040007.50,3300.34427338,N,11803.11574709,W,2,12,0.8,9.115,M,-37.185,M,21.4,0131*50
$PYRTM,2024,128.166753478484,19.276400888623
$GNHDT,118.571,T*20
$PYRTM,2024,128.166759328032,19.276406738171
$GNGGA,040008.00,3300.34383454,N,11803.11489762,W,2,12,0.8,9.128,M,-37.185,M,22.0,0131*59
$PYRTM,2024,128.166759328032,19.276406738171
$GNHDT,118.602,T*27
$PYRTM,2024,128.166765052963,19.276412463102
$GNGGA,040008.50,3300.34339602,N,11803.11404900,W,2,12,0.8,9.116,M,-37.185,M,22.4,0131*5A
$PYRTM,2024,128.166765052963,19.276412463102
$GNHDT,118.590,T*2F
$PYRTM,2024,128.166770900961,19.276418311100
$GNGGA,040009.00,3300.34297496,N,11803.11318720,W,2,12,0.8,9.087,M,-37.185,M,23.0,0131*5E
$PYRTM,2024,128.166770900961,19.276418311100
$GNHDT,118.449,T*2A
$PYRTM,2024,128.166776629213,19.276424039352
$GNGGA,040009.50,3300.34257942,N,11803.11232037,W,2,12,0.8,9.072,M,-37.185,M,23.4,0131*55
$PYRTM,2024,128.166776629213,19.276424039352
$GNHDT,118.415,T*23
$PYRTM,2024,128.166782478565,19.276429888704
$GNGGA,040010.00,3300.34221323,N,11803.11144960,W,2,12,0.8,9.074,M,-37.185,M,24.0,0131*58
$PYRTM,2024,128.166782478565,19.276429888704
$GNHDT,118.255,T*21
$PYRTM,2024,128.166788202234,19.276435612373
$GNGGA,040010.50,3300.34185027,N,11803.11059186,W,2,12,0.8,9.077,M,-37.185,M,24.4,0131*5D
$PYRTM,2024,128.166788202234,19.276435612373
$GNHDT,118.189,T*23
$PYRTM,2024,128.166794050521,19.276441460660
$GNGGA,040011.00,3300.34147284,N,11803.10975059,W,2,12,0.8,9.080,M,-37.185,M,25.0,0131*54
$PYRTM,2024,128.166794050521,19.276441460660
$GNHDT,118.018,T*2A
$PYRTM,2024,128.166799776678,19.276447186817
$GNGGA,040011.50,3300.34106691,N,11803.10892613,W,2,12,0.8,9.049,M,-37.185,M,25.4,0131*55
$PYRTM,2024,128.166799776678,19.276447186817
$GNHDT,117.937,T*21
$PYRTM,2024,128.166805624039,19.276453034178
$GNGGA,040012.00,3300.34063178,N,11803.10811550,W,2,12,0.8,8.997,M,-37.185,M,26.0,0131*52
$PYRTM,2024,128.166805624039,19.276453034178
$GNHDT,117.907,T*22
$PYRTM,2024,128.166811350231,19.276458760370
$GNGGA,040012.50,3300.34018994,N,11803.10731430,W,2,12,0.8,8.931,M,-37.185,M,26.4,0131*53
$PYRTM,2024,128.166811350231,19.276458760370
$GNHDT,117.773,T*2F
$PYRTM,2024,128.166817200012,19.276464610150
$GNGGA,040013.00,3300.33975260,N,11803.10651480,W,2,12,0.8,8.871,M,-37.185,M,27.0,0131*5E
$PYRTM,2024,128.166817200012,19.276464610150
$GNHDT,117.882,T*2E
$PYRTM,2024,128.166822924271,19.276470334410
$GNGGA,040013.50,3300.33932478,N,11803.10570907,W,2,12,0.8,8.840,M,-37.185,M,27.4,0131*53
$PYRTM,2024,128.166822924271,19.276470334410
$GNHDT,118.029,T*28
$PYRTM,2024,128.166828775324,19.276476185463
$GNGGA,040014.00,3300.33890411,N,11803.10489871,W,2,12,0.8,8.852,M,-37.185,M,28.0,0131*58
$PYRTM,2024,128.166828775324,19.276476185463
$GNHDT,118.231,T*23
$PYRTM,2024,128.166834497581,19.276481907720
$GNGGA,040014.50,3300.33847613,N,11803.10408173,W,2,12,0.8,8.882,M,-37.185,M,28.4,0131*5C
$PYRTM,2024,128.166834497581,19.276481907720
$GNHDT,118.599,T*26
$PYRTM,2024,128.166840347153,19.276487757292
$GNGGA,040015.00,3300.33803141,N,11803.10325521,W,2,12,0.8,8.902,M,-37.185,M,29.0,0131*5F
$PYRTM,2024,128.166840347153,19.276487757292
$GNHDT,118.854,T*2A
$PYRTM,2024,128.166846070856,19.276493480995
$GNGGA,040015.50,3300.33757740,N,11803.10241002,W,2,12,0.8,8.896,M,-37.185,M,29.4,0131*5C
$PYRTM,2024,128.166846070856,19.276493480995
$GNHDT,118.821,T*28
$PYRTM,2024,128.166851919363,19.276499329502
$GNGGA,040016.00,3300.33712053,N,11803.10154250,W,2,12,0.8,8.862,M,-37.185,M,30.0,0131*5B
$PYRTM,2024,128.166851919363,19.276499329502
$GNHDT,118.846,T*29
$PYRTM,2024,128.166857647928,19.276505058067
$GNGGA,040016.50,3300.33667191,N,11803.10064886,W,2,12,0.8,8.821,M,-37.185,M,30.4,0131*52
$PYRTM,2024,128.166857647928,19.276505058067
$GNHDT,118.793,T*2E
$PYRTM,2024,128.166863495428,19.276510905567
$GNGGA,040017.00,3300.33623571,N,11803.09974050,W,2,12,0.8,8.782,M,-37.185,M,31.0,0131*5C
$PYRTM,2024,128.166863495428,19.276510905567
$GNHDT,118.837,T*2F
$PYRTM,2024,128.166869219722,19.276516629873
$GNGGA,040017.50,3300.33580234,N,11803.09883013,W,2,12,0.8,8.750,M,-37.185,M,31.4,0131*50
$PYRTM,2024,128.166869219722,19.276516629873
$GNHDT,118.707,T*23
$PYRTM,2024,128.166875070764,19.276522480903
$GNGGA,040018.00,3300.33535891,N,11803.09793370,W,2,12,0.8,8.732,M,-37.185,M,32.0,0131*5A
$PYRTM,2024,128.166875070764,19.276522480903
$GNHDT,118.739,T*2E
$PYRTM,2024,128.166880794259,19.276528204398
$GNGGA,040018.50,3300.33489532,N,11803.09706208,W,2,12,0.8,8.726,M,-37.185,M,32.4,0131*5E
$PYRTM,2024,128.166880794259,19.276528204398
$GNHDT,118.639,T*2F
$PYRTM,2024,128.166886643009,19.276534053148
$GNGGA,040019.00,3300.33440977,N,11803.09622463,W,2,12,0.8,8.715,M,-37.185,M,33.0,0131*5B
$PYRTM,2024,128.166886643009,19.276534053148
$GNHDT,118.647,T*26
$PYRTM,2024,128.166892370046,19.276539780185
$GNGGA,040019.50,3300.33391786,N,11803.09540719,W,2,12,0.8,8.693,M,-37.185,M,33.4,0131*57
$PYRTM,2024,128.166892370046,19.276539780185
$GNHDT,118.301,T*21
$PYRTM,2024,128.166898218102,19.276545628241
$GNGGA,040020.00,3300.33343560,N,11803.09459061,W,2,12,0.8,8.653,M,-37.185,M,34.0,0131*53
$PYRTM,2024,128.166898218102,19.276545628241
$GNHDT,118.167,T*23
$PYRTM,2024,128.166903947130,19.276551357269
$GNGGA,040020.50,3300.33296565,N,11803.09377597,W,2,12,0.8,8.588,M,-37.185,M,34.4,0131*5C
$PYRTM,2024,128.166903947130,19.276551357269
$GNHDT,118.241,T*24
$PYRTM,2024,128.166909794236,19.276557204387
$GNGGA,040021.00,3300.33251862,N,11803.09296313,W,2,12,0.8,8.501,M,-37.185,M,35.0,0131*59
$PYRTM,2024,128.166909794236,19.276557204387
$GNHDT,118.359,T*2C
$PYRTM,2024,128.166915519792,19.276562929942
$GNGGA,040021.50,3300.33209019,N,11803.09215877,W,2,12,0.8,8.423,M,-37.185,M,35.4,0131*52
$PYRTM,2024,128.166915519792,19.276562929942
$GNHDT,118.531,T*24
$PYRTM,2024,128.166921364248,19.276568774387
$GNGGA,040022.00,3300.33167608,N,11803.09137217,W,2,12,0.8,8.364,M,-37.184,M,36.0,0131*54
$PYRTM,2024,128.166921364248,19.276568774387
$GNHDT,118.614,T*20
$PYRTM,2024,128.166927091817,19.276574501956
$GNGGA,040022.50,3300.33126789,N,11803.09060809,W,2,12,0.8,8.353,M,-37.184,M,36.4,0131*5A
$PYRTM,2024,128.166927091817,19.276574501956
$GNHDT,118.813,T*29
$PYRTM,2024,128.166932940706,19.276580350845
$GNGGA,040023.00,3300.33086040,N,11803.08986121,W,2,12,0.8,8.426,M,-37.184,M,37.0,0131*54
$PYRTM,2024,128.166932940706,19.276580350845
$GNHDT,118.929,T*21
$PYRTM,2024,128.166938665856,19.276586075995
$GNGGA,040023.50,3300.33045657,N,11803.08910915,W,2,12,0.8,8.553,M,-37.184,M,37.4,0131*59
$PYRTM,2024,128.166938665856,19.276586075995
$GNHDT,118.853,T*2D
$PYRTM,2024,128.166944513588,19.276591923738
$GNGGA,040024.00,3300.33006210,N,11803.08833798,W,2,12,0.8,8.707,M,-37.184,M,38.0,0131*58
$PYRTM,2024,128.166944513588,19.276591923738
$GNHDT,118.689,T*24
$PYRTM,2024,128.166950238553,19.276597648692
$GNGGA,040024.50,3300.32966378,N,11803.08754595,W,2,12,0.8,8.845,M,-37.184,M,38.4,0131*50
$PYRTM,2024,128.166950238553,19.276597648692
$GNHDT,118.874,T*28
$PYRTM,2024,128.166956087025,19.276603497164
$GNGGA,040025.00,3300.32926204,N,11803.08672562,W,2,12,0.8,8.976,M,-37.184,M,39.0,0131*53
$PYRTM,2024,128.166956087025,19.276603497164
$GNHDT,118.773,T*20
$PYRTM,2024,128.166961812789,19.276609222940
$GNGGA,040025.50,3300.32885741,N,11803.08588359,W,2,12,0.8,9.073,M,-37.184,M,39.4,0131*5B
$PYRTM,2024,128.166961812789,19.276609222940
$GNHDT,118.537,T*22
$PYRTM,2024,128.166967661944,19.276615072083
$GNGGA,040026.00,3300.32843844,N,11803.08502733,W,2,12,0.8,9.153,M,-37.184,M,40.0,0131*5E
$PYRTM,2024,128.166967661944,19.276615072083
$GNHDT,118.822,T*2B
$PYRTM,2024,128.166973389039,19.276620799178
$GNGGA,040026.50,3300.32801582,N,11803.08415393,W,2,12,0.8,9.221,M,-37.184,M,40.4,0131*51
$PYRTM,2024,128.166973389039,19.276620799178
$GNHDT,118.639,T*2F
$PYRTM,2024,128.166979235556,19.276626645706
$GNGGA,040027.00,3300.32759482,N,11803.08325885,W,2,12,0.8,9.289,M,-37.184,M,41.0,0131*59
$PYRTM,2024,128.166979235556,19.276626645706
$GNHDT,118.630,T*26
$PYRTM,2024,128.166984961528,19.276632371678
$GNGGA,040027.50,3300.32716889,N,11803.08235519,W,2,12,0.8,9.355,M,-37.184,M,41.4,0131*5C
$PYRTM,2024,128.166984961528,19.276632371678
$GNHDT,118.814,T*2E
$PYRTM,2024,128.166990809884,19.276638220023
$GNGGA,040028.00,3300.32674370,N,11803.08144394,W,2,12,0.8,9.428,M,-37.184,M,42.0,0131*52
$PYRTM,2024,128.166990809884,19.276638220023
$GNHDT,118.862,T*2F
$PYRTM,2024,128.166996536655,19.276643946794
$GNGGA,040028.50,3300.32631293,N,11803.08053105,W,2,12,0.8,9.484,M,-37.184,M,42.4,0131*55
$PYRTM,2024,128.166996536655,19.276643946794
$GNHDT,118.718,T*2D
$PYRTM,2024,128.167002382650,19.276649792789
$GNGGA,040029.00,3300.32586692,N,11803.07962536,W,2,12,0.8,9.489,M,-37.184,M,43.0,0131*53
$PYRTM,2024,128.167002382650,19.276649792789
$GNHDT,118.657,T*27
$PYRTM,2024,128.167008109734,19.276655519884
$GNGGA,040029.50,3300.32540558,N,11803.07871158,W,2,12,0.8,9.428,M,-37.184,M,43.4,0131*59
$PYRTM,2024,128.167008109734,19.276655519884
$GNHDT,118.481,T*2E
$PYRTM,2024,128.167013956424,19.276661366563
$GNGGA,040030.00,3300.32493324,N,11803.07780206,W,2,12,0.8,9.310,M,-37.184,M,44.0,0131*50
$PYRTM,2024,128.167013956424,19.276661366563
$GNHDT,118.414,T*22
$PYRTM,2024,128.167019687801,19.276667097940
$GNGGA,040030.50,3300.32447176,N,11803.07689269,W,2,12,0.8,9.148,M,-37.184,M,44.4,0131*53
$PYRTM,2024,128.167019687801,19.276667097940
$GNHDT,118.518,T*2F
$PYRTM,2024,128.167025530231,19.276672940370
$GNGGA,040031.00,3300.32402464,N,11803.07599680,W,2,12,0.8,8.986,M,-37.184,M,45.0,0131*5F
$PYRTM,2024,128.167025530231,19.276672940370
$GNHDT,118.630,T*26
$PYRTM,2024,128.167031260162,19.276678670301
$GNGGA,040031.50,3300.32360281,N,11803.07512390,W,2,12,0.8,8.845,M,-37.184,M,45.4,0131*59
$PYRTM,2024,128.167031260162,19.276678670301
$GNHDT,118.636,T*20
$PYRTM,2024,128.167037107361,19.276684517500
$GNGGA,040032.00,3300.32319314,N,11803.07429048,W,2,12,0.8,8.744,M,-37.184,M,46.0,0131*5A
$PYRTM,2024,128.167037107361,19.276684517500
$GNHDT,118.586,T*28
$PYRTM,2024,128.167042837523,19.276690247662
$GNGGA,040032.50,3300.32278556,N,11803.07349294,W,2,12,0.8,8.658,M,-37.184,M,46.4,0131*53
$PYRTM,2024,128.167042837523,19.276690247662
$GNHDT,118.671,T*23
$PYRTM,2024,128.167048679572,19.276696089711
$GNGGA,040033.00,3300.32236722,N,11803.07272674,W,2,12,0.8,8.560,M,-37.184,M,47.0,0131*52
$PYRTM,2024,128.167048679572,19.276696089711
$GNHDT,118.591,T*2E
$PYRTM,2024,128.167054406227,19.276701816366
$GNGGA,040033.50,3300.32194376,N,11803.07196539,W,2,12,0.8,8.437,M,-37.184,M,47.4,0131*5D
$PYRTM,2024,128.167054406227,19.276701816366
$GNHDT,118.297,T*2F
$PYRTM,2024,128.167060253414,19.276707663553
$GNGGA,040034.00,3300.32151383,N,11803.07120071,W,2,12,0.8,8.292,M,-37.184,M,48.0,0131*5A
$PYRTM,2024,128.167060253414,19.276707663553
$GNHDT,118.063,T*26
$PYRTM,2024,128.167065981852,19.276713391991
$GNGGA,040034.50,3300.32108956,N,11803.07042418,W,2,12,0.8,8.142,M,-37.184,M,48.4,0131*55
$PYRTM,2024,128.167065981852,19.276713391991
$GNHDT,117.984,T*29
$PYRTM,2024,128.167071830625,19.276719240764
$GNGGA,040035.00,3300.32066917,N,11803.06964025,W,2,12,0.8,8.013,M,-37.184,M,49.0,0131*5B
$PYRTM,2024,128.167071830625,19.276719240764
$GNHDT,117.879,T*2A
$PYRTM,2024,128.167077554456,19.276724964595
$GNGGA,040035.50,3300.32024960,N,11803.06885583,W,2,12,0.8,7.961,M,-37.184,M,49.4,0131*58
$PYRTM,2024,128.167077554456,19.276724964595
$GNHDT,117.650,T*2F
$PYRTM,2024,128.167083402176,19.276730812315
$GNGGA,040036.00,3300.31982256,N,11803.06807096,W,2,12,0.8,7.993,M,-37.184,M,50.0,0131*5C
$PYRTM,2024,128.167083402176,19.276730812315
$GNHDT,117.899,T*24
$PYRTM,2024,128.167089129734,19.276736539873
$GNGGA,040036.50,3300.31938308,N,11803.06728122,W,2,12,0.8,8.117,M,-37.184,M,50.4,0131*51
$PYRTM,2024,128.167089129734,19.276736539873
$GNHDT,118.075,T*21
$PYRTM,2024,128.167094975671,19.276742385810
$GNGGA,040037.00,3300.31893249,N,11803.06647975,W,2,12,0.8,8.286,M,-37.184,M,51.0,0131*5D
$PYRTM,2024,128.167094975671,19.276742385810
$GNHDT,118.254,T*20
$PYRTM,2024,128.167100704363,19.276748114502
$GNGGA,040037.50,3300.31846967,N,11803.06565791,W,2,12,0.8,8.478,M,-37.184,M,51.4,0131*53
$PYRTM,2024,128.167100704363,19.276748114502
$GNHDT,118.682,T*2F
$PYRTM,2024,128.167106550984,19.276753961123
$GNGGA,040038.00,3300.31799444,N,11803.06480790,W,2,12,0.8,8.663,M,-37.184,M,52.0,0131*5C
$PYRTM,2024,128.167106550984,19.276753961123
$GNHDT,118.742,T*22
$PYRTM,2024,128.167112279421,19.276759689560
$GNGGA,040038.50,3300.31751363,N,11803.06392887,W,2,12,0.8,8.820,M,-37.184,M,52.4,0131*5F
$PYRTM,2024,128.167112279421,19.276759689560
$GNHDT,118.799,T*24
$PYRTM,2024,128.167118126528,19.276765536667
$GNGGA,040039.00,3300.31703354,N,11803.06302567,W,2,12,0.8,8.937,M,-37.184,M,53.0,0131*50
$PYRTM,2024,128.167118126528,19.276765536667
$GNHDT,119.009,T*2B
$PYRTM,2024,128.167123850312,19.276771260451
$GNGGA,040039.50,3300.31656353,N,11803.06210882,W,2,12,0.8,9.041,M,-37.184,M,53.4,0131*5A
$PYRTM,2024,128.167123850312,19.276771260451
$GNHDT,118.977,T*2A
$PYRTM,2024,128.167129698241,19.276777108380
$GNGGA,040040.00,3300.31610546,N,11803.06118616,W,2,12,0.8,9.134,M,-37.184,M,54.0,0131*59
$PYRTM,2024,128.167129698241,19.276777108380
$GNHDT,119.126,T*27
$PYRTM,2024,128.167135423993,19.276782834132
$GNGGA,040040.50,3300.31566757,N,11803.06026823,W,2,12,0.8,9.230,M,-37.184,M,54.4,0131*5B
$PYRTM,2024,128.167135423993,19.276782834132
$GNHDT,118.991,T*22
$PYRTM,2024,128.167141276308,19.276788686447
$GNGGA,040041.00,3300.31525698,N,11803.05935161,W,2,12,0.8,9.314,M,-37.184,M,55.0,0131*5F
$PYRTM,2024,128.167141276308,19.276788686447
$GNHDT,118.942,T*2C
$PYRTM,2024,128.167146998079,19.276794408218
$GNGGA,040041.50,3300.31487221,N,11803.05844230,W,2,12,0.8,9.362,M,-37.184,M,55.4,0131*50
$PYRTM,2024,128.167146998079,19.276794408218
$GNHDT,118.706,T*22
$PYRTM,2024,128.167152844907,19.276800255046
$GNGGA,040042.00,3300.31449902,N,11803.05754798,W,2,12,0.8,9.361,M,-37.184,M,56.0,0131*53
$PYRTM,2024,128.167152844907,19.276800255046
$GNHDT,118.575,T*24
$PYRTM,2024,128.167158576366,19.276805986516
$GNGGA,040042.50,3300.31412290,N,11803.05668135,W,2,12,0.8,9.295,M,-37.184,M,56.4,0131*59
$PYRTM,2024,128.167158576366,19.276805986516
$GNHDT,118.554,T*27
$PYRTM,2024,128.167164419919,19.276811830058
$GNGGA,040043.00,3300.31371888,N,11803.05585845,W,2,12,0.8,9.150,M,-37.184,M,57.0,0131*5D
$PYRTM,2024,128.167164419919,19.276811830058
$GNHDT,118.306,T*26
$PYRTM,2024,128.167170146863,19.276817557014
$GNGGA,040043.50,3300.31328753,N,11803.05507451,W,2,12,0.8,8.950,M,-37.184,M,57.4,0131*53
$PYRTM,2024,128.167170146863,19.276817557014
$GNHDT,118.213,T*23
$PYRTM,2024,128.167175995359,19.276823405498
$GNGGA,040044.00,3300.31283835,N,11803.05432417,W,2,12,0.8,8.734,M,-37.184,M,58.0,0131*5C
$PYRTM,2024,128.167175995359,19.276823405498
$GNHDT,118.302,T*22
$PYRTM,2024,128.167181723171,19.276829133322
$GNGGA,040044.50,3300.31240057,N,11803.05358139,W,2,12,0.8,8.551,M,-37.184,M,58.4,0131*5D
$PYRTM,2024,128.167181723171,19.276829133322
$GNHDT,117.837,T*20
$PYRTM,2024,128.167187570417,19.276834980556
$GNGGA,040045.00,3300.31199513,N,11803.05282390,W,2,12,0.8,8.452,M,-37.184,M,59.0,0131*5B
$PYRTM,2024,128.167187570417,19.276834980556
$GNHDT,117.906,T*23
$PYRTM,2024,128.167193298657,19.276840708808
$GNGGA,040045.50,3300.31162977,N,11803.05202845,W,2,12,0.8,8.459,M,-37.184,M,59.4,0131*50
$PYRTM,2024,128.167193298657,19.276840708808
$GNHDT,118.253,T*27
$PYRTM,2024,128.167199147083,19.276846557222
$GNGGA,040046.00,3300.31130113,N,11803.05119471,W,2,12,0.8,8.559,M,-37.184,M,60.0,0131*56
$PYRTM,2024,128.167199147083,19.276846557222
$GNHDT,118.505,T*23
$PYRTM,2024,128.167204868657,19.276852278796
$GNGGA,040046.50,3300.31096362,N,11803.05034200,W,2,12,0.8,8.696,M,-37.184,M,60.4,0131*50
$PYRTM,2024,128.167204868657,19.276852278796
$GNHDT,118.729,T*2F
$PYRTM,2024,128.167210721019,19.276858131157
$GNGGA,040047.00,3300.31058981,N,11803.04948414,W,2,12,0.8,8.848,M,-37.184,M,61.0,0131*59
$PYRTM,2024,128.167210721019,19.276858131157
$GNHDT,118.958,T*27
$PYRTM,2024,128.167216446539,19.276863856690
$GNGGA,040047.50,3300.31016106,N,11803.04863304,W,2,12,0.8,8.935,M,-37.184,M,61.4,0131*50
$PYRTM,2024,128.167216446539,19.276863856690
$GNHDT,119.080,T*2A
$PYRTM,2024,128.167222290347,19.276869700486
$GNGGA,040048.00,3300.30966945,N,11803.04778726,W,2,12,0.8,8.939,M,-37.184,M,62.0,0131*50
$PYRTM,2024,128.167222290347,19.276869700486
$GNHDT,119.243,T*27
$PYRTM,2024,128.167228021088,19.276875431227
$GNGGA,040048.50,3300.30914466,N,11803.04693724,W,2,12,0.8,8.857,M,-37.184,M,62.4,0131*57
$PYRTM,2024,128.167228021088,19.276875431227
$GNHDT,119.229,T*2B
$PYRTM,2024,128.167233863356,19.276881273507
$GNGGA,040049.00,3300.30861177,N,11803.04607261,W,2,12,0.8,8.724,M,-37.184,M,63.0,0131*52
$PYRTM,2024,128.167233863356,19.276881273507
$GNHDT,119.343,T*26
$PYRTM,2024,128.167239592847,19.276887002998
$GNGGA,040049.50,3300.30810336,N,11803.04519329,W,2,12,0.8,8.586,M,-37.184,M,63.4,0131*59
$PYRTM,2024,128.167239592847,19.276887002998
$GNHDT,119.522,T*27
$PYRTM,2024,128.167245438727,19.276892848866
$GNGGA,040050.00,3300.30762677,N,11803.04429651,W,2,12,0.8,8.498,M,-37.184,M,64.0,0131*5B
$PYRTM,2024,128.167245438727,19.276892848866
$GNHDT,119.299,T*20
$PYRTM,2024,128.167251166736,19.276898576875
$GNGGA,040050.50,3300.30717805,N,11803.04339431,W,2,12,0.8,8.491,M,-37.184,M,64.4,0131*58
$PYRTM,2024,128.167251166736,19.276898576875
$GNHDT,119.235,T*26
$PYRTM,2024,128.167257012928,19.276904423067
$GNGGA,040051.00,3300.30674749,N,11803.04249490,W,2,12,0.8,8.540,M,-37.184,M,65.0,0131*5A
$PYRTM,2024,128.167257012928,19.276904423067
$GNHDT,119.367,T*20
$PYRTM,2024,128.167262740313,19.276910150463
$GNGGA,040051.50,3300.30632849,N,11803.04160465,W,2,12,0.8,8.606,M,-37.184,M,65.4,0131*55
$PYRTM,2024,128.167262740313,19.276910150463
$GNHDT,119.205,T*25
$PYRTM,2024,128.167268586759,19.276915996898
$GNGGA,040052.00,3300.30590686,N,11803.04073286,W,2,12,0.8,8.646,M,-37.184,M,66.0,0131*5E
$PYRTM,2024,128.167268586759,19.276915996898
$GNHDT,119.111,T*23
$PYRTM,2024,128.167274316319,19.276921726470
$GNGGA,040052.50,3300.30547531,N,11803.03989147,W,2,12,0.8,8.629,M,-37.184,M,66.4,0131*56
$PYRTM,2024,128.167274316319,19.276921726470
$GNHDT,119.026,T*26
$PYRTM,2024,128.167280177836,19.276927587975
$GNGGA,040053.00,3300.30503135,N,11803.03908809,W,2,12,0.8,8.560,M,-37.184,M,67.0,0131*53
$PYRTM,2024,128.167280177836,19.276927587975
$GNHDT,118.731,T*26
$PYRTM,2024,128.167285891597,19.276933301736
$GNGGA,040053.50,3300.30456995,N,11803.03831557,W,2,12,0.8,8.465,M,-37.184,M,67.4,0131*58
$PYRTM,2024,128.167285891597,19.276933301736
$GNHDT,118.766,T*24
$PYRTM,2024,128.167291735255,19.276939145405
$GNGGA,040054.00,3300.30409179,N,11803.03756888,W,2,12,0.8,8.351,M,-37.184,M,68.0,0131*50
$PYRTM,2024,128.167291735255,19.276939145405
$GNHDT,118.475,T*25
$PYRTM,2024,128.167297468889,19.276944879028
$GNGGA,040054.50,3300.30361634,N,11803.03683052,W,2,12,0.8,8.267,M,-37.184,M,68.4,0131*54
$PYRTM,2024,128.167297468889,19.276944879028
$GNHDT,118.497,T*29
$PYRTM,2024,128.167303308194,19.276950718333
$GNGGA,040055.00,3300.30315708,N,11803.03608399,W,2,12,0.8,8.231,M,-37.184,M,69.0,0131*5C
$PYRTM,2024,128.167303308194,19.276950718333
$GNHDT,118.407,T*20
$PYRTM,2024,128.167309039167,19.276956449317
$GNGGA,040055.50,3300.30272362,N,11803.03531433,W,2,12,0.8,8.280,M,-37.184,M,69.4,0131*51
$PYRTM,2024,128.167309039167,19.276956449317
$GNHDT,118.274,T*22
$PYRTM,2024,128.167314883900,19.276962294039
$GNGGA,040056.00,3300.30232183,N,11803.03451658,W,2,12,0.8,8.412,M,-37.184,M,70.0,0131*57
$PYRTM,2024,128.167314883900,19.276962294039
$GNHDT,118.407,T*20
$PYRTM,2024,128.167320611157,19.276968021296
$GNGGA,040056.50,3300.30193969,N,11803.03369493,W,2,12,0.8,8.597,M,-37.184,M,70.4,0131*57
$PYRTM,2024,128.167320611157,19.276968021296
$GNHDT,118.719,T*2C
$PYRTM,2024,128.167326458287,19.276973868426
$GNGGA,040057.00,3300.30156584,N,11803.03285709,W,2,12,0.8,8.813,M,-37.184,M,71.0,0131*52
$PYRTM,2024,128.167326458287,19.276973868426
$GNHDT,119.144,T*23
$PYRTM,2024,128.167332187882,19.276979598021
$GNGGA,040057.50,3300.30118760,N,11803.03200318,W,2,12,0.8,9.017,M,-37.184,M,71.4,0131*55
$PYRTM,2024,128.167332187882,19.276979598021
$GNHDT,119.174,T*20
$PYRTM,2024,128.167338035139,19.276985445278
$GNGGA,040058.00,3300.30078448,N,11803.03114740,W,2,12,0.8,9.184,M,-37.184,M,72.0,0131*52
$PYRTM,2024,128.167338035139,19.276985445278
$GNHDT,119.229,T*2B
$PYRTM,2024,128.167343759919,19.276991170058
$GNGGA,040058.50,3300.30034789,N,11803.03029201,W,2,12,0.8,9.270,M,-37.184,M,72.4,0131*52
$PYRTM,2024,128.167343759919,19.276991170058
$GNHDT,119.389,T*20
$PYRTM,2024,128.167349604931,19.276997015069
$GNGGA,040059.00,3300.29987668,N,11803.02942917,W,2,12,0.8,9.258,M,-37.184,M,73.0,0131*57
$PYRTM,2024,128.167349604931,19.276997015069
$GNHDT,119.262,T*24
$PYRTM,2024,128.167355332512,19.277002742650
$GNGGA,040059.50,3300.29938578,N,11803.02854958,W,2,12,0.8,9.179,M,-37.184,M,73.4,0131*5D
$PYRTM,2024,128.167355332512,19.277002742650
$GNHDT,119.134,T*24
$PYRTM,2024,128.167361180613,19.277008590752
$GNGGA,040100.00,3300.29890799,N,11803.02765168,W,2,12,0.8,9.052,M,-37.184,M,74.0,0131*56
$PYRTM,2024,128.167361180613,19.277008590752
$GNHDT,118.952,T*2D
$PYRTM,2024,128.167366908519,19.277014318669
$GNGGA,040100.50,3300.29846336,N,11803.02673011,W,2,12,0.8,8.972,M,-37.184,M,74.4,0131*5E
$PYRTM,2024,128.167366908519,19.277014318669
$GNHDT,118.721,T*27
$PYRTM,2024,128.167372753102,19.277020163241
$GNGGA,040101.00,3300.29805740,N,11803.02579297,W,2,12,0.8,8.977,M,-37.184,M,75.0,0131*5D
$PYRTM,2024,128.167372753102,19.277020163241
$GNHDT,118.579,T*28
$PYRTM,2024,128.167378481157,19.277025891308
$GNGGA,040101.50,3300.29767431,N,11803.02485865,W,2,12,0.8,9.064,M,-37.184,M,75.4,0131*5D
$PYRTM,2024,128.167378481157,19.277025891308
$GNHDT,118.477,T*27
$PYRTM,2024,128.167384329931,19.277031740069
$GNGGA,040102.00,3300.29730058,N,11803.02393236,W,2,12,0.8,9.181,M,-37.184,M,76.0,0131*53
$PYRTM,2024,128.167384329931,19.277031740069
$GNHDT,118.510,T*27
$PYRTM,2024,128.167390054340,19.277037464479
$GNGGA,040102.50,3300.29691991,N,11803.02303280,W,2,12,0.8,9.243,M,-37.184,M,76.4,0131*5D
$PYRTM,2024,128.167390054340,19.277037464479
$GNHDT,118.672,T*20
$PYRTM,2024,128.167395903056,19.277043313194
$GNGGA,040103.00,3300.29650672,N,11803.02216714,W,2,12,0.8,9.232,M,-37.184,M,77.0,0131*58
$PYRTM,2024,128.167395903056,19.277043313194
$GNHDT,118.615,T*21
$PYRTM,2024,128.167401629606,19.277049039745
$GNGGA,040103.50,3300.29606262,N,11803.02133732,W,2,12,0.8,9.097,M,-37.184,M,77.4,0131*52
$PYRTM,2024,128.167401629606,19.277049039745
$GNHDT,118.395,T*2C
$PYRTM,2024,128.167407481470,19.277054891609
$GNGGA,040104.00,3300.29559580,N,11803.02054187,W,2,12,0.8,8.870,M,-37.184,M,78.0,0131*51
$PYRTM,2024,128.167407481470,19.277054891609
$GNHDT,118.401,T*26
$PYRTM,2024,128.167413205995,19.277060616134
$GNGGA,040104.50,3300.29512056,N,11803.01977248,W,2,12,0.8,8.609,M,-37.184,M,78.4,0131*5A
$PYRTM,2024,128.167413205995,19.277060616134
$GNHDT,118.300,T*20
$PYRTM,2024,128.167419051840,19.277066461979
$GNGGA,040105.00,3300.29465200,N,11803.01902130,W,2,12,0.8,8.383,M,-37.184,M,79.0,0131*52
$PYRTM,2024,128.167419051840,19.277066461979
$GNHDT,118.297,T*2F
$PYRTM,2024,128.167424777662,19.277072187801
$GNGGA,040105.50,3300.29420052,N,11803.01827859,W,2,12,0.8,8.206,M,-37.184,M,79.4,0131*5B
$PYRTM,2024,128.167424777662,19.277072187801
$GNHDT,118.094,T*2E
$PYRTM,2024,128.167430624803,19.277078034942
$GNGGA,040106.00,3300.29376752,N,11803.01752991,W,2,12,0.8,8.119,M,-37.184,M,80.0,0131*59
$PYRTM,2024,128.167430624803,19.277078034942
$GNHDT,117.998,T*24
$PYRTM,2024,128.167436353090,19.277083763241
$GNGGA,040106.50,3300.29335189,N,11803.01676736,W,2,12,0.8,8.107,M,-37.184,M,80.4,0131*54
$PYRTM,2024,128.167436353090,19.277083763241
$GNHDT,117.928,T*2F
$PYRTM,2024,128.167442198611,19.277089608750
$GNGGA,040107.00,3300.29295638,N,11803.01597695,W,2,12,0.8,8.149,M,-37.184,M,81.0,0131*5D
$PYRTM,2024,128.167442198611,19.277089608750
$GNHDT,117.743,T*2C
$PYRTM,2024,128.167447929988,19.277095340139
$GNGGA,040107.50,3300.29257860,N,11803.01517054,W,2,12,0.8,8.248,M,-37.183,M,81.4,0131*57
$PYRTM,2024,128.167447929988,19.277095340139
$GNHDT,117.787,T*24
$PYRTM,2024,128.167453772512,19.277101182650
$GNGGA,040108.00,3300.29220022,N,11803.01434491,W,2,12,0.8,8.386,M,-37.183,M,82.0,0131*5A
$PYRTM,2024,128.167453772512,19.277101182650
$GNHDT,117.981,T*2C
$PYRTM,2024,128.167459497975,19.277106908113
$GNGGA,040108.50,3300.29180661,N,11803.01351077,W,2,12,0.8,8.534,M,-37.183,M,82.4,0131*54
$PYRTM,2024,128.167459497975,19.277106908113
$GNHDT,118.406,T*21
$PYRTM,2024,128.167465346678,19.277112756817
$GNGGA,040109.00,3300.29137475,N,11803.01268298,W,2,12,0.8,8.669,M,-37.183,M,83.0,0131*5D
$PYRTM,2024,128.167465346678,19.277112756817
$GNHDT,118.599,T*26
$PYRTM,2024,128.167471072361,19.277118482500
$GNGGA,040109.50,3300.29088808,N,11803.01186997,W,2,12,0.8,8.764,M,-37.183,M,83.4,0131*54
$PYRTM,2024,128.167471072361,19.277118482500
$GNHDT,118.811,T*2B
$PYRTM,2024,128.167476922350,19.277124332488
$GNGGA,040110.00,3300.29035100,N,11803.01105368,W,2,12,0.8,8.792,M,-37.183,M,84.0,0131*55
$PYRTM,2024,128.167476922350,19.277124332488
$GNHDT,119.099,T*22
$PYRTM,2024,128.167482650810,19.277130060949
$GNGGA,040110.50,3300.28980264,N,11803.01021219,W,2,12,0.8,8.770,M,-37.183,M,84.4,0131*5F
$PYRTM,2024,128.167482650810,19.277130060949
$GNHDT,118.918,T*23
$PYRTM,2024,128.167488495347,19.277135905486
$GNGGA,040111.00,3300.28927188,N,11803.00933517,W,2,12,0.8,8.730,M,-37.183,M,85.0,0131*54
$PYRTM,2024,128.167488495347,19.277135905486
$GNHDT,119.036,T*27
$PYRTM,2024,128.167494226157,19.277141636296
$GNGGA,040111.50,3300.28878386,N,11803.00842040,W,2,12,0.8,8.736,M,-37.183,M,85.4,0131*54
$PYRTM,2024,128.167494226157,19.277141636296
$GNHDT,119.052,T*25
$PYRTM,2024,128.167500068854,19.277147478993
$GNGGA,040112.00,3300.28835177,N,11803.00747165,W,2,12,0.8,8.798,M,-37.183,M,86.0,0131*58
$PYRTM,2024,128.167500068854,19.277147478993
$GNHDT,119.018,T*2B
$PYRTM,2024,128.167505796620,19.277153206759
$GNGGA,040112.50,3300.28796140,N,11803.00650540,W,2,12,0.8,8.948,M,-37.183,M,86.4,0131*5C
$PYRTM,2024,128.167505796620,19.277153206759
$GNHDT,119.113,T*21
$PYRTM,2024,128.167511642905,19.277159053044
$GNGGA,040113.00,3300.28759993,N,11803.00554778,W,2,12,0.8,9.120,M,-37.183,M,87.0,0131*51
$PYRTM,2024,128.167511642905,19.277159053044
$GNHDT,118.840,T*2F
$PYRTM,2024,128.167517369664,19.277164779803
$GNGGA,040113.50,3300.28722721,N,11803.00462985,W,2,12,0.8,9.273,M,-37.183,M,87.4,0131*56
$PYRTM,2024,128.167517369664,19.277164779803
$GNHDT,118.665,T*26
$PYRTM,2024,128.167523218588,19.277170628738
$GNGGA,040114.00,3300.28682440,N,11803.00375904,W,2,12,0.8,9.356,M,-37.183,M,88.0,0131*5E
$PYRTM,2024,128.167523218588,19.277170628738
$GNHDT,118.379,T*2E
$PYRTM,2024,128.167528946817,19.277176356968
$GNGGA,040114.50,3300.28638496,N,11803.00292754,W,2,12,0.8,9.346,M,-37.183,M,88.4,0131*57
$PYRTM,2024,128.167528946817,19.277176356968
$GNHDT,118.136,T*27
$PYRTM,2024,128.167534791817,19.277182201968
$GNGGA,040115.00,3300.28591679,N,11803.00212564,W,2,12,0.8,9.224,M,-37.183,M,89.0,0131*59
$PYRTM,2024,128.167534791817,19.277182201968
$GNHDT,117.810,T*25
$PYRTM,2024,128.167540521644,19.277187931794
$GNGGA,040115.50,3300.28544673,N,11803.00133734,W,2,12,0.8,9.041,M,-37.183,M,89.4,0131*5C
$PYRTM,2024,128.167540521644,19.277187931794
$GNHDT,117.836,T*21
$PYRTM,2024,128.167546364873,19.277193775012
$GNGGA,040116.00,3300.28499612,N,11803.00056411,W,2,12,0.8,8.857,M,-37.183,M,90.0,0131*58
$PYRTM,2024,128.167546364873,19.277193775012
$GNHDT,117.932,T*24
$PYRTM,2024,128.167552093275,19.277199503426
$GNGGA,040116.50,3300.28457739,N,11802.99980355,W,2,12,0.8,8.724,M,-37.183,M,90.4,0131*5C
$PYRTM,2024,128.167552093275,19.277199503426
$GNHDT,118.203,T*22
$PYRTM,2024,128.167557939826,19.277205349965
$GNGGA,040117.00,3300.28420016,N,11802.99904194,W,2,12,0.8,8.664,M,-37.183,M,91.0,0131*51
$PYRTM,2024,128.167557939826,19.277205349965
$GNHDT,118.391,T*28
$PYRTM,2024,128.167563665324,19.277211075463
$GNGGA,040117.50,3300.28384568,N,11802.99827427,W,2,12,0.8,8.676,M,-37.183,M,91.4,0131*5B
$PYRTM,2024,128.167563665324,19.277211075463
$GNHDT,118.717,T*22
$PYRTM,2024,128.167569513773,19.277216923924
$GNGGA,040118.00,3300.28350513,N,11802.99749196,W,2,12,0.8,8.731,M,-37.183,M,92.0,0131*59
$PYRTM,2024,128.167569513773,19.277216923924
$GNHDT,118.888,T*2B
$PYRTM,2024,128.167575241806,19.277222651944
$GNGGA,040118.50,3300.28315776,N,11802.99669003,W,2,12,0.8,8.771,M,-37.183,M,92.4,0131*52
$PYRTM,2024,128.167575241806,19.277222651944
$GNHDT,118.904,T*2E
$PYRTM,2024,128.167581087650,19.277228497789
$GNGGA,040119.00,3300.28278804,N,11802.99586547,W,2,12,0.8,8.786,M,-37.183,M,93.0,0131*5C
$PYRTM,2024,128.167581087650,19.277228497789
$GNHDT,118.859,T*27
$PYRTM,2024,128.167586813935,19.277234224074
$GNGGA,040119.50,3300.28238076,N,11802.99503375,W,2,12,0.8,8.764,M,-37.183,M,93.4,0131*52
$PYRTM,2024,128.167586813935,19.277234224074
$GNHDT,119.018,T*2B
$PYRTM,2024,128.167592662407,19.277240072546
$GNGGA,040120.00,3300.28193928,N,11802.99419535,W,2,12,0.8,8.729,M,-37.183,M,94.0,0131*5F
$PYRTM,2024,128.167592662407,19.277240072546
$GNHDT,118.965,T*29
$PYRTM,2024,128.167598390590,19.277245800729
$GNGGA,040120.50,3300.28146732,N,11802.99335458,W,2,12,0.8,8.690,M,-37.183,M,94.4,0131*53
$PYRTM,2024,128.167598390590,19.277245800729
$GNHDT,119.130,T*20
$PYRTM,2024,128.167604235544,19.277251645683
$GNGGA,040121.00,3300.28098372,N,11802.99250880,W,2,12,0.8,8.678,M,-37.183,M,95.0,0131*5D
$PYRTM,2024,128.167604235544,19.277251645683
$GNHDT,119.162,T*27
$PYRTM,2024,128.167609962060,19.277257372199
$GNGGA,040121.50,3300.28050134,N,11802.99164980,W,2,12,0.8,8.704,M,-37.183,M,95.4,0131*57
$PYRTM,2024,128.167609962060,19.277257372199
$GNHDT,119.183,T*28
$PYRTM,2024,128.167615809711,19.277263219850
$GNGGA,040122.00,3300.28002658,N,11802.99077384,W,2,12,0.8,8.737,M,-37.183,M,96.0,0131*51
$PYRTM,2024,128.167615809711,19.277263219850
$GNHDT,119.002,T*20
$PYRTM,2024,128.167621540972,19.277268951123
$GNGGA,040122.50,3300.27955241,N,11802.98988108,W,2,12,0.8,8.775,M,-37.183,M,96.4,0131*50
$PYRTM,2024,128.167621540972,19.277268951123
$GNHDT,118.911,T*2A
$PYRTM,2024,128.167627384178,19.277274794317
$GNGGA,040123.00,3300.27907464,N,11802.98898902,W,2,12,0.8,8.799,M,-37.183,M,97.0,0131*57
$PYRTM,2024,128.167627384178,19.277274794317
$GNHDT,118.915,T*2E
$PYRTM,2024,128.167633113449,19.277280523588
$GNGGA,040123.50,3300.27860098,N,11802.98809403,W,2,12,0.8,8.796,M,-37.183,M,97.4,0131*5A
$PYRTM,2024,128.167633113449,19.277280523588
$GNHDT,118.757,T*26
$PYRTM,2024,128.167638958958,19.277286369097
$GNGGA,040124.00,3300.27813627,N,11802.98719843,W,2,12,0.8,8.795,M,-37.183,M,98.0,0131*50
$PYRTM,2024,128.167638958958,19.277286369097
$GNHDT,118.517,T*20
$PYRTM,2024,128.167644687708,19.277292097847
$GNGGA,040124.50,3300.27767259,N,11802.98631779,W,2,12,0.8,8.785,M,-37.183,M,98.4,0131*5C
$PYRTM,2024,128.167644687708,19.277292097847
$GNHDT,118.601,T*24
$PYRTM,2024,128.167650536204,19.277297946343
$GNGGA,040125.00,3300.27720674,N,11802.98545347,W,2,12,0.8,8.734,M,-37.183,M,99.0,0131*56
$PYRTM,2024,128.167650536204,19.277297946343
$GNHDT,118.478,T*28
$PYRTM,2024,128.167656260914,19.277303671053
$GNGGA,040125.50,3300.27673215,N,11802.98461678,W,2,12,0.8,8.671,M,-37.183,M,99.4,0131*5D
$PYRTM,2024,128.167656260914,19.277303671053
$GNHDT,118.582,T*2C
$PYRTM,2024,128.167662107072,19.277309517211
$GNGGA,040126.00,3300.27625190,N,11802.98381236,W,2,12,0.8,8.577,M,-37.183,M,100.0,0131*61
$PYRTM,2024,128.167662107072,19.277309517211
$GNHDT,118.476,T*26
$PYRTM,2024,128.167667836458,19.277315246597
$GNGGA,040126.50,3300.27578744,N,11802.98303145,W,2,12,0.8,8.501,M,-37.183,M,100.4,0131*68
$PYRTM,2024,128.167667836458,19.277315246597
$GNHDT,118.504,T*22
$PYRTM,2024,128.167673680324,19.277321090463
$GNGGA,040127.00,3300.27533993,N,11802.98227025,W,2,12,0.8,8.478,M,-37.183,M,101.0,0131*6D
$PYRTM,2024,128.167673680324,19.277321090463
$GNHDT,118.436,T*22
$PYRTM,2024,128.167679409618,19.277326819757
$GNGGA,040127.50,3300.27491237,N,11802.98151298,W,2,12,0.8,8.525,M,-37.183,M,101.4,0131*6F
$PYRTM,2024,128.167679409618,19.277326819757
$GNHDT,118.273,T*25
$PYRTM,2024,128.167685256528,19.277332666667
$GNGGA,040128.00,3300.27450256,N,11802.98075118,W,2,12,0.8,8.635,M,-37.183,M,102.0,0131*66
$PYRTM,2024,128.167685256528,19.277332666667
$GNHDT,118.337,T*24
$PYRTM,2024,128.167690982095,19.277338392234
$GNGGA,040128.50,3300.27410669,N,11802.97997304,W,2,12,0.8,8.779,M,-37.183,M,102.4,0131*67
$PYRTM,2024,128.167690982095,19.277338392234
$GNHDT,118.234,T*26
$PYRTM,2024,128.167696831481,19.277344241620
$GNGGA,040129.00,3300.27371036,N,11802.97917317,W,2,12,0.8,8.921,M,-37.183,M,103.0,0131*63
$PYRTM,2024,128.167696831481,19.277344241620
$GNHDT,118.360,T*26
$PYRTM,2024,128.167702557650,19.277349967789
$GNGGA,040129.50,3300.27331380,N,11802.97834771,W,2,12,0.8,9.027,M,-37.183,M,103.4,0131*62
$PYRTM,2024,128.167702557650,19.277349967789
$GNHDT,118.608,T*2D
$PYRTM,2024,128.167708402338,19.277355812477
$GNGGA,040130.00,3300.27291783,N,11802.97750281,W,2,12,0.8,9.100,M,-37.183,M,104.0,0131*63
$PYRTM,2024,128.167708402338,19.277355812477
$GNHDT,118.686,T*2B
$PYRTM,2024,128.167714129132,19.277361539271
$GNGGA,040130.50,3300.27252208,N,11802.97663842,W,2,12,0.8,9.156,M,-37.183,M,104.4,0131*6C
$PYRTM,2024,128.167714129132,19.277361539271
$GNHDT,118.689,T*24
$PYRTM,2024,128.167719978773,19.277367388912
$GNGGA,040131.00,3300.27211969,N,11802.97576416,W,2,12,0.8,9.189,M,-37.183,M,105.0,0131*6E
$PYRTM,2024,128.167719978773,19.277367388912
$GNHDT,118.631,T*27
$PYRTM,2024,128.167725703530,19.277373113669
$GNGGA,040131.50,3300.27170201,N,11802.97489141,W,2,12,0.8,9.229,M,-37.183,M,105.4,0131*61
$PYRTM,2024,128.167725703530,19.277373113669
$GNHDT,118.654,T*24
$PYRTM,2024,128.167731551042,19.277378961181
$GNGGA,040132.00,3300.27126867,N,11802.97401368,W,2,12,0.8,9.259,M,-37.183,M,106.0,0131*67
$PYRTM,2024,128.167731551042,19.277378961181
$GNHDT,118.601,T*24
$PYRTM,2024,128.167737280255,19.277384690394
$GNGGA,040132.50,3300.27083103,N,11802.97312605,W,2,12,0.8,9.272,M,-37.183,M,106.4,0131*61
$PYRTM,2024,128.167737280255,19.277384690394
$GNHDT,118.219,T*29
$PYRTM,2024,128.167743125579,19.277390535718
$GNGGA,040133.00,3300.27039143,N,11802.97222609,W,2,12,0.8,9.253,M,-37.183,M,107.0,0131*68
$PYRTM,2024,128.167743125579,19.277390535718
$GNHDT,117.860,T*22
$PYRTM,2024,128.167748851053,19.277396261192
$GNGGA,040133.50,3300.26995583,N,11802.97130414,W,2,12,0.8,9.197,M,-37.183,M,107.4,0131*6A
$PYRTM,2024,128.167748851053,19.277396261192
$GNHDT,117.846,T*26
$PYRTM,2024,128.167754699375,19.277402109514
$GNGGA,040134.00,3300.26953368,N,11802.97038053,W,2,12,0.8,9.122,M,-37.183,M,108.0,0131*6A
$PYRTM,2024,128.167754699375,19.277402109514
$GNHDT,117.725,T*2C
$PYRTM,2024,128.167760427407,19.277407837546
$GNGGA,040134.50,3300.26912456,N,11802.96946483,W,2,12,0.8,9.045,M,-37.183,M,108.4,0131*6C
$PYRTM,2024,128.167760427407,19.277407837546
$GNHDT,117.632,T*2B
$PYRTM,2024,128.167766272141,19.277413682280
$GNGGA,040135.00,3300.26873267,N,11802.96856156,W,2,12,0.8,8.974,M,-37.183,M,109.0,0131*68
$PYRTM,2024,128.167766272141,19.277413682280
$GNHDT,117.631,T*28
$PYRTM,2024,128.167772001076,19.277419411215
$GNGGA,040135.50,3300.26833128,N,11802.96769179,W,2,12,0.8,8.918,M,-37.183,M,109.4,0131*61
$PYRTM,2024,128.167772001076,19.277419411215
$GNHDT,117.839,T*2E
$PYRTM,2024,128.167777848090,19.277425258229
$GNGGA,040136.00,3300.26790110,N,11802.96685187,W,2,12,0.8,8.841,M,-37.183,M,110.0,0131*69
$PYRTM,2024,128.167777848090,19.277425258229
$GNHDT,118.016,T*24
$PYRTM,2024,128.167783574815,19.277430984954
$GNGGA,040136.50,3300.26744138,N,11802.96605555,W,2,12,0.8,8.734,M,-37.183,M,110.4,0131*65
$PYRTM,2024,128.167783574815,19.277430984954
$GNHDT,118.168,T*2C
$PYRTM,2024,128.167789421481,19.277436831620
$GNGGA,040137.00,3300.26695665,N,11802.96529082,W,2,12,0.8,8.606,M,-37.183,M,111.0,0131*64
$PYRTM,2024,128.167789421481,19.277436831620
$GNHDT,118.340,T*24
$PYRTM,2024,128.167795146829,19.277442556968
$GNGGA,040137.50,3300.26647495,N,11802.96453058,W,2,12,0.8,8.451,M,-37.183,M,111.4,0131*6C
$PYRTM,2024,128.167795146829,19.277442556968
$GNHDT,118.319,T*28
$PYRTM,2024,128.167800994815,19.277448404954
$GNGGA,040138.00,3300.26601430,N,11802.96376083,W,2,12,0.8,8.293,M,-37.183,M,112.0,0131*62
$PYRTM,2024,128.167800994815,19.277448404954
$GNHDT,118.303,T*23
$PYRTM,2024,128.167806720509,19.277454130660
$GNGGA,040138.50,3300.26558292,N,11802.96297515,W,2,12,0.8,8.172,M,-37.183,M,112.4,0131*6A
$PYRTM,2024,128.167806720509,19.277454130660
$GNHDT,118.241,T*24
$PYRTM,2024,128.167812570150,19.277459980289
$GNGGA,040139.00,3300.26517559,N,11802.96217405,W,2,12,0.8,8.113,M,-37.183,M,113.0,0131*6F
$PYRTM,2024,128.167812570150,19.277459980289
$GNHDT,118.148,T*2E
$PYRTM,2024,128.167818296227,19.277465706366
$GNGGA,040139.50,3300.26477716,N,11802.96135894,W,2,12,0.8,8.098,M,-37.183,M,113.4,0131*65
$PYRTM,2024,128.167818296227,19.277465706366
$GNHDT,118.197,T*2C
$PYRTM,2024,128.167824144109,19.277471554248
$GNGGA,040140.00,3300.26436781,N,11802.96054849,W,2,12,0.8,8.148,M,-37.183,M,114.0,0131*6C
$PYRTM,2024,128.167824144109,19.277471554248
$GNHDT,118.174,T*21
$PYRTM,2024,128.167829870197,19.277477280336
$GNGGA,040140.50,3300.26394102,N,11802.95973860,W,2,12,0.8,8.240,M,-37.183,M,114.4,0131*60
$PYRTM,2024,128.167829870197,19.277477280336
$GNHDT,118.158,T*2F
$PYRTM,2024,128.167835720197,19.277483130336
$GNGGA,040141.00,3300.26349482,N,11802.95893158,W,2,12,0.8,8.362,M,-37.183,M,115.0,0131*60
$PYRTM,2024,128.167835720197,19.277483130336
$GNHDT,118.197,T*2C
$PYRTM,2024,128.167841445428,19.277488855567
$GNGGA,040141.50,3300.26303506,N,11802.95811375,W,2,12,0.8,8.476,M,-37.183,M,115.4,0131*67
$PYRTM,2024,128.167841445428,19.277488855567
$GNHDT,118.339,T*2A
$PYRTM,2024,128.167847291505,19.277494701644
$GNGGA,040142.00,3300.26256147,N,11802.95728195,W,2,12,0.8,8.581,M,-37.183,M,116.0,0131*66
$PYRTM,2024,128.167847291505,19.277494701644
$GNHDT,118.400,T*27
$PYRTM,2024,128.167853017755,19.277500427894
$GNGGA,040142.50,3300.26207897,N,11802.95643299,W,2,12,0.8,8.678,M,-37.183,M,116.4,0131*61
$PYRTM,2024,128.167853017755,19.277500427894
$GNHDT,118.612,T*26
$PYRTM,2024,128.167858866713,19.277506276852
$GNGGA,040143.00,3300.26159944,N,11802.95556164,W,2,12,0.8,8.759,M,-37.183,M,117.0,0131*63
$PYRTM,2024,128.167858866713,19.277506276852
$GNHDT,118.646,T*27
$PYRTM,2024,128.167864591250,19.277512001389
$GNGGA,040143.50,3300.26112974,N,11802.95467968,W,2,12,0.8,8.875,M,-37.183,M,117.4,0131*68
$PYRTM,2024,128.167864591250,19.277512001389
$GNHDT,118.604,T*21
$PYRTM,2024,128.167870440972,19.277517851111
$GNGGA,040144.00,3300.26067770,N,11802.95378771,W,2,12,0.8,9.039,M,-37.183,M,118.0,0131*66
$PYRTM,2024,128.167870440972,19.277517851111
$GNHDT,118.738,T*2F
$PYRTM,2024,128.167876166250,19.277523576389
$GNGGA,040144.50,3300.26025159,N,11802.95288335,W,2,12,0.8,9.214,M,-37.183,M,118.4,0131*6B
$PYRTM,2024,128.167876166250,19.277523576389
$GNHDT,118.888,T*2B
$PYRTM,2024,128.167882014919,19.277529425058
$GNGGA,040145.00,3300.25984534,N,11802.95197151,W,2,12,0.8,9.375,M,-37.183,M,119.0,0131*6F
$PYRTM,2024,128.167882014919,19.277529425058
$GNHDT,118.903,T*29
$PYRTM,2024,128.167887740243,19.277535150382
$GNGGA,040145.50,3300.25944254,N,11802.95106693,W,2,12,0.8,9.490,M,-37.183,M,119.4,0131*6E
$PYRTM,2024,128.167887740243,19.277535150382
$GNHDT,119.089,T*23
$PYRTM,2024,128.167893587454,19.277540997593
$GNGGA,040146.00,3300.25903865,N,11802.95017100,W,2,12,0.8,9.543,M,-37.183,M,120.0,0131*6E
$PYRTM,2024,128.167893587454,19.277540997593
$GNHDT,118.932,T*2B
$PYRTM,2024,128.167899316296,19.277546726435
$GNGGA,040146.50,3300.25862820,N,11802.94929539,W,2,12,0.8,9.530,M,-37.183,M,120.4,0131*67
$PYRTM,2024,128.167899316296,19.277546726435
$GNHDT,119.001,T*23
$PYRTM,2024,128.167905163519,19.277552573657
$GNGGA,040147.00,3300.25821078,N,11802.94843413,W,2,12,0.8,9.448,M,-37.183,M,121.0,0131*6E
$PYRTM,2024,128.167905163519,19.277552573657
$GNHDT,118.943,T*2D
$PYRTM,2024,128.167910892350,19.277558302488
$GNGGA,040147.50,3300.25777912,N,11802.94759434,W,2,12,0.8,9.321,M,-37.183,M,121.4,0131*6F
$PYRTM,2024,128.167910892350,19.277558302488
$GNHDT,118.835,T*2D
$PYRTM,2024,128.167916736655,19.277564146794
$GNGGA,040148.00,3300.25734126,N,11802.94676937,W,2,12,0.8,9.154,M,-37.183,M,122.0,0131*68
$PYRTM,2024,128.167916736655,19.277564146794
$GNHDT,118.889,T*2A
$PYRTM,2024,128.167922464572,19.277569874711
$GNGGA,040148.50,3300.25691000,N,11802.94595560,W,2,12,0.8,8.967,M,-37.182,M,122.4,0131*6A
$PYRTM,2024,128.167922464572,19.277569874711
$GNHDT,118.704,T*20
$PYRTM,2024,128.167928309340,19.277575719491
$GNGGA,040149.00,3300.25649695,N,11802.94514454,W,2,12,0.8,8.809,M,-37.182,M,123.0,0131*62
$PYRTM,2024,128.167928309340,19.277575719491
$GNHDT,118.655,T*25
$PYRTM,2024,128.167934036782,19.277581446933
$GNGGA,040149.50,3300.25611511,N,11802.94432047,W,2,12,0.8,8.692,M,-37.182,M,123.4,0131*6E
$PYRTM,2024,128.167934036782,19.277581446933
$GNHDT,118.638,T*2E
$PYRTM,2024,128.167939885255,19.277587295394
$GNGGA,040150.00,3300.25575766,N,11802.94348670,W,2,12,0.8,8.620,M,-37.182,M,124.0,0131*62
$PYRTM,2024,128.167939885255,19.277587295394
$GNHDT,118.687,T*2A
$PYRTM,2024,128.167945611968,19.277593022106
$GNGGA,040150.50,3300.25539270,N,11802.94265290,W,2,12,0.8,8.575,M,-37.182,M,124.4,0131*6E
$PYRTM,2024,128.167945611968,19.277593022106
$GNHDT,118.802,T*29
$PYRTM,2024,128.167951457419,19.277598867558
$GNGGA,040151.00,3300.25498924,N,11802.94184059,W,2,12,0.8,8.538,M,-37.182,M,125.0,0131*6D
$PYRTM,2024,128.167951457419,19.277598867558
$GNHDT,118.700,T*24
$PYRTM,2024,128.167957187164,19.277604597303
$GNGGA,040151.50,3300.25454437,N,11802.94104909,W,2,12,0.8,8.484,M,-37.182,M,125.4,0131*61
$PYRTM,2024,128.167957187164,19.277604597303
$GNHDT,118.754,T*25
$PYRTM,2024,128.167963031030,19.277610441169
$GNGGA,040152.00,3300.25405325,N,11802.94027821,W,2,12,0.8,8.413,M,-37.182,M,126.0,0131*65
$PYRTM,2024,128.167963031030,19.277610441169
$GNHDT,118.786,T*2A
$PYRTM,2024,128.167968759468,19.277616169606
$GNGGA,040152.50,3300.25354718,N,11802.93950494,W,2,12,0.8,8.341,M,-37.182,M,126.4,0131*61
$PYRTM,2024,128.167968759468,19.277616169606
$GNHDT,118.836,T*2E
$PYRTM,2024,128.167974605289,19.277622015428
$GNGGA,040153.00,3300.25304229,N,11802.93871694,W,2,12,0.8,8.254,M,-37.182,M,127.0,0131*67
$PYRTM,2024,128.167974605289,19.277622015428
$GNHDT,118.565,T*25
$PYRTM,2024,128.167980335486,19.277627745625
$GNGGA,040153.50,3300.25256418,N,11802.93790051,W,2,12,0.8,8.193,M,-37.182,M,127.4,0131*63
$PYRTM,2024,128.167980335486,19.277627745625
$GNHDT,118.531,T*24
$PYRTM,2024,128.167986179699,19.277633589838
$GNGGA,040154.00,3300.25212053,N,11802.93705140,W,2,12,0.8,8.203,M,-37.182,M,128.0,0131*66
$PYRTM,2024,128.167986179699,19.277633589838
$GNHDT,118.364,T*22
$PYRTM,2024,128.167991908275,19.277639318414
$GNGGA,040154.50,3300.25170563,N,11802.93617532,W,2,12,0.8,8.266,M,-37.182,M,128.4,0131*66
$PYRTM,2024,128.167991908275,19.277639318414
$GNHDT,118.263,T*24
$PYRTM,2024,128.167997754062,19.277645164201
$GNGGA,040155.00,3300.25128324,N,11802.93530479,W,2,12,0.8,8.398,M,-37.182,M,129.0,0131*67
$PYRTM,2024,128.167997754062,19.277645164201
$GNHDT,118.005,T*26
$PYRTM,2024,128.168003479780,19.277650889919
$GNGGA,040155.50,3300.25083915,N,11802.93443855,W,2,12,0.8,8.558,M,-37.182,M,129.4,0131*63
$PYRTM,2024,128.168003479780,19.277650889919
$GNHDT,117.937,T*21
$PYRTM,2024,128.168009328681,19.277656738819
$GNGGA,040156.00,3300.25035752,N,11802.93358850,W,2,12,0.8,8.727,M,-37.182,M,130.0,0131*6B
$PYRTM,2024,128.168009328681,19.277656738819
$GNHDT,117.685,T*27
$PYRTM,2024,128.168015054687,19.277662464838
$GNGGA,040156.50,3300.24985242,N,11802.93274611,W,2,12,0.8,8.888,M,-37.182,M,130.4,0131*63
$PYRTM,2024,128.168015054687,19.277662464838
$GNHDT,117.851,T*20
$PYRTM,2024,128.168020901354,19.277668311493
$GNGGA,040157.00,3300.24934057,N,11802.93189873,W,2,12,0.8,9.019,M,-37.182,M,131.0,0131*64
$PYRTM,2024,128.168020901354,19.277668311493
$GNHDT,118.075,T*21
$PYRTM,2024,128.168026628356,19.277674038495
$GNGGA,040157.50,3300.24884916,N,11802.93103563,W,2,12,0.8,9.113,M,-37.182,M,131.4,0131*66
$PYRTM,2024,128.168026628356,19.277674038495
$GNHDT,118.096,T*2C
$PYRTM,2024,128.168032477338,19.277679887477
$GNGGA,040158.00,3300.24838434,N,11802.93015076,W,2,12,0.8,9.162,M,-37.182,M,132.0,0131*60
$PYRTM,2024,128.168032477338,19.277679887477
$GNHDT,118.418,T*2E
$PYRTM,2024,128.168038204942,19.277685615081
$GNGGA,040158.50,3300.24794270,N,11802.92926008,W,2,12,0.8,9.192,M,-37.182,M,132.4,0131*60
$PYRTM,2024,128.168038204942,19.277685615081
$GNHDT,118.526,T*22
$PYRTM,2024,128.168044052940,19.277691463079
$GNGGA,040159.00,3300.24751524,N,11802.92837394,W,2,12,0.8,9.205,M,-37.182,M,133.0,0131*64
$PYRTM,2024,128.168044052940,19.277691463079
$GNHDT,118.707,T*23
$PYRTM,2024,128.168049777708,19.277697187847
$GNGGA,040159.50,3300.24709350,N,11802.92749492,W,2,12,0.8,9.206,M,-37.182,M,133.4,0131*69
$PYRTM,2024,128.168049777708,19.277697187847
$GNHDT,118.854,T*2A
$PYRTM,2024,128.168055625590,19.277703035741
$GNGGA,040200.00,3300.24667605,N,11802.92662455,W,2,12,0.8,9.159,M,-37.182,M,134.0,0131*66
$PYRTM,2024,128.168055625590,19.277703035741
$GNHDT,118.909,T*23
$PYRTM,2024,128.168061353356,19.277708763495
$GNGGA,040200.50,3300.24626377,N,11802.92576357,W,2,12,0.8,9.090,M,-37.182,M,134.4,0131*65
$PYRTM,2024,128.168061353356,19.277708763495
$GNHDT,118.878,T*24
$PYRTM,2024,128.168067199201,19.277714609340
$GNGGA,040201.00,3300.24586594,N,11802.92490205,W,2,12,0.8,8.999,M,-37.182,M,135.0,0131*68
$PYRTM,2024,128.168067199201,19.277714609340
$GNHDT,118.803,T*28
$PYRTM,2024,128.168072926400,19.277720336551
$GNGGA,040201.50,3300.24547699,N,11802.92403706,W,2,12,0.8,8.905,M,-37.182,M,135.4,0131*63
$PYRTM,2024,128.168072926400,19.277720336551
$GNHDT,118.619,T*2D
$PYRTM,2024,128.168078773877,19.277726184016
$GNGGA,040202.00,3300.24508948,N,11802.92317374,W,2,12,0.8,8.805,M,-37.182,M,136.0,0131*68
$PYRTM,2024,128.168078773877,19.277726184016
$GNHDT,118.476,T*26
$PYRTM,2024,128.168084499225,19.277731909363
$GNGGA,040202.50,3300.24469607,N,11802.92233074,W,2,12,0.8,8.702,M,-37.182,M,136.4,0131*67
$PYRTM,2024,128.168084499225,19.277731909363
$GNHDT,118.344,T*20
$PYRTM,2024,128.168090348125,19.277737758264
$GNGGA,040203.00,3300.24428916,N,11802.92151233,W,2,12,0.8,8.606,M,-37.182,M,137.0,0131*6F
$PYRTM,2024,128.168090348125,19.277737758264
$GNHDT,118.380,T*28
$PYRTM,2024,128.168096074861,19.277743485012
$GNGGA,040203.50,3300.24387197,N,11802.92071530,W,2,12,0.8,8.522,M,-37.182,M,137.4,0131*6F
$PYRTM,2024,128.168096074861,19.277743485012
$GNHDT,118.269,T*2E
$PYRTM,2024,128.168101922697,19.277749332836
$GNGGA,040204.00,3300.24344675,N,11802.91993740,W,2,12,0.8,8.430,M,-37.182,M,138.0,0131*63
$PYRTM,2024,128.168101922697,19.277749332836
$GNHDT,118.292,T*2A
$PYRTM,2024,128.168107648194,19.277755058333
$GNGGA,040204.50,3300.24301945,N,11802.91916561,W,2,12,0.8,8.359,M,-37.182,M,138.4,0131*6B
$PYRTM,2024,128.168107648194,19.277755058333
$GNHDT,118.302,T*22
$PYRTM,2024,128.168113494549,19.277760904699
$GNGGA,040205.00,3300.24258558,N,11802.91839395,W,2,12,0.8,8.288,M,-37.182,M,139.0,0131*6B
$PYRTM,2024,128.168113494549,19.277760904699
$GNHDT,118.442,T*21
$PYRTM,2024,128.168119222245,19.277766632384
$GNGGA,040205.50,3300.24215525,N,11802.91761182,W,2,12,0.8,8.256,M,-37.182,M,139.4,0131*6C
$PYRTM,2024,128.168119222245,19.277766632384
$GNHDT,118.560,T*20
$PYRTM,2024,128.168125070139,19.277772480278
$GNGGA,040206.00,3300.24172084,N,11802.91681994,W,2,12,0.8,8.259,M,-37.182,M,140.0,0131*63
$PYRTM,2024,128.168125070139,19.277772480278
$GNHDT,118.611,T*25
$PYRTM,2024,128.168130799734,19.277778209873
$GNGGA,040206.50,3300.24128667,N,11802.91600793,W,2,12,0.8,8.302,M,-37.182,M,140.4,0131*69
$PYRTM,2024,128.168130799734,19.277778209873
$GNHDT,118.680,T*2D
$PYRTM,2024,128.168136645984,19.277784056123
$GNGGA,040207.00,3300.24085272,N,11802.91517579,W,2,12,0.8,8.363,M,-37.182,M,141.0,0131*6A
$PYRTM,2024,128.168136645984,19.277784056123
$GNHDT,118.930,T*29
$PYRTM,2024,128.168142371296,19.277789781435
$GNGGA,040207.50,3300.24041716,N,11802.91432370,W,2,12,0.8,8.441,M,-37.182,M,141.4,0131*6A
$PYRTM,2024,128.168142371296,19.277789781435
$GNHDT,119.020,T*20
$PYRTM,2024,128.168148217535,19.277795627674
$GNGGA,040208.00,3300.23998505,N,11802.91344841,W,2,12,0.8,8.511,M,-37.182,M,142.0,0131*66
$PYRTM,2024,128.168148217535,19.277795627674
$GNHDT,119.151,T*27
$PYRTM,2024,128.168153948275,19.277801358414
$GNGGA,040208.50,3300.23955276,N,11802.91255302,W,2,12,0.8,8.575,M,-37.182,M,142.4,0131*6A
$PYRTM,2024,128.168153948275,19.277801358414
$GNHDT,119.281,T*29
$PYRTM,2024,128.168159792106,19.277807202245
$GNGGA,040209.00,3300.23912091,N,11802.91164088,W,2,12,0.8,8.638,M,-37.182,M,143.0,0131*69
$PYRTM,2024,128.168159792106,19.277807202245
$GNHDT,119.376,T*20
$PYRTM,2024,128.168165519178,19.277812929317
$GNGGA,040209.50,3300.23867861,N,11802.91073432,W,2,12,0.8,8.704,M,-37.182,M,143.4,0131*60
$PYRTM,2024,128.168165519178,19.277812929317
$GNHDT,119.384,T*2D
$PYRTM,2024,128.168171363808,19.277818773947
$GNGGA,040210.00,3300.23821781,N,11802.90983848,W,2,12,0.8,8.772,M,-37.182,M,144.0,0131*6A
$PYRTM,2024,128.168171363808,19.277818773947
$GNHDT,119.054,T*23
$PYRTM,2024,128.168177093218,19.277824503368
$GNGGA,040210.50,3300.23773505,N,11802.90896926,W,2,12,0.8,8.830,M,-37.182,M,144.4,0131*68
$PYRTM,2024,128.168177093218,19.277824503368
$GNHDT,119.020,T*20
$PYRTM,2024,128.168182940012,19.277830350162
$GNGGA,040211.00,3300.23723815,N,11802.90810692,W,2,12,0.8,8.837,M,-37.182,M,145.0,0131*69
$PYRTM,2024,128.168182940012,19.277830350162
$GNHDT,118.717,T*22
$PYRTM,2024,128.168188666319,19.277836076458
$GNGGA,040211.50,3300.23674405,N,11802.90725426,W,2,12,0.8,8.803,M,-37.182,M,145.4,0131*65
$PYRTM,2024,128.168188666319,19.277836076458
$GNHDT,118.597,T*28
$PYRTM,2024,128.168194514664,19.277841924815
$GNGGA,040212.00,3300.23627252,N,11802.90639627,W,2,12,0.8,8.731,M,-37.182,M,146.0,0131*67
$PYRTM,2024,128.168194514664,19.277841924815
$GNHDT,118.578,T*29
$PYRTM,2024,128.168200243322,19.277847653461
$GNGGA,040212.50,3300.23583350,N,11802.90553002,W,2,12,0.8,8.638,M,-37.182,M,146.4,0131*6E
$PYRTM,2024,128.168200243322,19.277847653461
$GNHDT,118.434,T*20
$PYRTM,2024,128.168206089016,19.277853499167
$GNGGA,040213.00,3300.23541595,N,11802.90466239,W,2,12,0.8,8.561,M,-37.182,M,147.0,0131*6C
$PYRTM,2024,128.168206089016,19.277853499167
$GNHDT,118.609,T*2C
$PYRTM,2024,128.168211816586,19.277859226725
$GNGGA,040213.50,3300.23500709,N,11802.90380756,W,2,12,0.8,8.472,M,-37.182,M,147.4,0131*6F
$PYRTM,2024,128.168211816586,19.277859226725
$GNHDT,118.769,T*2B
$PYRTM,2024,128.168217663137,19.277865073275
$GNGGA,040214.00,3300.23459773,N,11802.90297069,W,2,12,0.8,8.404,M,-37.182,M,148.0,0131*6B
$PYRTM,2024,128.168217663137,19.277865073275
$GNHDT,118.966,T*2A
$PYRTM,2024,128.168223391192,19.277870801331
$GNGGA,040214.50,3300.23417612,N,11802.90216270,W,2,12,0.8,8.383,M,-37.182,M,148.4,0131*6D
$PYRTM,2024,128.168223391192,19.277870801331
$GNHDT,119.028,T*28
$PYRTM,2024,128.168229236377,19.277876646528
$GNGGA,040215.00,3300.23373913,N,11802.90137583,W,2,12,0.8,8.412,M,-37.182,M,149.0,0131*63
$PYRTM,2024,128.168229236377,19.277876646528
$GNHDT,119.067,T*23
$PYRTM,2024,128.168234962639,19.277882372778
$GNGGA,040215.50,3300.23329577,N,11802.90058749,W,2,12,0.8,8.467,M,-37.182,M,149.4,0131*6D
$PYRTM,2024,128.168234962639,19.277882372778
$GNHDT,118.794,T*29
$PYRTM,2024,128.168240810046,19.277888220185
$GNGGA,040216.00,3300.23285231,N,11802.89978842,W,2,12,0.8,8.553,M,-37.182,M,150.0,0131*64
$PYRTM,2024,128.168240810046,19.277888220185
$GNHDT,118.610,T*24
$PYRTM,2024,128.168246539907,19.277893950058
$GNGGA,040216.50,3300.23241821,N,11802.89896183,W,2,12,0.8,8.627,M,-37.182,M,150.4,0131*63
$PYRTM,2024,128.168246539907,19.277893950058
$GNHDT,118.424,T*21
$PYRTM,2024,128.168252383727,19.277899793866
$GNGGA,040217.00,3300.23198637,N,11802.89812305,W,2,12,0.8,8.701,M,-37.182,M,151.0,0131*69
$PYRTM,2024,128.168252383727,19.277899793866
$GNHDT,118.158,T*2F
$PYRTM,2024,128.168258111771,19.277905521921
$GNGGA,040217.50,3300.23155091,N,11802.89727744,W,2,12,0.8,8.760,M,-37.182,M,151.4,0131*6C
$PYRTM,2024,128.168258111771,19.277905521921
$GNHDT,118.053,T*25
$PYRTM,2024,128.168263960266,19.277911370405
$GNGGA,040218.00,3300.23110935,N,11802.89643245,W,2,12,0.8,8.828,M,-37.182,M,152.0,0131*63
$PYRTM,2024,128.168263960266,19.277911370405
$GNHDT,117.986,T*2B
$PYRTM,2024,128.168269688773,19.277917098924
$GNGGA,040218.50,3300.23066633,N,11802.89558459,W,2,12,0.8,8.898,M,-37.182,M,152.4,0131*62
$PYRTM,2024,128.168269688773,19.277917098924
$GNHDT,117.996,T*2A
$PYRTM,2024,128.168275532350,19.277922942500
$GNGGA,040219.00,3300.23021519,N,11802.89473871,W,2,12,0.8,8.975,M,-37.182,M,153.0,0131*67
$PYRTM,2024,128.168275532350,19.277922942500
$GNHDT,118.183,T*29
$PYRTM,2024,128.168281260648,19.277928670787
$GNGGA,040219.50,3300.22977268,N,11802.89388368,W,2,12,0.8,9.034,M,-37.182,M,153.4,0131*61
$PYRTM,2024,128.168281260648,19.277928670787
$GNHDT,118.257,T*23
$PYRTM,2024,128.168287111389,19.277934521528
$GNGGA,040220.00,3300.22933686,N,11802.89302756,W,2,12,0.8,9.091,M,-37.182,M,154.0,0131*6D
$PYRTM,2024,128.168287111389,19.277934521528
$GNHDT,118.263,T*24
$PYRTM,2024,128.168292835093,19.277940245231
$GNGGA,040220.50,3300.22891835,N,11802.89216179,W,2,12,0.8,9.131,M,-37.182,M,154.4,0131*67
$PYRTM,2024,128.168292835093,19.277940245231
$GNHDT,118.276,T*20
$PYRTM,2024,128.168298681053,19.277946091192
$GNGGA,040221.00,3300.22850383,N,11802.89129606,W,2,12,0.8,9.142,M,-37.182,M,155.0,0131*69
$PYRTM,2024,128.168298681053,19.277946091192
$GNHDT,118.211,T*21
$PYRTM,2024,128.168304407292,19.277951817431
$GNGGA,040221.50,3300.22809317,N,11802.89041435,W,2,12,0.8,9.105,M,-37.182,M,155.4,0131*67
$PYRTM,2024,128.168304407292,19.277951817431
$GNHDT,118.244,T*21
$PYRTM,2024,128.168310255787,19.277957665937
$GNGGA,040222.00,3300.22768348,N,11802.88952180,W,2,12,0.8,9.032,M,-37.182,M,156.0,0131*60
$PYRTM,2024,128.168310255787,19.277957665937
$GNHDT,118.279,T*2F
$PYRTM,2024,128.168315983241,19.277963393380
$GNGGA,040222.50,3300.22726883,N,11802.88863110,W,2,12,0.8,8.942,M,-37.182,M,156.4,0131*62
$PYRTM,2024,128.168315983241,19.277963393380
$GNHDT,118.342,T*26
$PYRTM,2024,128.168321828773,19.277969238912
$GNGGA,040223.00,3300.22684762,N,11802.88774906,W,2,12,0.8,8.849,M,-37.182,M,157.0,0131*66
$PYRTM,2024,128.168321828773,19.277969238912
$GNHDT,118.298,T*20
$PYRTM,2024,128.168327555752,19.277974965891
$GNGGA,040223.50,3300.22642355,N,11802.88688530,W,2,12,0.8,8.781,M,-37.182,M,157.4,0131*6D
$PYRTM,2024,128.168327555752,19.277974965891
$GNHDT,118.167,T*23
$PYRTM,2024,128.168333405035,19.277980815174
$GNGGA,040224.00,3300.22599894,N,11802.88603551,W,2,12,0.8,8.733,M,-37.182,M,158.0,0131*6A
$PYRTM,2024,128.168333405035,19.277980815174
$GNHDT,118.151,T*26
$PYRTM,2024,128.168339130312,19.277986540463
$GNGGA,040224.50,3300.22557905,N,11802.88518945,W,2,12,0.8,8.723,M,-37.182,M,158.4,0131*61
$PYRTM,2024,128.168339130312,19.277986540463
$GNHDT,118.355,T*20
$PYRTM,2024,128.168344979618,19.277992389757
$GNGGA,040225.00,3300.22515287,N,11802.88434661,W,2,12,0.8,8.722,M,-37.182,M,159.0,0131*60
$PYRTM,2024,128.168344979618,19.277992389757
$GNHDT,118.418,T*2E
$PYRTM,2024,128.168350704537,19.277998114676
$GNGGA,040225.50,3300.22471911,N,11802.88350489,W,2,12,0.8,8.715,M,-37.182,M,159.4,0131*63
$PYRTM,2024,128.168350704537,19.277998114676
$GNHDT,118.516,T*21
$PYRTM,2024,128.168356555266,19.278003965405
$GNGGA,040226.00,3300.22427372,N,11802.88266107,W,2,12,0.8,8.679,M,-37.182,M,160.0,0131*6B
$PYRTM,2024,128.168356555266,19.278003965405
$GNHDT,118.604,T*21
$PYRTM,2024,128.168362277928,19.278009688067
$GNGGA,040226.50,3300.22382858,N,11802.88181313,W,2,12,0.8,8.607,M,-37.182,M,160.4,0131*65
$PYRTM,2024,128.168362277928,19.278009688067
$GNHDT,118.533,T*26
$PYRTM,2024,128.168368124907,19.278015535046
$GNGGA,040227.00,3300.22337525,N,11802.88096965,W,2,12,0.8,8.508,M,-37.182,M,161.0,0131*6D
$PYRTM,2024,128.168368124907,19.278015535046
$GNHDT,118.497,T*29
$PYRTM,2024,128.168373852141,19.278021262280
$GNGGA,040227.50,3300.22291706,N,11802.88013402,W,2,12,0.8,8.401,M,-37.182,M,161.4,0131*6B
$PYRTM,2024,128.168373852141,19.278021262280
$GNHDT,118.323,T*21
$PYRTM,2024,128.168379700556,19.278027110706
