$PYRTM,2024,121.750000093542,12.859647503681
$GNGGA,180000.00,3246.02031633,N,11732.09559443,W,2,12,0.8,3.418,M,-36.701,M,5.0,0135*6D
$PYRTM,2024,121.750000093542,12.859647503681
$GNHDT,296.777,T*21
$PYRTM,2024,121.750005827708,12.859653237847
$GNGGA,180000.50,3246.02089456,N,11732.09677571,W,2,12,0.8,3.245,M,-36.701,M,5.4,0135*6F
$PYRTM,2024,121.750005827708,12.859653237847
$GNHDT,296.879,T*20
$PYRTM,2024,121.750011663935,12.859659074074
$GNGGA,180001.00,3246.02145208,N,11732.09791979,W,2,12,0.8,3.255,M,-36.701,M,6.0,0135*6C
$PYRTM,2024,121.750011663935,12.859659074074
$GNHDT,296.829,T*25
$PYRTM,2024,121.750017399306,12.859664809444
$GNGGA,180001.50,3246.02198000,N,11732.09907456,W,2,12,0.8,3.462,M,-36.701,M,6.4,0135*64
$PYRTM,2024,121.750017399306,12.859664809444
$GNHDT,296.572,T*26
$PYRTM,2024,121.750023240498,12.859670650637
$GNGGA,180002.00,3246.02248908,N,11732.10027409,W,2,12,0.8,3.785,M,-36.701,M,7.0,0135*6B
$PYRTM,2024,121.750023240498,12.859670650637
$GNHDT,296.303,T*26
$PYRTM,2024,121.750028972836,12.859676382975
$GNGGA,180002.50,3246.02298649,N,11732.10150531,W,2,12,0.8,4.087,M,-36.701,M,7.4,0135*64
$PYRTM,2024,121.750028972836,12.859676382975
$GNHDT,296.117,T*21
$PYRTM,2024,121.750034819028,12.859682229167
$GNGGA,180003.00,3246.02347220,N,11732.10271794,W,2,12,0.8,4.396,M,-36.701,M,7.0,0135*62
$PYRTM,2024,121.750034819028,12.859682229167
$GNHDT,296.106,T*21
$PYRTM,2024,121.750040547569,12.859687957708
$GNGGA,180003.50,3246.02394679,N,11732.10387312,W,2,12,0.8,4.681,M,-36.701,M,7.4,0135*64
$PYRTM,2024,121.750040547569,12.859687957708
$GNHDT,296.227,T*21
$PYRTM,2024,121.750046385382,12.859693795521
$GNGGA,180004.00,3246.02444108,N,11732.10498432,W,2,12,0.8,4.897,M,-36.701,M,7.0,0135*6C
$PYRTM,2024,121.750046385382,12.859693795521
$GNHDT,296.510,T*22
$PYRTM,2024,121.750052123808,12.859699533947
$GNGGA,180004.50,3246.02498812,N,11732.10610103,W,2,12,0.8,4.903,M,-36.701,M,7.4,0135*67
$PYRTM,2024,121.750052123808,12.859699533947
$GNHDT,296.802,T*2C
$PYRTM,2024,121.750057962639,12.859705372778
$GNGGA,180005.00,3246.02557763,N,11732.10727175,W,2,12,0.8,4.644,M,-36.701,M,4.0,0135*67
$PYRTM,2024,121.750057962639,12.859705372778
$GNHDT,296.713,T*23
$PYRTM,2024,121.750063695116,12.859711105255
$GNGGA,180005.50,3246.02616653,N,11732.10850204,W,2,12,0.8,4.170,M,-36.701,M,4.4,0135*68
$PYRTM,2024,121.750063695116,12.859711105255
$GNHDT,296.220,T*26
$PYRTM,2024,121.750069540428,12.859716950567
$GNGGA,180006.00,3246.02671718,N,11732.10974862,W,2,12,0.8,3.690,M,-36.701,M,5.0,0135*67
$PYRTM,2024,121.750069540428,12.859716950567
$GNHDT,295.979,T*22
$PYRTM,2024,121.750075272894,12.859722683032
$GNGGA,180006.50,3246.02722270,N,11732.11096754,W,2,12,0.8,3.371,M,-36.701,M,5.4,0135*6E
$PYRTM,2024,121.750075272894,12.859722683032
$GNHDT,296.347,T*26
$PYRTM,2024,121.750081113495,12.859728523646
$GNGGA,180007.00,3246.02769365,N,11732.11211098,W,2,12,0.8,3.373,M,-36.701,M,6.0,0135*6F
$PYRTM,2024,121.750081113495,12.859728523646
$GNHDT,296.387,T*2A
$PYRTM,2024,121.750086849942,12.859734260081
$GNGGA,180007.50,3246.02816347,N,11732.11319462,W,2,12,0.8,3.677,M,-36.701,M,6.4,0135*60
$PYRTM,2024,121.750086849942,12.859734260081
$GNHDT,296.779,T*2F
$PYRTM,2024,121.750092686933,12.859740097060
$GNGGA,180008.00,3246.02863407,N,11732.11426151,W,2,12,0.8,4.145,M,-36.701,M,7.0,0135*61
$PYRTM,2024,121.750092686933,12.859740097060
$GNHDT,296.811,T*2E
$PYRTM,2024,121.750098419120,12.859745829259
$GNGGA,180008.50,3246.02912164,N,11732.11534991,W,2,12,0.8,4.594,M,-36.701,M,7.4,0135*69
$PYRTM,2024,121.750098419120,12.859745829259
$GNHDT,296.627,T*25
$PYRTM,2024,121.750104259896,12.859751670035
$GNGGA,180009.00,3246.02965040,N,11732.11649571,W,2,12,0.8,4.866,M,-36.701,M,7.0,0135*65
$PYRTM,2024,121.750104259896,12.859751670035
$GNHDT,296.759,T*2D
$PYRTM,2024,121.750109994676,12.859757404815
$GNGGA,180009.50,3246.03021638,N,11732.11769299,W,2,12,0.8,4.838,M,-36.701,M,7.4,0135*6C
$PYRTM,2024,121.750109994676,12.859757404815
$GNHDT,296.862,T*2A
$PYRTM,2024,121.750115837801,12.859763247951
$GNGGA,180010.00,3246.03078650,N,11732.11890430,W,2,12,0.8,4.610,M,-36.701,M,7.0,0135*6F
$PYRTM,2024,121.750115837801,12.859763247951
$GNHDT,296.658,T*2D
$PYRTM,2024,121.750121570729,12.859768980868
$GNGGA,180010.50,3246.03133370,N,11732.12010695,W,2,12,0.8,4.304,M,-36.701,M,7.4,0135*69
$PYRTM,2024,121.750121570729,12.859768980868
$GNHDT,296.637,T*24
$PYRTM,2024,121.750127404340,12.859774814479
$GNGGA,180011.00,3246.03182714,N,11732.12128093,W,2,12,0.8,4.058,M,-36.701,M,4.0,0135*66
$PYRTM,2024,121.750127404340,12.859774814479
$GNHDT,296.780,T*29
$PYRTM,2024,121.750133140648,12.859780550787
$GNGGA,180011.50,3246.03227314,N,11732.12244897,W,2,12,0.8,3.919,M,-36.701,M,4.4,0135*61
$PYRTM,2024,121.750133140648,12.859780550787
$GNHDT,296.480,T*2A
$PYRTM,2024,121.750138983113,12.859786393252
$GNGGA,180012.00,3246.03270090,N,11732.12363028,W,2,12,0.8,3.881,M,-36.702,M,5.0,0135*64
$PYRTM,2024,121.750138983113,12.859786393252
$GNHDT,296.462,T*26
$PYRTM,2024,121.750144713831,12.859792123970
$GNGGA,180012.50,3246.03314990,N,11732.12483064,W,2,12,0.8,3.873,M,-36.702,M,5.4,0135*63
$PYRTM,2024,121.750144713831,12.859792123970
$GNHDT,296.596,T*2C
$PYRTM,2024,121.750150556146,12.859797966285
$GNGGA,180013.00,3246.03363481,N,11732.12604134,W,2,12,0.8,3.870,M,-36.702,M,6.0,0135*67
$PYRTM,2024,121.750150556146,12.859797966285
$GNHDT,296.365,T*26
$PYRTM,2024,121.750156290637,12.859803700775
$GNGGA,180013.50,3246.03416603,N,11732.12721990,W,2,12,0.8,3.928,M,-36.702,M,6.4,0135*67
$PYRTM,2024,121.750156290637,12.859803700775
$GNHDT,296.386,T*2B
$PYRTM,2024,121.750162129363,12.859809539502
$GNGGA,180014.00,3246.03471764,N,11732.12832973,W,2,12,0.8,4.088,M,-36.702,M,7.0,0135*65
$PYRTM,2024,121.750162129363,12.859809539502
$GNHDT,296.630,T*23
$PYRTM,2024,121.750167861065,12.859815271204
$GNGGA,180014.50,3246.03526018,N,11732.12940038,W,2,12,0.8,4.324,M,-36.702,M,7.4,0135*6C
$PYRTM,2024,121.750167861065,12.859815271204
$GNHDT,296.733,T*21
$PYRTM,2024,121.750173702095,12.859821112234
$GNGGA,180015.00,3246.03578581,N,11732.13048554,W,2,12,0.8,4.565,M,-36.702,M,7.0,0135*6E
$PYRTM,2024,121.750173702095,12.859821112234
$GNHDT,296.544,T*23
$PYRTM,2024,121.750179436586,12.859826846725
$GNGGA,180015.50,3246.03629597,N,11732.13163282,W,2,12,0.8,4.705,M,-36.702,M,7.4,0135*6F
$PYRTM,2024,121.750179436586,12.859826846725
$GNHDT,296.795,T*2D
$PYRTM,2024,121.750185278044,12.859832688183
$GNGGA,180016.00,3246.03679308,N,11732.13283761,W,2,12,0.8,4.660,M,-36.702,M,7.0,0135*6F
$PYRTM,2024,121.750185278044,12.859832688183
$GNHDT,296.738,T*2A
$PYRTM,2024,121.750191011748,12.859838421887
$GNGGA,180016.50,3246.03727969,N,11732.13408026,W,2,12,0.8,4.452,M,-36.702,M,7.4,0135*6B
$PYRTM,2024,121.750191011748,12.859838421887
$GNHDT,296.425,T*25
$PYRTM,2024,121.750196849618,12.859844260231
$GNGGA,180017.00,3246.03775170,N,11732.13533134,W,2,12,0.8,4.166,M,-36.702,M,4.0,0135*66
$PYRTM,2024,121.750196849618,12.859844260231
$GNHDT,296.442,T*24
$PYRTM,2024,121.750202583727,12.859849993866
$GNGGA,180017.50,3246.03820448,N,11732.13654585,W,2,12,0.8,3.948,M,-36.702,M,4.4,0135*69
$PYRTM,2024,121.750202583727,12.859849993866
$GNHDT,296.520,T*21
$PYRTM,2024,121.750208429792,12.859855839931
$GNGGA,180018.00,3246.03865420,N,11732.13770522,W,2,12,0.8,3.890,M,-36.702,M,5.0,0135*67
$PYRTM,2024,121.750208429792,12.859855839931
$GNHDT,296.209,T*2D
$PYRTM,2024,121.750214157731,12.859861567870
$GNGGA,180018.50,3246.03911690,N,11732.13881035,W,2,12,0.8,4.026,M,-36.702,M,5.4,0135*6D
$PYRTM,2024,121.750214157731,12.859861567870
$GNHDT,296.540,T*27
$PYRTM,2024,121.750219996204,12.859867406343
$GNGGA,180019.00,3246.03961186,N,11732.13989457,W,2,12,0.8,4.248,M,-36.702,M,6.0,0135*6A
$PYRTM,2024,121.750219996204,12.859867406343
$GNHDT,296.710,T*20
$PYRTM,2024,121.750225734132,12.859873144271
$GNGGA,180019.50,3246.04015371,N,11732.14100328,W,2,12,0.8,4.458,M,-36.702,M,6.4,0135*6A
$PYRTM,2024,121.750225734132,12.859873144271
$GNHDT,296.558,T*2E
$PYRTM,2024,121.750231575174,12.859878985313
$GNGGA,180020.00,3246.04073031,N,11732.14216496,W,2,12,0.8,4.510,M,-36.702,M,7.0,0135*6C
$PYRTM,2024,121.750231575174,12.859878985313
$GNHDT,296.578,T*2C
$PYRTM,2024,121.750237310833,12.859884720972
$GNGGA,180020.50,3246.04132130,N,11732.14337185,W,2,12,0.8,4.406,M,-36.702,M,7.4,0135*6A
$PYRTM,2024,121.750237310833,12.859884720972
$GNHDT,296.542,T*25
$PYRTM,2024,121.750243150255,12.859890560405
$GNGGA,180021.00,3246.04189066,N,11732.14461892,W,2,12,0.8,4.186,M,-36.702,M,7.0,0135*6E
$PYRTM,2024,121.750243150255,12.859890560405
$GNHDT,296.372,T*20
$PYRTM,2024,121.750248880833,12.859896290972
$GNGGA,180021.50,3246.04240955,N,11732.14588770,W,2,12,0.8,3.977,M,-36.702,M,7.4,0135*64
$PYRTM,2024,121.750248880833,12.859896290972
$GNHDT,296.270,T*23
$PYRTM,2024,121.750254724525,12.859902134664
$GNGGA,180022.00,3246.04287300,N,11732.14713957,W,2,12,0.8,3.878,M,-36.702,M,7.0,0135*62
$PYRTM,2024,121.750254724525,12.859902134664
$GNHDT,296.233,T*24
$PYRTM,2024,121.750260459086,12.859907869225
$GNGGA,180022.50,3246.04331002,N,11732.14833045,W,2,12,0.8,3.999,M,-36.702,M,7.4,0135*67
$PYRTM,2024,121.750260459086,12.859907869225
$GNHDT,296.273,T*20
$PYRTM,2024,121.750266297917,12.859913708056
$GNGGA,180023.00,3246.04374463,N,11732.14943750,W,2,12,0.8,4.313,M,-36.702,M,4.0,0135*6C
$PYRTM,2024,121.750266297917,12.859913708056
$GNHDT,296.616,T*27
$PYRTM,2024,121.750272028449,12.859919438588
$GNGGA,180023.50,3246.04422983,N,11732.15050660,W,2,12,0.8,4.660,M,-36.702,M,4.4,0135*63
$PYRTM,2024,121.750272028449,12.859919438588
$GNHDT,296.790,T*28
$PYRTM,2024,121.750277868356,12.859925278495
$GNGGA,180024.00,3246.04477326,N,11732.15161246,W,2,12,0.8,4.896,M,-36.702,M,5.0,0135*65
$PYRTM,2024,121.750277868356,12.859925278495
$GNHDT,296.865,T*2D
$PYRTM,2024,121.750283612616,12.859931022755
$GNGGA,180024.50,3246.04537603,N,11732.15278226,W,2,12,0.8,4.837,M,-36.702,M,5.4,0135*65
$PYRTM,2024,121.750283612616,12.859931022755
$GNHDT,296.581,T*2A
$PYRTM,2024,121.750289443796,12.859936853935
$GNGGA,180025.00,3246.04599345,N,11732.15397366,W,2,12,0.8,4.534,M,-36.702,M,6.0,0135*6E
$PYRTM,2024,121.750289443796,12.859936853935
$GNHDT,296.513,T*21
$PYRTM,2024,121.750295180868,12.859942591007
$GNGGA,180025.50,3246.04656635,N,11732.15517994,W,2,12,0.8,4.169,M,-36.702,M,6.4,0135*68
$PYRTM,2024,121.750295180868,12.859942591007
$GNHDT,296.527,T*26
$PYRTM,2024,121.750301024861,12.859948435000
$GNGGA,180026.00,3246.04706963,N,11732.15636265,W,2,12,0.8,3.894,M,-36.702,M,7.0,0135*6A
$PYRTM,2024,121.750301024861,12.859948435000
$GNHDT,296.632,T*21
$PYRTM,2024,121.750306750833,12.859954160972
$GNGGA,180026.50,3246.04751800,N,11732.15750979,W,2,12,0.8,3.831,M,-36.702,M,7.4,0135*65
$PYRTM,2024,121.750306750833,12.859954160972
$GNHDT,296.667,T*21
$PYRTM,2024,121.750312592824,12.859960002963
$GNGGA,180027.00,3246.04793742,N,11732.15861116,W,2,12,0.8,3.993,M,-36.703,M,7.0,0135*66
$PYRTM,2024,121.750312592824,12.859960002963
$GNHDT,296.797,T*2F
$PYRTM,2024,121.750318324734,12.859965734873
$GNGGA,180027.50,3246.04837181,N,11732.15969177,W,2,12,0.8,4.269,M,-36.703,M,7.4,0135*68
$PYRTM,2024,121.750318324734,12.859965734873
$GNHDT,296.880,T*26
$PYRTM,2024,121.750324166991,12.859971577141
$GNGGA,180028.00,3246.04883752,N,11732.16079300,W,2,12,0.8,4.519,M,-36.703,M,7.0,0135*68
$PYRTM,2024,121.750324166991,12.859971577141
$GNHDT,297.013,T*25
$PYRTM,2024,121.750329904572,12.859977314711
$GNGGA,180028.50,3246.04935320,N,11732.16195141,W,2,12,0.8,4.552,M,-36.703,M,7.4,0135*6F
$PYRTM,2024,121.750329904572,12.859977314711
$GNHDT,296.694,T*2D
$PYRTM,2024,121.750335742292,12.859983152431
$GNGGA,180029.00,3246.04989583,N,11732.16315892,W,2,12,0.8,4.375,M,-36.703,M,4.0,0135*6A
$PYRTM,2024,121.750335742292,12.859983152431
$GNHDT,296.521,T*20
$PYRTM,2024,121.750341476192,12.859988886331
$GNGGA,180029.50,3246.05043389,N,11732.16437654,W,2,12,0.8,4.027,M,-36.703,M,4.4,0135*6E
$PYRTM,2024,121.750341476192,12.859988886331
$GNHDT,296.376,T*24
$PYRTM,2024,121.750347313032,12.859994723171
$GNGGA,180030.00,3246.05094630,N,11732.16558737,W,2,12,0.8,3.687,M,-36.703,M,5.0,0135*6C
$PYRTM,2024,121.750347313032,12.859994723171
$GNHDT,296.440,T*26
$PYRTM,2024,121.750353047905,12.860000458044
$GNGGA,180030.50,3246.05142649,N,11732.16677189,W,2,12,0.8,3.483,M,-36.703,M,5.4,0135*62
$PYRTM,2024,121.750353047905,12.860000458044
$GNHDT,296.618,T*29
$PYRTM,2024,121.750358889618,12.860006299757
$GNGGA,180031.00,3246.05188187,N,11732.16793423,W,2,12,0.8,3.473,M,-36.703,M,6.0,0135*63
$PYRTM,2024,121.750358889618,12.860006299757
$GNHDT,296.610,T*21
$PYRTM,2024,121.750364625463,12.860012035602
$GNGGA,180031.50,3246.05233487,N,11732.16909010,W,2,12,0.8,3.656,M,-36.703,M,6.4,0135*68
$PYRTM,2024,121.750364625463,12.860012035602
$GNHDT,296.690,T*29
$PYRTM,2024,121.750370461192,12.860017871331
$GNGGA,180032.00,3246.05280010,N,11732.17024244,W,2,12,0.8,3.933,M,-36.703,M,7.0,0135*61
$PYRTM,2024,121.750370461192,12.860017871331
$GNHDT,296.640,T*24
$PYRTM,2024,121.750376195347,12.860023605486
$GNGGA,180032.50,3246.05329801,N,11732.17138524,W,2,12,0.8,4.240,M,-36.703,M,7.4,0135*6F
$PYRTM,2024,121.750376195347,12.860023605486
$GNHDT,296.563,T*26
$PYRTM,2024,121.750382037928,12.860029448067
$GNGGA,180033.00,3246.05382634,N,11732.17253641,W,2,12,0.8,4.469,M,-36.703,M,7.0,0135*65
$PYRTM,2024,121.750382037928,12.860029448067
$GNHDT,296.479,T*2C
$PYRTM,2024,121.750387769398,12.860035179549
$GNGGA,180033.50,3246.05438077,N,11732.17371576,W,2,12,0.8,4.552,M,-36.703,M,7.4,0135*6C
$PYRTM,2024,121.750387769398,12.860035179549
$GNHDT,296.663,T*25
$PYRTM,2024,121.750393610197,12.860041020336
$GNGGA,180034.00,3246.05493438,N,11732.17493413,W,2,12,0.8,4.484,M,-36.703,M,7.0,0135*67
$PYRTM,2024,121.750393610197,12.860041020336
$GNHDT,296.375,T*27
$PYRTM,2024,121.750399344144,12.860046754282
$GNGGA,180034.50,3246.05547494,N,11732.17614716,W,2,12,0.8,4.363,M,-36.703,M,7.4,0135*6D
$PYRTM,2024,121.750399344144,12.860046754282
$GNHDT,296.386,T*2B
$PYRTM,2024,121.750405185081,12.860052595220
$GNGGA,180035.00,3246.05598855,N,11732.17732835,W,2,12,0.8,4.297,M,-36.703,M,4.0,0135*6C
$PYRTM,2024,121.750405185081,12.860052595220
$GNHDT,296.331,T*27
$PYRTM,2024,121.750410918067,12.860058328206
$GNGGA,180035.50,3246.05647714,N,11732.17847082,W,2,12,0.8,4.350,M,-36.703,M,4.4,0135*65
$PYRTM,2024,121.750410918067,12.860058328206
$GNHDT,296.551,T*27
$PYRTM,2024,121.750416760255,12.860064170394
$GNGGA,180036.00,3246.05694315,N,11732.17960355,W,2,12,0.8,4.482,M,-36.703,M,5.0,0135*68
$PYRTM,2024,121.750416760255,12.860064170394
$GNHDT,296.448,T*2E
$PYRTM,2024,121.750422492477,12.860069902616
$GNGGA,180036.50,3246.05741152,N,11732.18074900,W,2,12,0.8,4.635,M,-36.703,M,5.4,0135*66
$PYRTM,2024,121.750422492477,12.860069902616
$GNHDT,296.138,T*2C
$PYRTM,2024,121.750428339201,12.860075749340
$GNGGA,180037.00,3246.05788888,N,11732.18192319,W,2,12,0.8,4.720,M,-36.703,M,6.0,0135*60
$PYRTM,2024,121.750428339201,12.860075749340
$GNHDT,296.004,T*22
$PYRTM,2024,121.750434069410,12.860081479549
$GNGGA,180037.50,3246.05839452,N,11732.18310047,W,2,12,0.8,4.718,M,-36.703,M,6.4,0135*64
$PYRTM,2024,121.750434069410,12.860081479549
$GNHDT,296.450,T*27
$PYRTM,2024,121.750439907650,12.860087317789
$GNGGA,180038.00,3246.05893550,N,11732.18426016,W,2,12,0.8,4.615,M,-36.703,M,7.0,0135*62
$PYRTM,2024,121.750439907650,12.860087317789
$GNHDT,296.785,T*2C
$PYRTM,2024,121.750445639120,12.860093049259
$GNGGA,180038.50,3246.05950813,N,11732.18540700,W,2,12,0.8,4.446,M,-36.703,M,7.4,0135*62
$PYRTM,2024,121.750445639120,12.860093049259
$GNHDT,296.514,T*26
$PYRTM,2024,121.750451479537,12.860098889676
$GNGGA,180039.00,3246.06010541,N,11732.18656942,W,2,12,0.8,4.229,M,-36.703,M,7.0,0135*65
$PYRTM,2024,121.750451479537,12.860098889676
$GNHDT,296.479,T*2C
$PYRTM,2024,121.750457213808,12.860104623947
$GNGGA,180039.50,3246.06068643,N,11732.18776614,W,2,12,0.8,4.026,M,-36.703,M,7.4,0135*68
$PYRTM,2024,121.750457213808,12.860104623947
$GNHDT,296.417,T*24
$PYRTM,2024,121.750463054525,12.860110464676
$GNGGA,180040.00,3246.06121288,N,11732.18897978,W,2,12,0.8,3.910,M,-36.703,M,7.0,0135*66
$PYRTM,2024,121.750463054525,12.860110464676
$GNHDT,296.181,T*2E
$PYRTM,2024,121.750468791192,12.860116201331
$GNGGA,180040.50,3246.06167660,N,11732.19018430,W,2,12,0.8,3.946,M,-36.703,M,7.4,0135*6B
$PYRTM,2024,121.750468791192,12.860116201331
$GNHDT,296.068,T*28
$PYRTM,2024,121.750474630787,12.860122040926
$GNGGA,180041.00,3246.06209079,N,11732.19137467,W,2,12,0.8,4.141,M,-36.703,M,4.0,0135*6B
$PYRTM,2024,121.750474630787,12.860122040926
$GNHDT,295.961,T*2B
$PYRTM,2024,121.750480363588,12.860127773727
$GNGGA,180041.50,3246.06249419,N,11732.19256671,W,2,12,0.8,4.379,M,-36.703,M,4.4,0135*64
$PYRTM,2024,121.750480363588,12.860127773727
$GNHDT,295.824,T*2B
$PYRTM,2024,121.750486205613,12.860133615752
$GNGGA,180042.00,3246.06294322,N,11732.19376223,W,2,12,0.8,4.572,M,-36.704,M,5.0,0135*62
$PYRTM,2024,121.750486205613,12.860133615752
$GNHDT,295.740,T*26
$PYRTM,2024,121.750491935671,12.860139345810
$GNGGA,180042.50,3246.06345606,N,11732.19495001,W,2,12,0.8,4.649,M,-36.704,M,5.4,0135*6E
$PYRTM,2024,121.750491935671,12.860139345810
$GNHDT,295.689,T*22
$PYRTM,2024,121.750497777951,12.860145188090
$GNGGA,180043.00,3246.06402616,N,11732.19610949,W,2,12,0.8,4.638,M,-36.704,M,6.0,0135*64
$PYRTM,2024,121.750497777951,12.860145188090
$GNHDT,295.915,T*28
$PYRTM,2024,121.750503511759,12.860150921910
$GNGGA,180043.50,3246.06460377,N,11732.19722631,W,2,12,0.8,4.570,M,-36.704,M,6.4,0135*6C
$PYRTM,2024,121.750503511759,12.860150921910
$GNHDT,296.147,T*24
$PYRTM,2024,121.750509350359,12.860156760498
$GNGGA,180044.00,3246.06516340,N,11732.19831119,W,2,12,0.8,4.507,M,-36.704,M,7.0,0135*6F
$PYRTM,2024,121.750509350359,12.860156760498
$GNHDT,296.306,T*23
$PYRTM,2024,121.750515085255,12.860162495394
$GNGGA,180044.50,3246.06568362,N,11732.19941472,W,2,12,0.8,4.474,M,-36.704,M,7.4,0135*6C
$PYRTM,2024,121.750515085255,12.860162495394
$GNHDT,296.233,T*24
$PYRTM,2024,121.750520924780,12.860168334919
$GNGGA,180045.00,3246.06615275,N,11732.20056650,W,2,12,0.8,4.425,M,-36.704,M,7.0,0135*61
$PYRTM,2024,121.750520924780,12.860168334919
$GNHDT,296.118,T*2E
$PYRTM,2024,121.750526661169,12.860174071308
$GNGGA,180045.50,3246.06659253,N,11732.20177115,W,2,12,0.8,4.360,M,-36.704,M,7.4,0135*6E
$PYRTM,2024,121.750526661169,12.860174071308
$GNHDT,296.054,T*27
$PYRTM,2024,121.750532499201,12.860179909340
$GNGGA,180046.00,3246.06702551,N,11732.20300461,W,2,12,0.8,4.270,M,-36.704,M,7.0,0135*62
$PYRTM,2024,121.750532499201,12.860179909340
$GNHDT,296.077,T*26
$PYRTM,2024,121.750538233553,12.860185643692
$GNGGA,180046.50,3246.06747353,N,11732.20424661,W,2,12,0.8,4.150,M,-36.704,M,7.4,0135*64
$PYRTM,2024,121.750538233553,12.860185643692
$GNHDT,295.885,T*20
$PYRTM,2024,121.750544077731,12.860191487882
$GNGGA,180047.00,3246.06795695,N,11732.20548588,W,2,12,0.8,4.014,M,-36.704,M,4.0,0135*69
$PYRTM,2024,121.750544077731,12.860191487882
$GNHDT,296.091,T*2E
$PYRTM,2024,121.750549806921,12.860197217060
$GNGGA,180047.50,3246.06848739,N,11732.20670818,W,2,12,0.8,3.906,M,-36.704,M,4.4,0135*61
$PYRTM,2024,121.750549806921,12.860197217060
$GNHDT,296.286,T*2A
$PYRTM,2024,121.750555649387,12.860203059525
$GNGGA,180048.00,3246.06905287,N,11732.20790292,W,2,12,0.8,3.870,M,-36.704,M,5.0,0135*61
$PYRTM,2024,121.750555649387,12.860203059525
$GNHDT,296.237,T*20
$PYRTM,2024,121.750561382639,12.860208792778
$GNGGA,180048.50,3246.06963062,N,11732.20905726,W,2,12,0.8,3.964,M,-36.704,M,5.4,0135*65
$PYRTM,2024,121.750561382639,12.860208792778
$GNHDT,296.344,T*25
$PYRTM,2024,121.750567224236,12.860214634387
$GNGGA,180049.00,3246.07019499,N,11732.21017993,W,2,12,0.8,4.200,M,-36.704,M,6.0,0135*66
$PYRTM,2024,121.750567224236,12.860214634387
$GNHDT,296.351,T*21
$PYRTM,2024,121.750572960255,12.860220370394
$GNGGA,180049.50,3246.07073476,N,11732.21130788,W,2,12,0.8,4.500,M,-36.704,M,6.4,0135*6D
$PYRTM,2024,121.750572960255,12.860220370394
$GNHDT,296.142,T*21
$PYRTM,2024,121.750578796053,12.860226206192
$GNGGA,180050.00,3246.07124288,N,11732.21248173,W,2,12,0.8,4.789,M,-36.704,M,7.0,0135*6C
$PYRTM,2024,121.750578796053,12.860226206192
$GNHDT,296.038,T*2D
$PYRTM,2024,121.750584535093,12.860231945231
$GNGGA,180050.50,3246.07172626,N,11732.21370804,W,2,12,0.8,4.978,M,-36.704,M,7.4,0135*6D
$PYRTM,2024,121.750584535093,12.860231945231
$GNHDT,295.941,T*29
$PYRTM,2024,121.750590372292,12.860237782431
$GNGGA,180051.00,3246.07218686,N,11732.21494046,W,2,12,0.8,5.091,M,-36.704,M,7.0,0135*64
$PYRTM,2024,121.750590372292,12.860237782431
$GNHDT,295.954,T*2D
$PYRTM,2024,121.750596102940,12.860243513079
$GNGGA,180051.50,3246.07262781,N,11732.21614007,W,2,12,0.8,5.164,M,-36.704,M,7.4,0135*6A
$PYRTM,2024,121.750596102940,12.860243513079
$GNHDT,296.095,T*2A
$PYRTM,2024,121.750601943090,12.860249353229
$GNGGA,180052.00,3246.07306241,N,11732.21728918,W,2,12,0.8,5.167,M,-36.704,M,7.0,0135*68
$PYRTM,2024,121.750601943090,12.860249353229
$GNHDT,296.191,T*2F
$PYRTM,2024,121.750607678553,12.860255088704
$GNGGA,180052.50,3246.07353192,N,11732.21840528,W,2,12,0.8,5.124,M,-36.704,M,7.4,0135*6D
$PYRTM,2024,121.750607678553,12.860255088704
$GNHDT,296.316,T*22
$PYRTM,2024,121.750613522141,12.860260932280
$GNGGA,180053.00,3246.07405920,N,11732.21952263,W,2,12,0.8,4.956,M,-36.704,M,4.0,0135*6D
$PYRTM,2024,121.750613522141,12.860260932280
$GNHDT,296.472,T*27
$PYRTM,2024,121.750619253657,12.860266663796
$GNGGA,180053.50,3246.07464701,N,11732.22066404,W,2,12,0.8,4.648,M,-36.704,M,4.4,0135*6C
$PYRTM,2024,121.750619253657,12.860266663796
$GNHDT,296.582,T*29
$PYRTM,2024,121.750625093715,12.860272503854
$GNGGA,180054.00,3246.07524690,N,11732.22184408,W,2,12,0.8,4.220,M,-36.704,M,5.0,0135*6C
$PYRTM,2024,121.750625093715,12.860272503854
$GNHDT,296.510,T*22
$PYRTM,2024,121.750630827708,12.860278237847
$GNGGA,180054.50,3246.07580706,N,11732.22307478,W,2,12,0.8,3.795,M,-36.705,M,5.4,0135*6E
$PYRTM,2024,121.750630827708,12.860278237847
$GNHDT,296.391,T*2D
$PYRTM,2024,121.750636664155,12.860284074306
$GNGGA,180055.00,3246.07630044,N,11732.22433496,W,2,12,0.8,3.493,M,-36.705,M,6.0,0135*61
$PYRTM,2024,121.750636664155,12.860284074306
$GNHDT,296.251,T*20
$PYRTM,2024,121.750642406748,12.860289816887
$GNGGA,180055.50,3246.07675895,N,11732.22557202,W,2,12,0.8,3.456,M,-36.705,M,6.4,0135*64
$PYRTM,2024,121.750642406748,12.860289816887
$GNHDT,296.337,T*21
$PYRTM,2024,121.750648241007,12.860295651146
$GNGGA,180056.00,3246.07721409,N,11732.22676988,W,2,12,0.8,3.673,M,-36.705,M,7.0,0135*62
$PYRTM,2024,121.750648241007,12.860295651146
$GNHDT,296.592,T*28
$PYRTM,2024,121.750653972905,12.860301383044
$GNGGA,180056.50,3246.07767928,N,11732.22794977,W,2,12,0.8,4.065,M,-36.705,M,7.4,0135*64
$PYRTM,2024,121.750653972905,12.860301383044
$GNHDT,296.428,T*28
$PYRTM,2024,121.750659816655,12.860307226794
$GNGGA,180057.00,3246.07817447,N,11732.22912033,W,2,12,0.8,4.524,M,-36.705,M,7.0,0135*61
$PYRTM,2024,121.750659816655,12.860307226794
$GNHDT,296.323,T*24
$PYRTM,2024,121.750665547257,12.860312957396
$GNGGA,180057.50,3246.07870440,N,11732.23030651,W,2,12,0.8,4.894,M,-36.705,M,7.4,0135*6A
$PYRTM,2024,121.750665547257,12.860312957396
$GNHDT,296.329,T*2E
$PYRTM,2024,121.750671391551,12.860318801690
$GNGGA,180058.00,3246.07926674,N,11732.23151453,W,2,12,0.8,5.064,M,-36.705,M,7.0,0135*63
$PYRTM,2024,121.750671391551,12.860318801690
$GNHDT,296.219,T*2C
$PYRTM,2024,121.750677124468,12.860324534618
$GNGGA,180058.50,3246.07983301,N,11732.23270739,W,2,12,0.8,5.091,M,-36.705,M,7.4,0135*6F
$PYRTM,2024,121.750677124468,12.860324534618
$GNHDT,296.011,T*26
$PYRTM,2024,121.750682965336,12.860330375475
$GNGGA,180059.00,3246.08039072,N,11732.23385814,W,2,12,0.8,5.034,M,-36.705,M,4.0,0135*68
$PYRTM,2024,121.750682965336,12.860330375475
$GNHDT,296.149,T*2A
$PYRTM,2024,121.750688695984,12.860336106123
$GNGGA,180059.50,3246.08091218,N,11732.23497177,W,2,12,0.8,5.002,M,-36.705,M,4.4,0135*68
$PYRTM,2024,121.750688695984,12.860336106123
$GNHDT,296.231,T*26
$PYRTM,2024,121.750694540127,12.860341950266
$GNGGA,180100.00,3246.08139972,N,11732.23608330,W,2,12,0.8,4.989,M,-36.705,M,5.0,0135*6F
$PYRTM,2024,121.750694540127,12.860341950266
$GNHDT,296.512,T*20
$PYRTM,2024,121.750700271111,12.860347681250
$GNGGA,180100.50,3246.08187243,N,11732.23723329,W,2,12,0.8,4.929,M,-36.705,M,5.4,0135*68
$PYRTM,2024,121.750700271111,12.860347681250
$GNHDT,296.370,T*22
$PYRTM,2024,121.750706111933,12.860353522072
$GNGGA,180101.00,3246.08235113,N,11732.23841278,W,2,12,0.8,4.804,M,-36.705,M,6.0,0135*67
$PYRTM,2024,121.750706111933,12.860353522072
$GNHDT,296.294,T*29
$PYRTM,2024,121.750711845856,12.860359255995
$GNGGA,180101.50,3246.08284458,N,11732.23959485,W,2,12,0.8,4.658,M,-36.705,M,6.4,0135*6D
$PYRTM,2024,121.750711845856,12.860359255995
$GNHDT,296.420,T*20
$PYRTM,2024,121.750717683738,12.860365093877
$GNGGA,180102.00,3246.08335501,N,11732.24076277,W,2,12,0.8,4.527,M,-36.705,M,7.0,0135*6B
$PYRTM,2024,121.750717683738,12.860365093877
$GNHDT,296.593,T*29
$PYRTM,2024,121.750723418322,12.860370828461
$GNGGA,180102.50,3246.08387919,N,11732.24191806,W,2,12,0.8,4.442,M,-36.705,M,7.4,0135*60
$PYRTM,2024,121.750723418322,12.860370828461
$GNHDT,296.688,T*20
$PYRTM,2024,121.750729261123,12.860376671262
$GNGGA,180103.00,3246.08443053,N,11732.24306522,W,2,12,0.8,4.387,M,-36.705,M,7.0,0135*61
$PYRTM,2024,121.750729261123,12.860376671262
$GNHDT,296.663,T*25
$PYRTM,2024,121.750734993449,12.860382403588
$GNGGA,180103.50,3246.08499449,N,11732.24422190,W,2,12,0.8,4.348,M,-36.705,M,7.4,0135*67
$PYRTM,2024,121.750734993449,12.860382403588
$GNHDT,296.625,T*27
$PYRTM,2024,121.750740829572,12.860388239711
$GNGGA,180104.00,3246.08554221,N,11732.24540989,W,2,12,0.8,4.313,M,-36.705,M,7.0,0135*62
$PYRTM,2024,121.750740829572,12.860388239711
$GNHDT,296.489,T*23
$PYRTM,2024,121.750746566852,12.860393976991
$GNGGA,180104.50,3246.08605793,N,11732.24662827,W,2,12,0.8,4.294,M,-36.705,M,7.4,0135*60
$PYRTM,2024,121.750746566852,12.860393976991
$GNHDT,296.181,T*2E
$PYRTM,2024,121.750752410023,12.860399820162
$GNGGA,180105.00,3246.08654367,N,11732.24787029,W,2,12,0.8,4.279,M,-36.705,M,4.0,0135*67
$PYRTM,2024,121.750752410023,12.860399820162
$GNHDT,296.057,T*24
$PYRTM,2024,121.750758143137,12.860405553275
$GNGGA,180105.50,3246.08702616,N,11732.24912180,W,2,12,0.8,4.263,M,-36.705,M,4.4,0135*6C
$PYRTM,2024,121.750758143137,12.860405553275
$GNHDT,296.117,T*21
$PYRTM,2024,121.750763984329,12.860411394468
$GNGGA,180106.00,3246.08752136,N,11732.25039258,W,2,12,0.8,4.200,M,-36.705,M,5.0,0135*6D
$PYRTM,2024,121.750763984329,12.860411394468
$GNHDT,296.213,T*26
$PYRTM,2024,121.750769713576,12.860417123727
$GNGGA,180106.50,3246.08804356,N,11732.25166429,W,2,12,0.8,4.117,M,-36.705,M,5.4,0135*6A
$PYRTM,2024,121.750769713576,12.860417123727
$GNHDT,296.247,T*27
$PYRTM,2024,121.750775556319,12.860422966458
$GNGGA,180107.00,3246.08857904,N,11732.25290089,W,2,12,0.8,4.098,M,-36.705,M,6.0,0135*60
$PYRTM,2024,121.750775556319,12.860422966458
$GNHDT,296.384,T*29
$PYRTM,2024,121.750781293553,12.860428703692
$GNGGA,180107.50,3246.08909897,N,11732.25407711,W,2,12,0.8,4.218,M,-36.705,M,6.4,0135*64
$PYRTM,2024,121.750781293553,12.860428703692
$GNHDT,296.730,T*22
$PYRTM,2024,121.750787129537,12.860434539676
$GNGGA,180108.00,3246.08958806,N,11732.25521721,W,2,12,0.8,4.469,M,-36.705,M,7.0,0135*61
$PYRTM,2024,121.750787129537,12.860434539676
$GNHDT,296.688,T*20
$PYRTM,2024,121.750792867477,12.860440277616
$GNGGA,180108.50,3246.09004442,N,11732.25633702,W,2,12,0.8,4.781,M,-36.705,M,7.4,0135*69
$PYRTM,2024,121.750792867477,12.860440277616
$GNHDT,296.314,T*20
$PYRTM,2024,121.750798711400,12.860446121528
$GNGGA,180109.00,3246.09049299,N,11732.25745973,W,2,12,0.8,5.061,M,-36.706,M,7.0,0135*63
$PYRTM,2024,121.750798711400,12.860446121528
$GNHDT,296.321,T*26
$PYRTM,2024,121.750804435127,12.860451845266
$GNGGA,180109.50,3246.09097034,N,11732.25861206,W,2,12,0.8,5.171,M,-36.706,M,7.4,0135*64
$PYRTM,2024,121.750804435127,12.860451845266
$GNHDT,296.807,T*29
$PYRTM,2024,121.750810278183,12.860457688322
$GNGGA,180110.00,3246.09149005,N,11732.25980616,W,2,12,0.8,4.979,M,-36.706,M,7.0,0135*67
$PYRTM,2024,121.750810278183,12.860457688322
$GNHDT,296.935,T*29
$PYRTM,2024,121.750816014803,12.860463424942
$GNGGA,180110.50,3246.09203754,N,11732.26102839,W,2,12,0.8,4.548,M,-36.706,M,7.4,0135*64
$PYRTM,2024,121.750816014803,12.860463424942
$GNHDT,296.851,T*2A
$PYRTM,2024,121.750821853229,12.860469263368
$GNGGA,180111.00,3246.09259072,N,11732.26226414,W,2,12,0.8,4.026,M,-36.706,M,4.0,0135*60
$PYRTM,2024,121.750821853229,12.860469263368
$GNHDT,296.886,T*20
$PYRTM,2024,121.750827583495,12.860474993634
$GNGGA,180111.50,3246.09311875,N,11732.26347113,W,2,12,0.8,3.615,M,-36.706,M,4.4,0135*66
$PYRTM,2024,121.750827583495,12.860474993634
$GNHDT,296.990,T*26
$PYRTM,2024,121.750833427002,12.860480837141
$GNGGA,180112.00,3246.09358977,N,11732.26461983,W,2,12,0.8,3.535,M,-36.706,M,5.0,0135*68
$PYRTM,2024,121.750833427002,12.860480837141
$GNHDT,296.732,T*20
$PYRTM,2024,121.750839160590,12.860486570729
$GNGGA,180112.50,3246.09403493,N,11732.26571616,W,2,12,0.8,3.802,M,-36.706,M,5.4,0135*6D
$PYRTM,2024,121.750839160590,12.860486570729
$GNHDT,296.918,T*26
$PYRTM,2024,121.750845004792,12.860492414942
$GNGGA,180113.00,3246.09450468,N,11732.26676338,W,2,12,0.8,4.246,M,-36.706,M,6.0,0135*6C
$PYRTM,2024,121.750845004792,12.860492414942
$GNHDT,297.365,T*27
$PYRTM,2024,121.750850744248,12.860498154387
$GNGGA,180113.50,3246.09501824,N,11732.26782919,W,2,12,0.8,4.716,M,-36.706,M,6.4,0135*6F
$PYRTM,2024,121.750850744248,12.860498154387
$GNHDT,296.848,T*22
$PYRTM,2024,121.750856572917,12.860503983056
$GNGGA,180114.00,3246.09561957,N,11732.26897558,W,2,12,0.8,4.926,M,-36.706,M,7.0,0135*64
$PYRTM,2024,121.750856572917,12.860503983056
$GNHDT,297.014,T*22
$PYRTM,2024,121.750862311759,12.860509721898
$GNGGA,180114.50,3246.09624031,N,11732.27022875,W,2,12,0.8,4.817,M,-36.706,M,7.4,0135*68
$PYRTM,2024,121.750862311759,12.860509721898
$GNHDT,296.939,T*25
$PYRTM,2024,121.750868151065,12.860515561204
$GNGGA,180115.00,3246.09681187,N,11732.27152318,W,2,12,0.8,4.474,M,-36.706,M,7.0,0135*64
$PYRTM,2024,121.750868151065,12.860515561204
$GNHDT,296.219,T*2C
$PYRTM,2024,121.750873882720,12.860521292859
$GNGGA,180115.50,3246.09732665,N,11732.27279150,W,2,12,0.8,4.181,M,-36.706,M,7.4,0135*6C
$PYRTM,2024,121.750873882720,12.860521292859
$GNHDT,296.312,T*26
$PYRTM,2024,121.750879720764,12.860527130903
$GNGGA,180116.00,3246.09777754,N,11732.27397917,W,2,12,0.8,4.074,M,-36.706,M,7.0,0135*6D
$PYRTM,2024,121.750879720764,12.860527130903
$GNHDT,296.322,T*25
$PYRTM,2024,121.750885455625,12.860532865764
$GNGGA,180116.50,3246.09821405,N,11732.27508985,W,2,12,0.8,4.197,M,-36.706,M,7.4,0135*60
$PYRTM,2024,121.750885455625,12.860532865764
$GNHDT,296.464,T*20
$PYRTM,2024,121.750891300984,12.860538711123
$GNGGA,180117.00,3246.09867907,N,11732.27614904,W,2,12,0.8,4.482,M,-36.706,M,4.0,0135*68
$PYRTM,2024,121.750891300984,12.860538711123
$GNHDT,296.805,T*2B
$PYRTM,2024,121.750897031076,12.860544441215
$GNGGA,180117.50,3246.09920066,N,11732.27721477,W,2,12,0.8,4.742,M,-36.706,M,4.4,0135*64
$PYRTM,2024,121.750897031076,12.860544441215
$GNHDT,296.902,T*2D
$PYRTM,2024,121.750902873021,12.860550283171
$GNGGA,180118.00,3246.09979281,N,11732.27832711,W,2,12,0.8,4.803,M,-36.706,M,5.0,0135*68
$PYRTM,2024,121.750902873021,12.860550283171
$GNHDT,296.790,T*28
$PYRTM,2024,121.750908608264,12.860556018403
$GNGGA,180118.50,3246.10039654,N,11732.27948791,W,2,12,0.8,4.680,M,-36.706,M,5.4,0135*61
$PYRTM,2024,121.750908608264,12.860556018403
$GNHDT,296.948,T*23
$PYRTM,2024,121.750914445382,12.860561855521
$GNGGA,180119.00,3246.10096486,N,11732.28068814,W,2,12,0.8,4.397,M,-36.706,M,6.0,0135*6F
$PYRTM,2024,121.750914445382,12.860561855521
$GNHDT,296.755,T*21
$PYRTM,2024,121.750920177778,12.860567587917
$GNGGA,180119.50,3246.10147544,N,11732.28189191,W,2,12,0.8,4.130,M,-36.706,M,6.4,0135*69
$PYRTM,2024,121.750920177778,12.860567587917
$GNHDT,296.587,T*2C
$PYRTM,2024,121.750926020289,12.860573430428
$GNGGA,180120.00,3246.10193172,N,11732.28307226,W,2,12,0.8,3.956,M,-36.706,M,7.0,0135*6F
$PYRTM,2024,121.750926020289,12.860573430428
$GNHDT,296.651,T*24
$PYRTM,2024,121.750931753356,12.860579163495
$GNGGA,180120.50,3246.10236518,N,11732.28423258,W,2,12,0.8,3.916,M,-36.706,M,7.4,0135*66
$PYRTM,2024,121.750931753356,12.860579163495
$GNHDT,296.556,T*20
$PYRTM,2024,121.750937594051,12.860585004190
$GNGGA,180121.00,3246.10280602,N,11732.28539630,W,2,12,0.8,3.947,M,-36.706,M,7.0,0135*67
$PYRTM,2024,121.750937594051,12.860585004190
$GNHDT,296.462,T*26
$PYRTM,2024,121.750943325845,12.860590735984
$GNGGA,180121.50,3246.10329267,N,11732.28658153,W,2,12,0.8,3.950,M,-36.706,M,7.4,0135*63
$PYRTM,2024,121.750943325845,12.860590735984
$GNHDT,296.551,T*27
$PYRTM,2024,121.750949168438,12.860596578576
$GNGGA,180122.00,3246.10383150,N,11732.28775826,W,2,12,0.8,3.907,M,-36.706,M,7.0,0135*61
$PYRTM,2024,121.750949168438,12.860596578576
$GNHDT,296.685,T*2D
$PYRTM,2024,121.750954903345,12.860602313484
$GNGGA,180122.50,3246.10441226,N,11732.28890344,W,2,12,0.8,3.861,M,-36.706,M,7.4,0135*61
$PYRTM,2024,121.750954903345,12.860602313484
$GNHDT,296.902,T*2D
$PYRTM,2024,121.750960741042,12.860608151181
$GNGGA,180123.00,3246.10498028,N,11732.29003007,W,2,12,0.8,3.863,M,-36.706,M,4.0,0135*6F
$PYRTM,2024,121.750960741042,12.860608151181
$GNHDT,297.214,T*20
$PYRTM,2024,121.750966473808,12.860613883947
$GNGGA,180123.50,3246.10550449,N,11732.29114187,W,2,12,0.8,3.972,M,-36.706,M,4.4,0135*67
$PYRTM,2024,121.750966473808,12.860613883947
$GNHDT,297.119,T*2E
$PYRTM,2024,121.750972317407,12.860619727546
$GNGGA,180124.00,3246.10598479,N,11732.29226970,W,2,12,0.8,4.156,M,-36.707,M,5.0,0135*6D
$PYRTM,2024,121.750972317407,12.860619727546
$GNHDT,297.319,T*2C
$PYRTM,2024,121.750978050243,12.860625460382
$GNGGA,180124.50,3246.10644755,N,11732.29343908,W,2,12,0.8,4.300,M,-36.707,M,5.4,0135*6F
$PYRTM,2024,121.750978050243,12.860625460382
$GNHDT,297.231,T*27
$PYRTM,2024,121.750983887986,12.860631298125
$GNGGA,180125.00,3246.10691430,N,11732.29467736,W,2,12,0.8,4.314,M,-36.707,M,6.0,0135*63
$PYRTM,2024,121.750983887986,12.860631298125
$GNHDT,296.967,T*2E
$PYRTM,2024,121.750989624213,12.860637034352
$GNGGA,180125.50,3246.10740560,N,11732.29594972,W,2,12,0.8,4.166,M,-36.707,M,6.4,0135*6F
$PYRTM,2024,121.750989624213,12.860637034352
$GNHDT,296.999,T*2F
$PYRTM,2024,121.750995467662,12.860642877801
$GNGGA,180126.00,3246.10792225,N,11732.29720034,W,2,12,0.8,3.983,M,-36.707,M,7.0,0135*67
$PYRTM,2024,121.750995467662,12.860642877801
$GNHDT,296.692,T*2B
$PYRTM,2024,121.751001195139,12.860648605289
$GNGGA,180126.50,3246.10844283,N,11732.29838903,W,2,12,0.8,3.895,M,-36.707,M,7.4,0135*63
$PYRTM,2024,121.751001195139,12.860648605289
$GNHDT,296.812,T*2D
$PYRTM,2024,121.751007037419,12.860654447558
$GNGGA,180127.00,3246.10895894,N,11732.29950537,W,2,12,0.8,3.978,M,-36.707,M,7.0,0135*65
$PYRTM,2024,121.751007037419,12.860654447558
$GNHDT,296.863,T*2B
$PYRTM,2024,121.751012769780,12.860660179919
$GNGGA,180127.50,3246.10948679,N,11732.30057274,W,2,12,0.8,4.210,M,-36.707,M,7.4,0135*6C
$PYRTM,2024,121.751012769780,12.860660179919
$GNHDT,296.874,T*2D
$PYRTM,2024,121.751018614896,12.860666025035
$GNGGA,180128.00,3246.11003486,N,11732.30164009,W,2,12,0.8,4.483,M,-36.707,M,7.0,0135*62
$PYRTM,2024,121.751018614896,12.860666025035
$GNHDT,296.884,T*22
$PYRTM,2024,121.751024346956,12.860671757095
$GNGGA,180128.50,3246.11060495,N,11732.30275640,W,2,12,0.8,4.621,M,-36.707,M,7.4,0135*66
$PYRTM,2024,121.751024346956,12.860671757095
$GNHDT,296.807,T*29
$PYRTM,2024,121.751030185914,12.860677596053
$GNGGA,180129.00,3246.11117916,N,11732.30395953,W,2,12,0.8,4.539,M,-36.707,M,4.0,0135*6A
$PYRTM,2024,121.751030185914,12.860677596053
$GNHDT,296.632,T*21
$PYRTM,2024,121.751035919618,12.860683329769
$GNGGA,180129.50,3246.11171434,N,11732.30521440,W,2,12,0.8,4.304,M,-36.707,M,4.4,0135*68
$PYRTM,2024,121.751035919618,12.860683329769
$GNHDT,296.487,T*2D
$PYRTM,2024,121.751041762407,12.860689172558
$GNGGA,180130.00,3246.11219849,N,11732.30646287,W,2,12,0.8,4.054,M,-36.707,M,5.0,0135*62
$PYRTM,2024,121.751041762407,12.860689172558
$GNHDT,296.773,T*25
$PYRTM,2024,121.751047492789,12.860694902928
$GNGGA,180130.50,3246.11263882,N,11732.30765240,W,2,12,0.8,3.932,M,-36.707,M,5.4,0135*6C
$PYRTM,2024,121.751047492789,12.860694902928
$GNHDT,296.514,T*26
$PYRTM,2024,121.751053337350,12.860700747500
$GNGGA,180131.00,3246.11308003,N,11732.30879099,W,2,12,0.8,3.972,M,-36.707,M,6.0,0135*62
$PYRTM,2024,121.751053337350,12.860700747500
$GNHDT,296.705,T*24
$PYRTM,2024,121.751059070278,12.860706480417
$GNGGA,180131.50,3246.11355092,N,11732.30990566,W,2,12,0.8,4.107,M,-36.707,M,6.4,0135*6D
$PYRTM,2024,121.751059070278,12.860706480417
$GNHDT,296.966,T*2F
$PYRTM,2024,121.751064905845,12.860712315995
$GNGGA,180132.00,3246.11407648,N,11732.31103628,W,2,12,0.8,4.230,M,-36.707,M,7.0,0135*62
$PYRTM,2024,121.751064905845,12.860712315995
$GNHDT,296.912,T*2C
$PYRTM,2024,121.751070644097,12.860718054248
$GNGGA,180132.50,3246.11464545,N,11732.31217887,W,2,12,0.8,4.275,M,-36.707,M,7.4,0135*64
$PYRTM,2024,121.751070644097,12.860718054248
$GNHDT,296.743,T*26
$PYRTM,2024,121.751076484433,12.860723894572
$GNGGA,180133.00,3246.11523599,N,11732.31332319,W,2,12,0.8,4.226,M,-36.707,M,7.0,0135*6B
$PYRTM,2024,121.751076484433,12.860723894572
$GNHDT,296.844,T*2E
$PYRTM,2024,121.751082213831,12.860729623970
$GNGGA,180133.50,3246.11581975,N,11732.31446817,W,2,12,0.8,4.164,M,-36.707,M,7.4,0135*68
$PYRTM,2024,121.751082213831,12.860729623970
$GNHDT,296.800,T*2E
$PYRTM,2024,121.751088056030,12.860735466169
$GNGGA,180134.00,3246.11638247,N,11732.31561695,W,2,12,0.8,4.120,M,-36.707,M,7.0,0135*65
$PYRTM,2024,121.751088056030,12.860735466169
$GNHDT,296.914,T*2A
$PYRTM,2024,121.751093788588,12.860741198738
$GNGGA,180134.50,3246.11691834,N,11732.31677911,W,2,12,0.8,4.127,M,-36.707,M,7.4,0135*69
$PYRTM,2024,121.751093788588,12.860741198738
$GNHDT,296.743,T*26
$PYRTM,2024,121.751099627002,12.860747037141
$GNGGA,180135.00,3246.11741992,N,11732.31796380,W,2,12,0.8,4.182,M,-36.707,M,4.0,0135*68
$PYRTM,2024,121.751099627002,12.860747037141
$GNHDT,296.668,T*2E
$PYRTM,2024,121.751105362315,12.860752772454
$GNGGA,180135.50,3246.11789264,N,11732.31916438,W,2,12,0.8,4.276,M,-36.707,M,4.4,0135*65
$PYRTM,2024,121.751105362315,12.860752772454
$GNHDT,296.588,T*23
$PYRTM,2024,121.751111204560,12.860758614699
$GNGGA,180136.00,3246.11833399,N,11732.32038147,W,2,12,0.8,4.364,M,-36.707,M,5.0,0135*62
$PYRTM,2024,121.751111204560,12.860758614699
$GNHDT,296.220,T*26
$PYRTM,2024,121.751116937095,12.860764347245
$GNGGA,180136.50,3246.11878013,N,11732.32159795,W,2,12,0.8,4.433,M,-36.708,M,5.4,0135*68
$PYRTM,2024,121.751116937095,12.860764347245
$GNHDT,296.139,T*2D
$PYRTM,2024,121.751122777373,12.860770187512
$GNGGA,180137.00,3246.11925359,N,11732.32281357,W,2,12,0.8,4.422,M,-36.708,M,6.0,0135*63
$PYRTM,2024,121.751122777373,12.860770187512
$GNHDT,296.009,T*2F
$PYRTM,2024,121.751128510718,12.860775920856
$GNGGA,180137.50,3246.11977729,N,11732.32401630,W,2,12,0.8,4.337,M,-36.708,M,6.4,0135*6F
$PYRTM,2024,121.751128510718,12.860775920856
$GNHDT,295.801,T*2C
$PYRTM,2024,121.751134351030,12.860781761181
$GNGGA,180138.00,3246.12034238,N,11732.32520862,W,2,12,0.8,4.167,M,-36.708,M,7.0,0135*64
$PYRTM,2024,121.751134351030,12.860781761181
$GNHDT,295.973,T*28
$PYRTM,2024,121.751140082153,12.860787492292
$GNGGA,180138.50,3246.12092590,N,11732.32636415,W,2,12,0.8,4.014,M,-36.708,M,7.4,0135*61
$PYRTM,2024,121.751140082153,12.860787492292
$GNHDT,296.144,T*27
$PYRTM,2024,121.751145926181,12.860793336308
$GNGGA,180139.00,3246.12150764,N,11732.32748410,W,2,12,0.8,3.938,M,-36.708,M,7.0,0135*6A
$PYRTM,2024,121.751145926181,12.860793336308
$GNHDT,296.224,T*22
$PYRTM,2024,121.751151661285,12.860799071424
$GNGGA,180139.50,3246.12207154,N,11732.32859049,W,2,12,0.8,3.967,M,-36.708,M,7.4,0135*62
$PYRTM,2024,121.751151661285,12.860799071424
$GNHDT,296.310,T*24
$PYRTM,2024,121.751157497407,12.860804907546
$GNGGA,180140.00,3246.12259340,N,11732.32973622,W,2,12,0.8,4.042,M,-36.708,M,7.0,0135*6A
$PYRTM,2024,121.751157497407,12.860804907546
$GNHDT,296.311,T*25
$PYRTM,2024,121.751163235891,12.860810646030
$GNGGA,180140.50,3246.12307516,N,11732.33094709,W,2,12,0.8,4.106,M,-36.708,M,7.4,0135*6C
$PYRTM,2024,121.751163235891,12.860810646030
$GNHDT,296.014,T*23
$PYRTM,2024,121.751169072257,12.860816482396
$GNGGA,180141.00,3246.12353231,N,11732.33221745,W,2,12,0.8,4.116,M,-36.708,M,4.0,0135*69
$PYRTM,2024,121.751169072257,12.860816482396
$GNHDT,296.005,T*23
$PYRTM,2024,121.751174810127,12.860822220266
$GNGGA,180141.50,3246.12397291,N,11732.33350129,W,2,12,0.8,4.086,M,-36.708,M,4.4,0135*69
$PYRTM,2024,121.751174810127,12.860822220266
$GNHDT,295.956,T*2F
$PYRTM,2024,121.751180649271,12.860828059410
$GNGGA,180142.00,3246.12442020,N,11732.33475025,W,2,12,0.8,4.067,M,-36.708,M,5.0,0135*6F
$PYRTM,2024,121.751180649271,12.860828059410
$GNHDT,296.259,T*28
$PYRTM,2024,121.751186381377,12.860833791516
$GNGGA,180142.50,3246.12490261,N,11732.33593093,W,2,12,0.8,4.117,M,-36.708,M,5.4,0135*64
$PYRTM,2024,121.751186381377,12.860833791516
$GNHDT,296.709,T*28
$PYRTM,2024,121.751192228102,12.860839638241
$GNGGA,180143.00,3246.12544255,N,11732.33704149,W,2,12,0.8,4.235,M,-36.708,M,6.0,0135*61
$PYRTM,2024,121.751192228102,12.860839638241
$GNHDT,296.776,T*20
$PYRTM,2024,121.751197959294,12.860845369433
$GNGGA,180143.50,3246.12602899,N,11732.33812367,W,2,12,0.8,4.373,M,-36.708,M,6.4,0135*6E
$PYRTM,2024,121.751197959294,12.860845369433
$GNHDT,296.745,T*20
$PYRTM,2024,121.751203799074,12.860851209213
$GNGGA,180144.00,3246.12661893,N,11732.33922858,W,2,12,0.8,4.479,M,-36.708,M,7.0,0135*6E
$PYRTM,2024,121.751203799074,12.860851209213
$GNHDT,296.588,T*23
$PYRTM,2024,121.751209529363,12.860856939502
$GNGGA,180144.50,3246.12718581,N,11732.34038576,W,2,12,0.8,4.463,M,-36.708,M,7.4,0135*61
$PYRTM,2024,121.751209529363,12.860856939502
$GNHDT,296.558,T*2E
$PYRTM,2024,121.751215370289,12.860862780428
$GNGGA,180145.00,3246.12770573,N,11732.34160645,W,2,12,0.8,4.326,M,-36.708,M,7.0,0135*6B
$PYRTM,2024,121.751215370289,12.860862780428
$GNHDT,296.432,T*23
$PYRTM,2024,121.751221104792,12.860868514931
$GNGGA,180145.50,3246.12817985,N,11732.34284506,W,2,12,0.8,4.171,M,-36.708,M,7.4,0135*6C
$PYRTM,2024,121.751221104792,12.860868514931
$GNHDT,296.686,T*2E
$PYRTM,2024,121.751226945486,12.860874355625
$GNGGA,180146.00,3246.12861802,N,11732.34408188,W,2,12,0.8,4.022,M,-36.708,M,7.0,0135*66
$PYRTM,2024,121.751226945486,12.860874355625
$GNHDT,297.056,T*24
$PYRTM,2024,121.751232679988,12.860880090127
$GNGGA,180146.50,3246.12905213,N,11732.34530803,W,2,12,0.8,3.930,M,-36.708,M,7.4,0135*63
$PYRTM,2024,121.751232679988,12.860880090127
$GNHDT,296.572,T*26
$PYRTM,2024,121.751238515243,12.860885925382
$GNGGA,180147.00,3246.12950821,N,11732.34652727,W,2,12,0.8,3.889,M,-36.708,M,4.0,0135*66
$PYRTM,2024,121.751238515243,12.860885925382
$GNHDT,296.581,T*2A
$PYRTM,2024,121.751244258889,12.860891669028
$GNGGA,180147.50,3246.13000850,N,11732.34772414,W,2,12,0.8,3.897,M,-36.708,M,4.4,0135*63
$PYRTM,2024,121.751244258889,12.860891669028
$GNHDT,296.409,T*2B
$PYRTM,2024,121.751250095694,12.860897505833
$GNGGA,180148.00,3246.13054968,N,11732.34889698,W,2,12,0.8,3.952,M,-36.708,M,5.0,0135*62
$PYRTM,2024,121.751250095694,12.860897505833
$GNHDT,296.260,T*22
$PYRTM,2024,121.751255828461,12.860903238600
$GNGGA,180148.50,3246.13111542,N,11732.35005825,W,2,12,0.8,4.010,M,-36.708,M,5.4,0135*6A
$PYRTM,2024,121.751255828461,12.860903238600
$GNHDT,296.446,T*20
$PYRTM,2024,121.751261663912,12.860909074062
$GNGGA,180149.00,3246.13168385,N,11732.35122258,W,2,12,0.8,4.076,M,-36.708,M,6.0,0135*6E
$PYRTM,2024,121.751261663912,12.860909074062
$GNHDT,296.476,T*23
$PYRTM,2024,121.751267399688,12.860914809826
$GNGGA,180149.50,3246.13224946,N,11732.35240401,W,2,12,0.8,4.128,M,-36.708,M,6.4,0135*66
$PYRTM,2024,121.751267399688,12.860914809826
$GNHDT,296.441,T*27
$PYRTM,2024,121.751273239502,12.860920649641
$GNGGA,180150.00,3246.13279686,N,11732.35361104,W,2,12,0.8,4.165,M,-36.708,M,7.0,0135*6E
$PYRTM,2024,121.751273239502,12.860920649641
$GNHDT,296.314,T*20
$PYRTM,2024,121.751278972465,12.860926382604
$GNGGA,180150.50,3246.13331461,N,11732.35483340,W,2,12,0.8,4.221,M,-36.708,M,7.4,0135*63
$PYRTM,2024,121.751278972465,12.860926382604
$GNHDT,296.132,T*26
$PYRTM,2024,121.751284812731,12.860932222870
$GNGGA,180151.00,3246.13379938,N,11732.35605517,W,2,12,0.8,4.319,M,-36.708,M,7.0,0135*6C
$PYRTM,2024,121.751284812731,12.860932222870
$GNHDT,296.016,T*21
$PYRTM,2024,121.751290547627,12.860937957766
$GNGGA,180151.50,3246.13427053,N,11732.35724776,W,2,12,0.8,4.447,M,-36.709,M,7.4,0135*6F
$PYRTM,2024,121.751290547627,12.860937957766
$GNHDT,295.955,T*2C
$PYRTM,2024,121.751296387674,12.860943797813
$GNGGA,180152.00,3246.13474683,N,11732.35842093,W,2,12,0.8,4.572,M,-36.709,M,7.0,0135*64
$PYRTM,2024,121.751296387674,12.860943797813
$GNHDT,295.835,T*2B
$PYRTM,2024,121.751302123148,12.860949533287
$GNGGA,180152.50,3246.13525536,N,11732.35958532,W,2,12,0.8,4.633,M,-36.709,M,7.4,0135*6F
$PYRTM,2024,121.751302123148,12.860949533287
$GNHDT,296.094,T*2B
$PYRTM,2024,121.751307958681,12.860955368819
$GNGGA,180153.00,3246.13580055,N,11732.36077399,W,2,12,0.8,4.566,M,-36.709,M,4.0,0135*60
$PYRTM,2024,121.751307958681,12.860955368819
$GNHDT,295.919,T*24
$PYRTM,2024,121.751313695012,12.860961105162
$GNGGA,180153.50,3246.13635724,N,11732.36197994,W,2,12,0.8,4.412,M,-36.709,M,4.4,0135*67
$PYRTM,2024,121.751313695012,12.860961105162
$GNHDT,295.928,T*26
$PYRTM,2024,121.751319535405,12.860966945544
$GNGGA,180154.00,3246.13690374,N,11732.36319155,W,2,12,0.8,4.211,M,-36.709,M,5.0,0135*6A
$PYRTM,2024,121.751319535405,12.860966945544
$GNHDT,295.876,T*2C
$PYRTM,2024,121.751325268403,12.860972678553
$GNGGA,180154.50,3246.13743157,N,11732.36438017,W,2,12,0.8,4.081,M,-36.709,M,5.4,0135*6F
$PYRTM,2024,121.751325268403,12.860972678553
$GNHDT,296.027,T*23
$PYRTM,2024,121.751331111840,12.860978521979
$GNGGA,180155.00,3246.13793976,N,11732.36555292,W,2,12,0.8,4.049,M,-36.709,M,6.0,0135*6B
$PYRTM,2024,121.751331111840,12.860978521979
$GNHDT,296.181,T*2E
$PYRTM,2024,121.751336846678,12.860984256817
$GNGGA,180155.50,3246.13842664,N,11732.36672006,W,2,12,0.8,4.141,M,-36.709,M,6.4,0135*65
$PYRTM,2024,121.751336846678,12.860984256817
$GNHDT,296.108,T*2F
$PYRTM,2024,121.751342684757,12.860990094896
$GNGGA,180156.00,3246.13890726,N,11732.36788347,W,2,12,0.8,4.315,M,-36.709,M,7.0,0135*6F
$PYRTM,2024,121.751342684757,12.860990094896
$GNHDT,296.018,T*2F
$PYRTM,2024,121.751348416771,12.860995826910
$GNGGA,180156.50,3246.13940532,N,11732.36904265,W,2,12,0.8,4.502,M,-36.709,M,7.4,0135*6E
$PYRTM,2024,121.751348416771,12.860995826910
$GNHDT,296.295,T*28
$PYRTM,2024,121.751354259942,12.861001670081
$GNGGA,180157.00,3246.13992226,N,11732.37022450,W,2,12,0.8,4.611,M,-36.709,M,7.0,0135*6E
$PYRTM,2024,121.751354259942,12.861001670081
$GNHDT,296.354,T*24
$PYRTM,2024,121.751359997257,12.861007407396
$GNGGA,180157.50,3246.14045240,N,11732.37146024,W,2,12,0.8,4.562,M,-36.709,M,7.4,0135*68
$PYRTM,2024,121.751359997257,12.861007407396
$GNHDT,296.273,T*20
$PYRTM,2024,121.751365835729,12.861013245868
$GNGGA,180158.00,3246.14098705,N,11732.37273493,W,2,12,0.8,4.371,M,-36.709,M,7.0,0135*6B
$PYRTM,2024,121.751365835729,12.861013245868
$GNHDT,296.141,T*22
$PYRTM,2024,121.751371573495,12.861018983634
$GNGGA,180158.50,3246.14150856,N,11732.37398602,W,2,12,0.8,4.193,M,-36.709,M,7.4,0135*66
$PYRTM,2024,121.751371573495,12.861018983634
$GNHDT,295.917,T*2A
$PYRTM,2024,121.751377405417,12.861024815556
$GNGGA,180159.00,3246.14201357,N,11732.37519695,W,2,12,0.8,4.113,M,-36.709,M,4.0,0135*61
$PYRTM,2024,121.751377405417,12.861024815556
$GNHDT,296.068,T*28
$PYRTM,2024,121.751383139606,12.861030549745
$GNGGA,180159.50,3246.14251399,N,11732.37637932,W,2,12,0.8,4.174,M,-36.709,M,4.4,0135*6B
$PYRTM,2024,121.751383139606,12.861030549745
$GNHDT,296.103,T*24
$PYRTM,2024,121.751388982581,12.861036392720
$GNGGA,180200.00,3246.14302266,N,11732.37754963,W,2,12,0.8,4.320,M,-36.709,M,5.0,0135*61
$PYRTM,2024,121.751388982581,12.861036392720
$GNHDT,296.163,T*22
$PYRTM,2024,121.751394713125,12.861042123264
$GNGGA,180200.50,3246.14354502,N,11732.37873421,W,2,12,0.8,4.475,M,-36.709,M,5.4,0135*60
$PYRTM,2024,121.751394713125,12.861042123264
$GNHDT,296.103,T*24
$PYRTM,2024,121.751400557072,12.861047967211
$GNGGA,180201.00,3246.14407494,N,11732.37993073,W,2,12,0.8,4.587,M,-36.709,M,6.0,0135*6C
$PYRTM,2024,121.751400557072,12.861047967211
$GNHDT,296.079,T*28
$PYRTM,2024,121.751406292303,12.861053702442
$GNGGA,180201.50,3246.14460859,N,11732.38112293,W,2,12,0.8,4.648,M,-36.709,M,6.4,0135*63
$PYRTM,2024,121.751406292303,12.861053702442
$GNHDT,296.236,T*21
$PYRTM,2024,121.751412132905,12.861059543056
$GNGGA,180202.00,3246.14514974,N,11732.38230560,W,2,12,0.8,4.645,M,-36.709,M,7.0,0135*69
$PYRTM,2024,121.751412132905,12.861059543056
$GNHDT,296.502,T*21
$PYRTM,2024,121.751417866852,12.861065276991
$GNGGA,180202.50,3246.14569658,N,11732.38350057,W,2,12,0.8,4.554,M,-36.709,M,7.4,0135*66
$PYRTM,2024,121.751417866852,12.861065276991
$GNHDT,296.388,T*25
$PYRTM,2024,121.751423710127,12.861071120266
$GNGGA,180203.00,3246.14624298,N,11732.38473401,W,2,12,0.8,4.376,M,-36.709,M,7.0,0135*63
$PYRTM,2024,121.751423710127,12.861071120266
$GNHDT,296.305,T*20
$PYRTM,2024,121.751429442593,12.861076852731
$GNGGA,180203.50,3246.14676760,N,11732.38598964,W,2,12,0.8,4.187,M,-36.709,M,7.4,0135*61
$PYRTM,2024,121.751429442593,12.861076852731
$GNHDT,296.300,T*25
$PYRTM,2024,121.751435276146,12.861082686285
$GNGGA,180204.00,3246.14725561,N,11732.38724763,W,2,12,0.8,4.045,M,-36.709,M,7.0,0135*60
$PYRTM,2024,121.751435276146,12.861082686285
$GNHDT,296.229,T*2F
$PYRTM,2024,121.751441015012,12.861088425150
$GNGGA,180204.50,3246.14771624,N,11732.38846838,W,2,12,0.8,4.046,M,-36.709,M,7.4,0135*6B
$PYRTM,2024,121.751441015012,12.861088425150
$GNHDT,296.288,T*24
$PYRTM,2024,121.751446850845,12.861094260995
$GNGGA,180205.00,3246.14817514,N,11732.38962625,W,2,12,0.8,4.235,M,-36.709,M,4.0,0135*64
$PYRTM,2024,121.751446850845,12.861094260995
$GNHDT,296.254,T*25
$PYRTM,2024,121.751452588681,12.861099998819
$GNGGA,180205.50,3246.14866424,N,11732.39072444,W,2,12,0.8,4.507,M,-36.709,M,4.4,0135*6B
$PYRTM,2024,121.751452588681,12.861099998819
$GNHDT,296.577,T*23
$PYRTM,2024,121.751458429780,12.861105839919
$GNGGA,180206.00,3246.14920353,N,11732.39180532,W,2,12,0.8,4.780,M,-36.710,M,5.0,0135*65
$PYRTM,2024,121.751458429780,12.861105839919
$GNHDT,296.617,T*26
$PYRTM,2024,121.751464160833,12.861111570972
$GNGGA,180206.50,3246.14978269,N,11732.39293357,W,2,12,0.8,4.891,M,-36.710,M,5.4,0135*6A
$PYRTM,2024,121.751464160833,12.861111570972
$GNHDT,297.042,T*21
$PYRTM,2024,121.751470008553,12.861117418704
$GNGGA,180207.00,3246.15038517,N,11732.39412629,W,2,12,0.8,4.739,M,-36.710,M,6.0,0135*65
$PYRTM,2024,121.751470008553,12.861117418704
$GNHDT,297.213,T*27
$PYRTM,2024,121.751475742153,12.861123152303
$GNGGA,180207.50,3246.15096965,N,11732.39538670,W,2,12,0.8,4.396,M,-36.710,M,6.4,0135*6D
$PYRTM,2024,121.751475742153,12.861123152303
$GNHDT,297.056,T*24
$PYRTM,2024,121.751481576343,12.861128986481
$GNGGA,180208.00,3246.15150287,N,11732.39667600,W,2,12,0.8,3.986,M,-36.710,M,7.0,0135*6C
$PYRTM,2024,121.751481576343,12.861128986481
$GNHDT,296.760,T*27
$PYRTM,2024,121.751487309583,12.861134719722
$GNGGA,180208.50,3246.15196875,N,11732.39794519,W,2,12,0.8,3.691,M,-36.710,M,7.4,0135*6F
$PYRTM,2024,121.751487309583,12.861134719722
$GNHDT,296.900,T*2F
$PYRTM,2024,121.751493157419,12.861140567558
$GNGGA,180209.00,3246.15238668,N,11732.39912016,W,2,12,0.8,3.713,M,-36.710,M,7.0,0135*6B
$PYRTM,2024,121.751493157419,12.861140567558
$GNHDT,297.140,T*22
$PYRTM,2024,121.751498887616,12.861146297755
$GNGGA,180209.50,3246.15282166,N,11732.40019977,W,2,12,0.8,4.023,M,-36.710,M,7.4,0135*63
$PYRTM,2024,121.751498887616,12.861146297755
$GNHDT,297.445,T*22
$PYRTM,2024,121.751504730856,12.861152140995
$GNGGA,180210.00,3246.15331718,N,11732.40122130,W,2,12,0.8,4.459,M,-36.710,M,7.0,0135*67
$PYRTM,2024,121.751504730856,12.861152140995
$GNHDT,297.743,T*27
$PYRTM,2024,121.751510460428,12.861157870567
$GNGGA,180210.50,3246.15389716,N,11732.40228482,W,2,12,0.8,4.784,M,-36.710,M,7.4,0135*6D
$PYRTM,2024,121.751510460428,12.861157870567
$GNHDT,297.941,T*2B
$PYRTM,2024,121.751516298704,12.861163708843
$GNGGA,180211.00,3246.15454234,N,11732.40346156,W,2,12,0.8,4.770,M,-36.710,M,4.0,0135*62
$PYRTM,2024,121.751516298704,12.861163708843
$GNHDT,297.960,T*28
$PYRTM,2024,121.751522032836,12.861169442975
$GNGGA,180211.50,3246.15518359,N,11732.40470245,W,2,12,0.8,4.474,M,-36.710,M,4.4,0135*64
$PYRTM,2024,121.751522032836,12.861169442975
$GNHDT,297.798,T*21
$PYRTM,2024,121.751527872905,12.861175283044
$GNGGA,180212.00,3246.15577806,N,11732.40594084,W,2,12,0.8,4.150,M,-36.710,M,5.0,0135*68
$PYRTM,2024,121.751527872905,12.861175283044
$GNHDT,297.739,T*2A
$PYRTM,2024,121.751533606308,12.861181016447
$GNGGA,180212.50,3246.15629383,N,11732.40713853,W,2,12,0.8,3.969,M,-36.710,M,5.4,0135*6D
$PYRTM,2024,121.751533606308,12.861181016447
$GNHDT,297.666,T*21
$PYRTM,2024,121.751539444826,12.861186854965
$GNGGA,180213.00,3246.15674361,N,11732.40828431,W,2,12,0.8,4.061,M,-36.710,M,6.0,0135*63
$PYRTM,2024,121.751539444826,12.861186854965
$GNHDT,297.834,T*28
$PYRTM,2024,121.751545179028,12.861192589167
$GNGGA,180213.50,3246.15718121,N,11732.40940510,W,2,12,0.8,4.342,M,-36.710,M,6.4,0135*60
$PYRTM,2024,121.751545179028,12.861192589167
$GNHDT,298.051,T*2C
$PYRTM,2024,121.751551022199,12.861198432350
$GNGGA,180214.00,3246.15764631,N,11732.41053350,W,2,12,0.8,4.661,M,-36.710,M,7.0,0135*66
$PYRTM,2024,121.751551022199,12.861198432350
$GNHDT,297.827,T*2A
$PYRTM,2024,121.751556751215,12.861204161354
$GNGGA,180214.50,3246.15817036,N,11732.41167790,W,2,12,0.8,4.910,M,-36.710,M,7.4,0135*6A
$PYRTM,2024,121.751556751215,12.861204161354
$GNHDT,297.664,T*23
$PYRTM,2024,121.751562596377,12.861210006516
$GNGGA,180215.00,3246.15874438,N,11732.41283782,W,2,12,0.8,5.002,M,-36.710,M,7.0,0135*64
$PYRTM,2024,121.751562596377,12.861210006516
$GNHDT,297.435,T*25
$PYRTM,2024,121.751568326308,12.861215736447
$GNGGA,180215.50,3246.15932853,N,11732.41399114,W,2,12,0.8,4.960,M,-36.710,M,7.4,0135*68
$PYRTM,2024,121.751568326308,12.861215736447
$GNHDT,297.102,T*24
$PYRTM,2024,121.751574167512,12.861221577650
$GNGGA,180216.00,3246.15988725,N,11732.41512983,W,2,12,0.8,4.855,M,-36.710,M,7.0,0135*61
$PYRTM,2024,121.751574167512,12.861221577650
$GNHDT,296.899,T*2E
$PYRTM,2024,121.751579900440,12.861227310579
$GNGGA,180216.50,3246.16042378,N,11732.41624936,W,2,12,0.8,4.763,M,-36.710,M,7.4,0135*62
$PYRTM,2024,121.751579900440,12.861227310579
$GNHDT,296.985,T*22
$PYRTM,2024,121.751585740787,12.861233150926
$GNGGA,180217.00,3246.16094416,N,11732.41735947,W,2,12,0.8,4.694,M,-36.710,M,4.0,0135*6B
$PYRTM,2024,121.751585740787,12.861233150926
$GNHDT,296.952,T*28
$PYRTM,2024,121.751591473067,12.861238883206
$GNGGA,180217.50,3246.16148069,N,11732.41849129,W,2,12,0.8,4.589,M,-36.710,M,4.4,0135*6D
$PYRTM,2024,121.751591473067,12.861238883206
$GNHDT,297.039,T*2D
$PYRTM,2024,121.751597314583,12.861244724722
$GNGGA,180218.00,3246.16204370,N,11732.41967278,W,2,12,0.8,4.383,M,-36.710,M,5.0,0135*64
$PYRTM,2024,121.751597314583,12.861244724722
$GNHDT,296.970,T*28
$PYRTM,2024,121.751603047060,12.861250457199
$GNGGA,180218.50,3246.16261751,N,11732.42089568,W,2,12,0.8,4.101,M,-36.710,M,5.4,0135*65
$PYRTM,2024,121.751603047060,12.861250457199
$GNHDT,296.903,T*2C
$PYRTM,2024,121.751608892697,12.861256302836
$GNGGA,180219.00,3246.16316894,N,11732.42213173,W,2,12,0.8,3.858,M,-36.710,M,6.0,0135*6C
$PYRTM,2024,121.751608892697,12.861256302836
$GNHDT,296.784,T*2D
$PYRTM,2024,121.751614625301,12.861262035451
$GNGGA,180219.50,3246.16366841,N,11732.42333480,W,2,12,0.8,3.816,M,-36.710,M,6.4,0135*62
$PYRTM,2024,121.751614625301,12.861262035451
$GNHDT,296.495,T*2E
$PYRTM,2024,121.751620463484,12.861267873623
$GNGGA,180220.00,3246.16412073,N,11732.42450704,W,2,12,0.8,3.987,M,-36.710,M,7.0,0135*61
$PYRTM,2024,121.751620463484,12.861267873623
$GNHDT,296.237,T*20
$PYRTM,2024,121.751626205127,12.861273615266
$GNGGA,180220.50,3246.16455805,N,11732.42565530,W,2,12,0.8,4.317,M,-36.710,M,7.4,0135*6C
$PYRTM,2024,121.751626205127,12.861273615266
$GNHDT,296.313,T*27
$PYRTM,2024,121.751632043218,12.861279453356
$GNGGA,180221.00,3246.16502788,N,11732.42681231,W,2,12,0.8,4.662,M,-36.710,M,7.0,0135*6D
$PYRTM,2024,121.751632043218,12.861279453356
$GNHDT,296.062,T*22
$PYRTM,2024,121.751637770938,12.861285181076
$GNGGA,180221.50,3246.16555612,N,11732.42799500,W,2,12,0.8,4.867,M,-36.711,M,7.4,0135*6B
$PYRTM,2024,121.751637770938,12.861285181076
$GNHDT,296.055,T*26
$PYRTM,2024,121.751643611667,12.861291021806
$GNGGA,180222.00,3246.16613055,N,11732.42919894,W,2,12,0.8,4.886,M,-36.711,M,7.0,0135*64
$PYRTM,2024,121.751643611667,12.861291021806
$GNHDT,296.007,T*21
$PYRTM,2024,121.751649344236,12.861296754375
$GNGGA,180222.50,3246.16670585,N,11732.43038335,W,2,12,0.8,4.757,M,-36.711,M,7.4,0135*60
$PYRTM,2024,121.751649344236,12.861296754375
$GNHDT,296.338,T*2E
$PYRTM,2024,121.751655187095,12.861302597234
$GNGGA,180223.00,3246.16726372,N,11732.43155863,W,2,12,0.8,4.517,M,-36.711,M,4.0,0135*6B
$PYRTM,2024,121.751655187095,12.861302597234
$GNHDT,296.591,T*2B
$PYRTM,2024,121.751660917488,12.861308327639
$GNGGA,180223.50,3246.16778850,N,11732.43273034,W,2,12,0.8,4.288,M,-36.711,M,4.4,0135*66
$PYRTM,2024,121.751660917488,12.861308327639
$GNHDT,296.308,T*2D
$PYRTM,2024,121.751666760278,12.861314170417
$GNGGA,180224.00,3246.16828103,N,11732.43392705,W,2,12,0.8,4.095,M,-36.711,M,5.0,0135*61
$PYRTM,2024,121.751666760278,12.861314170417
$GNHDT,296.248,T*28
$PYRTM,2024,121.751672492199,12.861319902350
$GNGGA,180224.50,3246.16872989,N,11732.43513371,W,2,12,0.8,4.017,M,-36.711,M,5.4,0135*67
$PYRTM,2024,121.751672492199,12.861319902350
$GNHDT,296.067,T*27
$PYRTM,2024,121.751678334711,12.861325744861
$GNGGA,180225.00,3246.16914514,N,11732.43630604,W,2,12,0.8,4.124,M,-36.711,M,6.0,0135*69
$PYRTM,2024,121.751678334711,12.861325744861
$GNHDT,295.938,T*27
$PYRTM,2024,121.751684074491,12.861331484630
$GNGGA,180225.50,3246.16954785,N,11732.43741520,W,2,12,0.8,4.414,M,-36.711,M,6.4,0135*62
$PYRTM,2024,121.751684074491,12.861331484630
$GNHDT,295.939,T*26
$PYRTM,2024,121.751689907523,12.861337317662
$GNGGA,180226.00,3246.16996905,N,11732.43848417,W,2,12,0.8,4.763,M,-36.711,M,7.0,0135*69
$PYRTM,2024,121.751689907523,12.861337317662
$GNHDT,296.099,T*26
$PYRTM,2024,121.751695641250,12.861343051389
$GNGGA,180226.50,3246.17045485,N,11732.43957385,W,2,12,0.8,5.008,M,-36.711,M,7.4,0135*63
$PYRTM,2024,121.751695641250,12.861343051389
$GNHDT,296.216,T*23
$PYRTM,2024,121.751701484225,12.861348894363
$GNGGA,180227.00,3246.17101830,N,11732.44072597,W,2,12,0.8,4.991,M,-36.711,M,7.0,0135*64
$PYRTM,2024,121.751701484225,12.861348894363
$GNHDT,296.012,T*25
$PYRTM,2024,121.751707219421,12.861354629560
$GNGGA,180227.50,3246.17161242,N,11732.44192857,W,2,12,0.8,4.688,M,-36.711,M,7.4,0135*65
$PYRTM,2024,121.751707219421,12.861354629560
$GNHDT,296.271,T*22
$PYRTM,2024,121.751713052338,12.861360462477
$GNGGA,180228.00,3246.17218896,N,11732.44314122,W,2,12,0.8,4.256,M,-36.711,M,7.0,0135*65
$PYRTM,2024,121.751713052338,12.861360462477
$GNHDT,296.290,T*2D
$PYRTM,2024,121.751718793565,12.861366203704
$GNGGA,180228.50,3246.17272155,N,11732.44434045,W,2,12,0.8,3.864,M,-36.711,M,7.4,0135*67
$PYRTM,2024,121.751718793565,12.861366203704
$GNHDT,296.012,T*25
$PYRTM,2024,121.751724627836,12.861372037975
