$PYRTM,2024,122.750000128912,13.859647539063
$GNGGA,180000.00,3356.61888297,N,11944.03259438,W,2,12,0.8,5.691,M,-37.454,M,5.0,0135*61
$PYRTM,2024,122.750000128912,13.859647539063
$GNHDT,84.401,T*12
$PYRTM,2024,122.750005838380,13.859653248519
$GNGGA,180000.50,3356.61899530,N,11944.03110007,W,2,12,0.8,5.690,M,-37.454,M,5.4,0135*6D
$PYRTM,2024,122.750005838380,13.859653248519
$GNHDT,84.121,T*15
$PYRTM,2024,122.750011670313,13.859659080451
$GNGGA,180001.00,3356.61912967,N,11944.02961425,W,2,12,0.8,5.752,M,-37.454,M,6.0,0135*66
$PYRTM,2024,122.750011670313,13.859659080451
$GNHDT,84.194,T*1B
$PYRTM,2024,122.750017409873,13.859664820012
$GNGGA,180001.50,3356.61927505,N,11944.02812977,W,2,12,0.8,5.845,M,-37.454,M,6.4,0135*6F
$PYRTM,2024,122.750017409873,13.859664820012
$GNHDT,84.475,T*11
$PYRTM,2024,122.750023244711,13.859670654850
$GNGGA,180002.00,3356.61943919,N,11944.02664788,W,2,12,0.8,5.972,M,-37.454,M,7.0,0135*6B
$PYRTM,2024,122.750023244711,13.859670654850
$GNHDT,84.693,T*1B
$PYRTM,2024,122.750028978958,13.859676389097
$GNGGA,180002.50,3356.61960993,N,11944.02515128,W,2,12,0.8,6.076,M,-37.454,M,7.4,0135*6E
$PYRTM,2024,122.750028978958,13.859676389097
$GNHDT,84.714,T*15
$PYRTM,2024,122.750034823032,13.859682233171
$GNGGA,180003.00,3356.61978653,N,11944.02364061,W,2,12,0.8,6.136,M,-37.454,M,7.0,0135*6D
$PYRTM,2024,122.750034823032,13.859682233171
$GNHDT,84.699,T*11
$PYRTM,2024,122.750040552593,13.859687962731
$GNGGA,180003.50,3356.61994310,N,11944.02212476,W,2,12,0.8,6.151,M,-37.454,M,7.4,0135*6F
$PYRTM,2024,122.750040552593,13.859687962731
$GNHDT,84.871,T*19
$PYRTM,2024,122.750046396042,13.859693806192
$GNGGA,180004.00,3356.62008674,N,11944.02061445,W,2,12,0.8,6.124,M,-37.454,M,7.0,0135*65
$PYRTM,2024,122.750046396042,13.859693806192
$GNHDT,84.897,T*11
$PYRTM,2024,122.750052128056,13.859699538194
$GNGGA,180004.50,3356.62021205,N,11944.01910384,W,2,12,0.8,6.091,M,-37.454,M,7.4,0135*64
$PYRTM,2024,122.750052128056,13.859699538194
$GNHDT,84.963,T*1B
$PYRTM,2024,122.750057970220,13.859705380370
$GNGGA,180005.00,3356.62032922,N,11944.01760476,W,2,12,0.8,6.053,M,-37.454,M,4.0,0135*66
$PYRTM,2024,122.750057970220,13.859705380370
$GNHDT,85.236,T*11
$PYRTM,2024,122.750063705764,13.859711115903
$GNGGA,180005.50,3356.62044668,N,11944.01612540,W,2,12,0.8,6.052,M,-37.454,M,4.4,0135*66
$PYRTM,2024,122.750063705764,13.859711115903
$GNHDT,85.346,T*17
$PYRTM,2024,122.750069540197,13.859716950336
$GNGGA,180006.00,3356.62057301,N,11944.01465042,W,2,12,0.8,6.072,M,-37.454,M,5.0,0135*6A
$PYRTM,2024,122.750069540197,13.859716950336
$GNHDT,85.368,T*1B
$PYRTM,2024,122.750075276076,13.859722686215
$GNGGA,180006.50,3356.62070355,N,11944.01317730,W,2,12,0.8,6.068,M,-37.454,M,5.4,0135*64
$PYRTM,2024,122.750075276076,13.859722686215
$GNHDT,85.178,T*18
$PYRTM,2024,122.750081117269,13.859728527419
$GNGGA,180007.00,3356.62083906,N,11944.01170872,W,2,12,0.8,6.055,M,-37.454,M,6.0,0135*63
$PYRTM,2024,122.750081117269,13.859728527419
$GNHDT,84.989,T*1F
$PYRTM,2024,122.750086852801,13.859734262940
$GNGGA,180007.50,3356.62097309,N,11944.01024357,W,2,12,0.8,6.027,M,-37.454,M,6.4,0135*6B
$PYRTM,2024,122.750086852801,13.859734262940
$GNHDT,85.140,T*13
$PYRTM,2024,122.750092689028,13.859740099167
$GNGGA,180008.00,3356.62110396,N,11944.00877870,W,2,12,0.8,5.993,M,-37.454,M,7.0,0135*68
$PYRTM,2024,122.750092689028,13.859740099167
$GNHDT,85.036,T*13
$PYRTM,2024,122.750098429780,13.859745839919
$GNGGA,180008.50,3356.62123744,N,11944.00732270,W,2,12,0.8,5.971,M,-37.454,M,7.4,0135*6A
$PYRTM,2024,122.750098429780,13.859745839919
$GNHDT,84.980,T*16
$PYRTM,2024,122.750104270810,13.859751680949
$GNGGA,180009.00,3356.62136071,N,11944.00588220,W,2,12,0.8,5.977,M,-37.454,M,7.0,0135*6F
$PYRTM,2024,122.750104270810,13.859751680949
$GNHDT,84.930,T*1D
$PYRTM,2024,122.750110005440,13.859757415579
$GNGGA,180009.50,3356.62149567,N,11944.00444249,W,2,12,0.8,6.003,M,-37.454,M,7.4,0135*63
$PYRTM,2024,122.750110005440,13.859757415579
$GNHDT,84.425,T*14
$PYRTM,2024,122.750115838981,13.859763249120
$GNGGA,180010.00,3356.62162615,N,11944.00299970,W,2,12,0.8,6.041,M,-37.454,M,7.0,0135*64
$PYRTM,2024,122.750115838981,13.859763249120
$GNHDT,84.221,T*16
$PYRTM,2024,122.750121575139,13.859768985278
$GNGGA,180010.50,3356.62174816,N,11944.00154570,W,2,12,0.8,6.079,M,-37.454,M,7.4,0135*6A
$PYRTM,2024,122.750121575139,13.859768985278
$GNHDT,84.326,T*10
$PYRTM,2024,122.750127415961,13.859774826100
$GNGGA,180011.00,3356.62185716,N,11944.00007597,W,2,12,0.8,6.095,M,-37.454,M,4.0,0135*64
$PYRTM,2024,122.750127415961,13.859774826100
$GNHDT,84.271,T*13
$PYRTM,2024,122.750133148958,13.859780559097
$GNGGA,180011.50,3356.62196271,N,11943.99858763,W,2,12,0.8,6.090,M,-37.454,M,4.4,0135*6A
$PYRTM,2024,122.750133148958,13.859780559097
$GNHDT,84.463,T*16
$PYRTM,2024,122.750138989213,13.859786399352
$GNGGA,180012.00,3356.62207242,N,11943.99708901,W,2,12,0.8,6.077,M,-37.454,M,5.0,0135*6B
$PYRTM,2024,122.750138989213,13.859786399352
$GNHDT,84.457,T*11
$PYRTM,2024,122.750144721296,13.859792131435
$GNGGA,180012.50,3356.62219103,N,11943.99558192,W,2,12,0.8,6.088,M,-37.454,M,5.4,0135*66
$PYRTM,2024,122.750144721296,13.859792131435
$GNHDT,84.409,T*1A
$PYRTM,2024,122.750150562928,13.859797973067
$GNGGA,180013.00,3356.62233442,N,11943.99406597,W,2,12,0.8,6.126,M,-37.454,M,6.0,0135*63
$PYRTM,2024,122.750150562928,13.859797973067
$GNHDT,84.507,T*15
$PYRTM,2024,122.750156297627,13.859803707778
$GNGGA,180013.50,3356.62249137,N,11943.99255320,W,2,12,0.8,6.192,M,-37.454,M,6.4,0135*6D
$PYRTM,2024,122.750156297627,13.859803707778
$GNHDT,84.757,T*12
$PYRTM,2024,122.750162137650,13.859809547789
$GNGGA,180014.00,3356.62266408,N,11943.99104152,W,2,12,0.8,6.302,M,-37.454,M,7.0,0135*65
$PYRTM,2024,122.750162137650,13.859809547789
$GNHDT,85.019,T*1E
$PYRTM,2024,122.750167869664,13.859815279803
$GNGGA,180014.50,3356.62282846,N,11943.98952736,W,2,12,0.8,6.416,M,-37.454,M,7.4,0135*64
$PYRTM,2024,122.750167869664,13.859815279803
$GNHDT,85.140,T*13
$PYRTM,2024,122.750173707234,13.859821117373
$GNGGA,180015.00,3356.62297325,N,11943.98799919,W,2,12,0.8,6.504,M,-37.454,M,7.0,0135*66
$PYRTM,2024,122.750173707234,13.859821117373
$GNHDT,85.341,T*10
$PYRTM,2024,122.750179446690,13.859826856829
$GNGGA,180015.50,3356.62310574,N,11943.98647262,W,2,12,0.8,6.546,M,-37.454,M,7.4,0135*68
$PYRTM,2024,122.750179446690,13.859826856829
$GNHDT,85.271,T*12
$PYRTM,2024,122.750185283507,13.859832693657
$GNGGA,180016.00,3356.62319691,N,11943.98492991,W,2,12,0.8,6.511,M,-37.454,M,7.0,0135*64
$PYRTM,2024,122.750185283507,13.859832693657
$GNHDT,85.330,T*16
$PYRTM,2024,122.750191020498,13.859838430637
$GNGGA,180016.50,3356.62328711,N,11943.98339509,W,2,12,0.8,6.426,M,-37.454,M,7.4,0135*60
$PYRTM,2024,122.750191020498,13.859838430637
$GNHDT,85.356,T*16
$PYRTM,2024,122.750196856435,13.859844266574
$GNGGA,180017.00,3356.62339344,N,11943.98187993,W,2,12,0.8,6.318,M,-37.454,M,4.0,0135*65
$PYRTM,2024,122.750196856435,13.859844266574
$GNHDT,85.311,T*15
$PYRTM,2024,122.750202590475,13.859850000613
$GNGGA,180017.50,3356.62353050,N,11943.98038913,W,2,12,0.8,6.249,M,-37.454,M,4.4,0135*66
$PYRTM,2024,122.750202590475,13.859850000613
$GNHDT,84.943,T*19
$PYRTM,2024,122.750208436412,13.859855846551
$GNGGA,180018.00,3356.62367851,N,11943.97890840,W,2,12,0.8,6.175,M,-37.454,M,5.0,0135*69
$PYRTM,2024,122.750208436412,13.859855846551
$GNHDT,84.840,T*1B
$PYRTM,2024,122.750214168762,13.859861578900
$GNGGA,180018.50,3356.62384190,N,11943.97744868,W,2,12,0.8,6.155,M,-37.454,M,5.4,0135*6F
$PYRTM,2024,122.750214168762,13.859861578900
$GNHDT,84.859,T*13
$PYRTM,2024,122.750220006620,13.859867416771
$GNGGA,180019.00,3356.62400610,N,11943.97600207,W,2,12,0.8,6.157,M,-37.454,M,6.0,0135*68
$PYRTM,2024,122.750220006620,13.859867416771
$GNHDT,84.403,T*10
$PYRTM,2024,122.750225746296,13.859873156435
$GNGGA,180019.50,3356.62415528,N,11943.97456022,W,2,12,0.8,6.147,M,-37.454,M,6.4,0135*60
$PYRTM,2024,122.750225746296,13.859873156435
$GNHDT,84.391,T*1C
$PYRTM,2024,122.750231582801,13.859878992940
$GNGGA,180020.00,3356.62429080,N,11943.97311672,W,2,12,0.8,6.113,M,-37.454,M,7.0,0135*64
$PYRTM,2024,122.750231582801,13.859878992940
$GNHDT,84.077,T*17
$PYRTM,2024,122.750237315775,13.859884725914
$GNGGA,180020.50,3356.62442764,N,11943.97167835,W,2,12,0.8,6.071,M,-37.454,M,7.4,0135*6E
$PYRTM,2024,122.750237315775,13.859884725914
$GNHDT,83.757,T*15
$PYRTM,2024,122.750243153345,13.859890563484
$GNGGA,180021.00,3356.62456466,N,11943.97024860,W,2,12,0.8,6.016,M,-37.454,M,7.0,0135*6D
$PYRTM,2024,122.750243153345,13.859890563484
$GNHDT,83.757,T*15
$PYRTM,2024,122.750248890463,13.859896300602
$GNGGA,180021.50,3356.62469281,N,11943.96881159,W,2,12,0.8,5.970,M,-37.454,M,7.4,0135*60
$PYRTM,2024,122.750248890463,13.859896300602
$GNHDT,83.653,T*10
$PYRTM,2024,122.750254731181,13.859902141319
$GNGGA,180022.00,3356.62481279,N,11943.96737107,W,2,12,0.8,5.922,M,-37.454,M,7.0,0135*6D
$PYRTM,2024,122.750254731181,13.859902141319
$GNHDT,83.587,T*1A
$PYRTM,2024,122.750260464282,13.859907874421
$GNGGA,180022.50,3356.62491603,N,11943.96591814,W,2,12,0.8,5.883,M,-37.455,M,7.4,0135*6A
$PYRTM,2024,122.750260464282,13.859907874421
$GNHDT,83.771,T*11
$PYRTM,2024,122.750266305382,13.859913715521
$GNGGA,180023.00,3356.62501886,N,11943.96446345,W,2,12,0.8,5.877,M,-37.455,M,4.0,0135*6D
$PYRTM,2024,122.750266305382,13.859913715521
$GNHDT,84.007,T*10
$PYRTM,2024,122.750272042442,13.859919452581
$GNGGA,180023.50,3356.62512706,N,11943.96299834,W,2,12,0.8,5.906,M,-37.455,M,4.4,0135*67
$PYRTM,2024,122.750272042442,13.859919452581
$GNHDT,84.342,T*12
$PYRTM,2024,122.750277874734,13.859925284873
$GNGGA,180024.00,3356.62526007,N,11943.96153014,W,2,12,0.8,5.999,M,-37.455,M,5.0,0135*68
$PYRTM,2024,122.750277874734,13.859925284873
$GNHDT,84.719,T*18
$PYRTM,2024,122.750283615498,13.859931025637
$GNGGA,180024.50,3356.62541332,N,11943.96005299,W,2,12,0.8,6.131,M,-37.455,M,5.4,0135*61
$PYRTM,2024,122.750283615498,13.859931025637
$GNHDT,84.741,T*15
$PYRTM,2024,122.750289453102,13.859936863241
$GNGGA,180025.00,3356.62557815,N,11943.95856565,W,2,12,0.8,6.280,M,-37.455,M,6.0,0135*6B
$PYRTM,2024,122.750289453102,13.859936863241
$GNHDT,84.932,T*1F
$PYRTM,2024,122.750295188275,13.859942598414
$GNGGA,180025.50,3356.62573315,N,11943.95705628,W,2,12,0.8,6.405,M,-37.455,M,6.4,0135*6F
$PYRTM,2024,122.750295188275,13.859942598414
$GNHDT,85.483,T*19
$PYRTM,2024,122.750301026331,13.859948436470
$GNGGA,180026.00,3356.62588712,N,11943.95553876,W,2,12,0.8,6.504,M,-37.455,M,7.0,0135*6F
$PYRTM,2024,122.750301026331,13.859948436470
$GNHDT,85.555,T*13
$PYRTM,2024,122.750306759109,13.859954169248
$GNGGA,180026.50,3356.62603605,N,11943.95402222,W,2,12,0.8,6.559,M,-37.455,M,7.4,0135*6F
$PYRTM,2024,122.750306759109,13.859954169248
$GNHDT,85.559,T*1F
$PYRTM,2024,122.750312601713,13.859960011852
$GNGGA,180027.00,3356.62617715,N,11943.95250274,W,2,12,0.8,6.579,M,-37.455,M,7.0,0135*6A
$PYRTM,2024,122.750312601713,13.859960011852
$GNHDT,85.604,T*14
$PYRTM,2024,122.750318334479,13.859965744618
$GNGGA,180027.50,3356.62631691,N,11943.95099062,W,2,12,0.8,6.557,M,-37.455,M,7.4,0135*6C
$PYRTM,2024,122.750318334479,13.859965744618
$GNHDT,85.584,T*1F
$PYRTM,2024,122.750324173368,13.859971583507
$GNGGA,180028.00,3356.62645827,N,11943.94949354,W,2,12,0.8,6.562,M,-37.455,M,7.0,0135*67
$PYRTM,2024,122.750324173368,13.859971583507
$GNHDT,85.532,T*12
$PYRTM,2024,122.750329914525,13.859977324664
$GNGGA,180028.50,3356.62660390,N,11943.94801285,W,2,12,0.8,6.572,M,-37.455,M,7.4,0135*67
$PYRTM,2024,122.750329914525,13.859977324664
$GNHDT,85.120,T*15
$PYRTM,2024,122.750335747083,13.859983157234
$GNGGA,180029.00,3356.62675022,N,11943.94653832,W,2,12,0.8,6.585,M,-37.455,M,4.0,0135*6D
$PYRTM,2024,122.750335747083,13.859983157234
$GNHDT,84.812,T*1C
$PYRTM,2024,122.750341483356,13.859988893495
$GNGGA,180029.50,3356.62690593,N,11943.94506593,W,2,12,0.8,6.572,M,-37.455,M,4.4,0135*65
$PYRTM,2024,122.750341483356,13.859988893495
$GNHDT,84.538,T*19
$PYRTM,2024,122.750347320764,13.859994730903
$GNGGA,180030.00,3356.62706045,N,11943.94359694,W,2,12,0.8,6.519,M,-37.455,M,5.0,0135*68
$PYRTM,2024,122.750347320764,13.859994730903
$GNHDT,84.260,T*13
$PYRTM,2024,122.750353055475,13.860000465613
$GNGGA,180030.50,3356.62722078,N,11943.94212405,W,2,12,0.8,6.439,M,-37.455,M,5.4,0135*66
$PYRTM,2024,122.750353055475,13.860000465613
$GNHDT,84.208,T*1D
$PYRTM,2024,122.750358894410,13.860006304549
$GNGGA,180031.00,3356.62737528,N,11943.94065873,W,2,12,0.8,6.335,M,-37.455,M,6.0,0135*65
$PYRTM,2024,122.750358894410,13.860006304549
$GNHDT,84.003,T*14
$PYRTM,2024,122.750364628993,13.860012039132
$GNGGA,180031.50,3356.62751676,N,11943.93919745,W,2,12,0.8,6.247,M,-37.455,M,6.4,0135*67
$PYRTM,2024,122.750364628993,13.860012039132
$GNHDT,83.997,T*17
$PYRTM,2024,122.750370468669,13.860017878808
$GNGGA,180032.00,3356.62764157,N,11943.93775108,W,2,12,0.8,6.189,M,-37.455,M,7.0,0135*6C
$PYRTM,2024,122.750370468669,13.860017878808
$GNHDT,84.037,T*13
$PYRTM,2024,122.750376202523,13.860023612662
$GNGGA,180032.50,3356.62775255,N,11943.93630289,W,2,12,0.8,6.173,M,-37.455,M,7.4,0135*63
$PYRTM,2024,122.750376202523,13.860023612662
$GNHDT,84.072,T*12
$PYRTM,2024,122.750382043796,13.860029453947
$GNGGA,180033.00,3356.62785899,N,11943.93485194,W,2,12,0.8,6.182,M,-37.455,M,7.0,0135*6B
$PYRTM,2024,122.750382043796,13.860029453947
$GNHDT,84.320,T*16
$PYRTM,2024,122.750387778576,13.860035188715
$GNGGA,180033.50,3356.62796180,N,11943.93338829,W,2,12,0.8,6.206,M,-37.455,M,7.4,0135*68
$PYRTM,2024,122.750387778576,13.860035188715
$GNHDT,84.624,T*17
$PYRTM,2024,122.750393615764,13.860041025903
$GNGGA,180034.00,3356.62807462,N,11943.93190405,W,2,12,0.8,6.213,M,-37.455,M,7.0,0135*66
$PYRTM,2024,122.750393615764,13.860041025903
$GNHDT,84.875,T*1D
$PYRTM,2024,122.750399349826,13.860046759965
$GNGGA,180034.50,3356.62820177,N,11943.93039862,W,2,12,0.8,6.195,M,-37.455,M,7.4,0135*61
$PYRTM,2024,122.750399349826,13.860046759965
$GNHDT,85.193,T*1D
$PYRTM,2024,122.750405191586,13.860052601725
$GNGGA,180035.00,3356.62834707,N,11943.92888446,W,2,12,0.8,6.151,M,-37.455,M,4.0,0135*67
$PYRTM,2024,122.750405191586,13.860052601725
$GNHDT,85.392,T*1E
$PYRTM,2024,122.750410930289,13.860058340428
$GNGGA,180035.50,3356.62849356,N,11943.92738131,W,2,12,0.8,6.133,M,-37.455,M,4.4,0135*69
$PYRTM,2024,122.750410930289,13.860058340428
$GNHDT,85.544,T*13
$PYRTM,2024,122.750416767650,13.860064177789
$GNGGA,180036.00,3356.62863113,N,11943.92587998,W,2,12,0.8,6.122,M,-37.455,M,5.0,0135*6C
$PYRTM,2024,122.750416767650,13.860064177789
$GNHDT,85.612,T*13
$PYRTM,2024,122.750422504537,13.860069914688
$GNGGA,180036.50,3356.62875840,N,11943.92438910,W,2,12,0.8,6.138,M,-37.455,M,5.4,0135*6B
$PYRTM,2024,122.750422504537,13.860069914688
$GNHDT,85.821,T*1D
$PYRTM,2024,122.750428337106,13.860075747257
$GNGGA,180037.00,3356.62886857,N,11943.92290123,W,2,12,0.8,6.160,M,-37.455,M,6.0,0135*63
$PYRTM,2024,122.750428337106,13.860075747257
$GNHDT,85.585,T*1E
$PYRTM,2024,122.750434074780,13.860081484919
$GNGGA,180037.50,3356.62897326,N,11943.92141907,W,2,12,0.8,6.196,M,-37.455,M,6.4,0135*67
$PYRTM,2024,122.750434074780,13.860081484919
$GNHDT,85.666,T*10
$PYRTM,2024,122.750439916308,13.860087326447
$GNGGA,180038.00,3356.62907226,N,11943.91994010,W,2,12,0.8,6.222,M,-37.455,M,7.0,0135*61
$PYRTM,2024,122.750439916308,13.860087326447
$GNHDT,85.400,T*12
$PYRTM,2024,122.750445650914,13.860093061065
$GNGGA,180038.50,3356.62918357,N,11943.91846623,W,2,12,0.8,6.244,M,-37.455,M,7.4,0135*61
$PYRTM,2024,122.750445650914,13.860093061065
$GNHDT,85.087,T*19
$PYRTM,2024,122.750451489167,13.860098899317
$GNGGA,180039.00,3356.62930531,N,11943.91700366,W,2,12,0.8,6.247,M,-37.455,M,7.0,0135*67
$PYRTM,2024,122.750451489167,13.860098899317
$GNHDT,84.581,T*1B
$PYRTM,2024,122.750457227454,13.860104637593
$GNGGA,180039.50,3356.62944549,N,11943.91555503,W,2,12,0.8,6.243,M,-37.455,M,7.4,0135*69
$PYRTM,2024,122.750457227454,13.860104637593
$GNHDT,84.228,T*1F
$PYRTM,2024,122.750463065104,13.860110475243
$GNGGA,180040.00,3356.62959217,N,11943.91411636,W,2,12,0.8,6.235,M,-37.455,M,7.0,0135*63
$PYRTM,2024,122.750463065104,13.860110475243
$GNHDT,84.031,T*15
$PYRTM,2024,122.750468795833,13.860116205972
$GNGGA,180040.50,3356.62973437,N,11943.91267101,W,2,12,0.8,6.219,M,-37.455,M,7.4,0135*64
$PYRTM,2024,122.750468795833,13.860116205972
$GNHDT,84.054,T*16
$PYRTM,2024,122.750474633438,13.860122043576
$GNGGA,180041.00,3356.62986887,N,11943.91122424,W,2,12,0.8,6.206,M,-37.455,M,4.0,0135*64
$PYRTM,2024,122.750474633438,13.860122043576
$GNHDT,83.879,T*16
$PYRTM,2024,122.750480373356,13.860127783507
$GNGGA,180041.50,3356.62999863,N,11943.90976990,W,2,12,0.8,6.211,M,-37.455,M,4.4,0135*6D
$PYRTM,2024,122.750480373356,13.860127783507
$GNHDT,83.786,T*19
$PYRTM,2024,122.750486209028,13.860133619167
$GNGGA,180042.00,3356.63013009,N,11943.90831321,W,2,12,0.8,6.236,M,-37.455,M,5.0,0135*67
$PYRTM,2024,122.750486209028,13.860133619167
$GNHDT,83.812,T*1B
$PYRTM,2024,122.750491944965,13.860139355104
$GNGGA,180042.50,3356.63026305,N,11943.90685167,W,2,12,0.8,6.289,M,-37.455,M,5.4,0135*6A
$PYRTM,2024,122.750491944965,13.860139355104
$GNHDT,83.972,T*1C
$PYRTM,2024,122.750497788750,13.860145198889
$GNGGA,180043.00,3356.63040876,N,11943.90537860,W,2,12,0.8,6.348,M,-37.455,M,6.0,0135*6E
$PYRTM,2024,122.750497788750,13.860145198889
$GNHDT,84.078,T*18
$PYRTM,2024,122.750503518519,13.860150928657
$GNGGA,180043.50,3356.63056336,N,11943.90388659,W,2,12,0.8,6.380,M,-37.455,M,6.4,0135*65
$PYRTM,2024,122.750503518519,13.860150928657
$GNHDT,84.331,T*16
$PYRTM,2024,122.750509362905,13.860156773044
$GNGGA,180044.00,3356.63073336,N,11943.90237477,W,2,12,0.8,6.402,M,-37.455,M,7.0,0135*63
$PYRTM,2024,122.750509362905,13.860156773044
$GNHDT,84.384,T*18
$PYRTM,2024,122.750515091562,13.860162501701
$GNGGA,180044.50,3356.63089632,N,11943.90084782,W,2,12,0.8,6.392,M,-37.455,M,7.4,0135*6B
$PYRTM,2024,122.750515091562,13.860162501701
$GNHDT,84.785,T*1D
$PYRTM,2024,122.750520930127,13.860168340266
$GNGGA,180045.00,3356.63106919,N,11943.89931567,W,2,12,0.8,6.372,M,-37.455,M,7.0,0135*63
$PYRTM,2024,122.750520930127,13.860168340266
$GNHDT,84.919,T*16
$PYRTM,2024,122.750526668611,13.860174078750
$GNGGA,180045.50,3356.63123228,N,11943.89778506,W,2,12,0.8,6.357,M,-37.455,M,7.4,0135*6F
$PYRTM,2024,122.750526668611,13.860174078750
$GNHDT,84.919,T*16
$PYRTM,2024,122.750532508762,13.860179918900
$GNGGA,180046.00,3356.63140741,N,11943.89625981,W,2,12,0.8,6.358,M,-37.455,M,7.0,0135*67
$PYRTM,2024,122.750532508762,13.860179918900
$GNHDT,85.060,T*10
$PYRTM,2024,122.750538239132,13.860185649271
$GNGGA,180046.50,3356.63157935,N,11943.89474639,W,2,12,0.8,6.366,M,-37.455,M,7.4,0135*6A
$PYRTM,2024,122.750538239132,13.860185649271
$GNHDT,84.627,T*14
$PYRTM,2024,122.750544085625,13.860191495764
$GNGGA,180047.00,3356.63174384,N,11943.89324040,W,2,12,0.8,6.371,M,-37.455,M,4.0,0135*64
$PYRTM,2024,122.750544085625,13.860191495764
$GNHDT,84.484,T*1F
$PYRTM,2024,122.750549815312,13.860197225451
$GNGGA,180047.50,3356.63190663,N,11943.89174775,W,2,12,0.8,6.372,M,-37.455,M,4.4,0135*66
$PYRTM,2024,122.750549815312,13.860197225451
$GNHDT,84.457,T*11
$PYRTM,2024,122.750555653657,13.860203063796
$GNGGA,180048.00,3356.63205352,N,11943.89026748,W,2,12,0.8,6.339,M,-37.455,M,5.0,0135*66
$PYRTM,2024,122.750555653657,13.860203063796
$GNHDT,84.236,T*10
$PYRTM,2024,122.750561391609,13.860208801748
$GNGGA,180048.50,3356.63219694,N,11943.88880141,W,2,12,0.8,6.285,M,-37.455,M,5.4,0135*69
$PYRTM,2024,122.750561391609,13.860208801748
$GNHDT,83.845,T*19
$PYRTM,2024,122.750567227303,13.860214637442
$GNGGA,180049.00,3356.63232440,N,11943.88734013,W,2,12,0.8,6.186,M,-37.455,M,6.0,0135*6E
$PYRTM,2024,122.750567227303,13.860214637442
$GNHDT,83.454,T*15
$PYRTM,2024,122.750572960532,13.860220370671
$GNGGA,180049.50,3356.63245180,N,11943.88588546,W,2,12,0.8,6.094,M,-37.455,M,6.4,0135*64
$PYRTM,2024,122.750572960532,13.860220370671
$GNHDT,83.035,T*16
$PYRTM,2024,122.750578799537,13.860226209676
$GNGGA,180050.00,3356.63258013,N,11943.88444135,W,2,12,0.8,6.016,M,-37.455,M,7.0,0135*60
$PYRTM,2024,122.750578799537,13.860226209676
$GNHDT,82.764,T*14
$PYRTM,2024,122.750584536389,13.860231946528
$GNGGA,180050.50,3356.63272186,N,11943.88300231,W,2,12,0.8,5.960,M,-37.455,M,7.4,0135*6F
$PYRTM,2024,122.750584536389,13.860231946528
$GNHDT,82.308,T*1A
$PYRTM,2024,122.750590375324,13.860237785463
$GNGGA,180051.00,3356.63287729,N,11943.88157145,W,2,12,0.8,5.948,M,-37.455,M,7.0,0135*6C
$PYRTM,2024,122.750590375324,13.860237785463
$GNHDT,82.138,T*1B
$PYRTM,2024,122.750596113356,13.860243523495
$GNGGA,180051.50,3356.63303745,N,11943.88014029,W,2,12,0.8,5.969,M,-37.455,M,7.4,0135*64
$PYRTM,2024,122.750596113356,13.860243523495
$GNHDT,81.892,T*11
$PYRTM,2024,122.750601952917,13.860249363067
$GNGGA,180052.00,3356.63320842,N,11943.87871356,W,2,12,0.8,6.005,M,-37.455,M,7.0,0135*60
$PYRTM,2024,122.750601952917,13.860249363067
$GNHDT,81.730,T*16
$PYRTM,2024,122.750607683519,13.860255093657
$GNGGA,180052.50,3356.63337733,N,11943.87727040,W,2,12,0.8,6.051,M,-37.455,M,7.4,0135*67
$PYRTM,2024,122.750607683519,13.860255093657
$GNHDT,81.575,T*15
$PYRTM,2024,122.750613524051,13.860260934190
$GNGGA,180053.00,3356.63354995,N,11943.87581703,W,2,12,0.8,6.132,M,-37.455,M,4.0,0135*69
$PYRTM,2024,122.750613524051,13.860260934190
$GNHDT,81.741,T*10
$PYRTM,2024,122.750619256667,13.860266666806
$GNGGA,180053.50,3356.63371516,N,11943.87434693,W,2,12,0.8,6.206,M,-37.455,M,4.4,0135*6B
$PYRTM,2024,122.750619256667,13.860266666806
$GNHDT,82.023,T*10
$PYRTM,2024,122.750625100255,13.860272510394
$GNGGA,180054.00,3356.63388639,N,11943.87285871,W,2,12,0.8,6.294,M,-37.455,M,5.0,0135*61
$PYRTM,2024,122.750625100255,13.860272510394
$GNHDT,82.140,T*14
$PYRTM,2024,122.750630836944,13.860278247083
$GNGGA,180054.50,3356.63405586,N,11943.87134589,W,2,12,0.8,6.357,M,-37.455,M,5.4,0135*68
$PYRTM,2024,122.750630836944,13.860278247083
$GNHDT,82.267,T*12
$PYRTM,2024,122.750636676632,13.860284086759
$GNGGA,180055.00,3356.63423854,N,11943.86981742,W,2,12,0.8,6.435,M,-37.455,M,6.0,0135*6C
$PYRTM,2024,122.750636676632,13.860284086759
$GNHDT,82.403,T*16
$PYRTM,2024,122.750642407743,13.860289817882
$GNGGA,180055.50,3356.63442844,N,11943.86828115,W,2,12,0.8,6.498,M,-37.455,M,6.4,0135*6A
$PYRTM,2024,122.750642407743,13.860289817882
$GNHDT,82.512,T*17
$PYRTM,2024,122.750648244282,13.860295654421
$GNGGA,180056.00,3356.63463528,N,11943.86674037,W,2,12,0.8,6.563,M,-37.455,M,7.0,0135*6E
$PYRTM,2024,122.750648244282,13.860295654421
$GNHDT,82.508,T*1C
$PYRTM,2024,122.750653984583,13.860301394722
$GNGGA,180056.50,3356.63484496,N,11943.86520085,W,2,12,0.8,6.607,M,-37.455,M,7.4,0135*68
$PYRTM,2024,122.750653984583,13.860301394722
$GNHDT,82.599,T*14
$PYRTM,2024,122.750659820752,13.860307230891
$GNGGA,180057.00,3356.63506108,N,11943.86366290,W,2,12,0.8,6.645,M,-37.455,M,7.0,0135*65
$PYRTM,2024,122.750659820752,13.860307230891
$GNHDT,82.735,T*10
$PYRTM,2024,122.750665558090,13.860312968229
$GNGGA,180057.50,3356.63527695,N,11943.86212896,W,2,12,0.8,6.650,M,-37.455,M,7.4,0135*6E
$PYRTM,2024,122.750665558090,13.860312968229
$GNHDT,82.577,T*14
$PYRTM,2024,122.750671394433,13.860318804572
$GNGGA,180058.00,3356.63549222,N,11943.86060142,W,2,12,0.8,6.623,M,-37.455,M,7.0,0135*63
$PYRTM,2024,122.750671394433,13.860318804572
$GNHDT,82.505,T*11
$PYRTM,2024,122.750677127292,13.860324537431
$GNGGA,180058.50,3356.63569604,N,11943.85908811,W,2,12,0.8,6.549,M,-37.455,M,7.4,0135*64
$PYRTM,2024,122.750677127292,13.860324537431
$GNHDT,82.435,T*13
$PYRTM,2024,122.750682967095,13.860330377234
$GNGGA,180059.00,3356.63588575,N,11943.85759646,W,2,12,0.8,6.472,M,-37.455,M,4.0,0135*62
$PYRTM,2024,122.750682967095,13.860330377234
$GNHDT,82.349,T*1F
$PYRTM,2024,122.750688707153,13.860336117303
$GNGGA,180059.50,3356.63605948,N,11943.85612007,W,2,12,0.8,6.399,M,-37.455,M,4.4,0135*68
$PYRTM,2024,122.750688707153,13.860336117303
$GNHDT,82.262,T*17
$PYRTM,2024,122.750694542720,13.860341952870
$GNGGA,180100.00,3356.63622748,N,11943.85465957,W,2,12,0.8,6.327,M,-37.455,M,5.0,0135*65
$PYRTM,2024,122.750694542720,13.860341952870
$GNHDT,82.174,T*13
$PYRTM,2024,122.750700277650,13.860347687789
$GNGGA,180100.50,3356.63640299,N,11943.85321194,W,2,12,0.8,6.278,M,-37.455,M,5.4,0135*62
$PYRTM,2024,122.750700277650,13.860347687789
$GNHDT,81.925,T*1C
$PYRTM,2024,122.750706118079,13.860353528218
$GNGGA,180101.00,3356.63659579,N,11943.85178465,W,2,12,0.8,6.265,M,-37.455,M,6.0,0135*69
$PYRTM,2024,122.750706118079,13.860353528218
$GNHDT,81.706,T*13
$PYRTM,2024,122.750711854421,13.860359264572
$GNGGA,180101.50,3356.63679891,N,11943.85037217,W,2,12,0.8,6.286,M,-37.455,M,6.4,0135*65
$PYRTM,2024,122.750711854421,13.860359264572
$GNHDT,81.586,T*19
$PYRTM,2024,122.750717689514,13.860365099653
$GNGGA,180102.00,3356.63700045,N,11943.84897434,W,2,12,0.8,6.321,M,-37.455,M,7.0,0135*60
$PYRTM,2024,122.750717689514,13.860365099653
$GNHDT,81.455,T*16
$PYRTM,2024,122.750723429537,13.860370839676
$GNGGA,180102.50,3356.63718979,N,11943.84758050,W,2,12,0.8,6.345,M,-37.455,M,7.4,0135*66
$PYRTM,2024,122.750723429537,13.860370839676
$GNHDT,81.476,T*17
$PYRTM,2024,122.750729269525,13.860376679664
$GNGGA,180103.00,3356.63735667,N,11943.84618600,W,2,12,0.8,6.364,M,-37.455,M,7.0,0135*6C
$PYRTM,2024,122.750729269525,13.860376679664
$GNHDT,81.491,T*1E
$PYRTM,2024,122.750734999838,13.860382409977
$GNGGA,180103.50,3356.63750050,N,11943.84477716,W,2,12,0.8,6.342,M,-37.455,M,7.4,0135*65
$PYRTM,2024,122.750734999838,13.860382409977
$GNHDT,81.237,T*14
$PYRTM,2024,122.750740843322,13.860388253461
$GNGGA,180104.00,3356.63763366,N,11943.84334971,W,2,12,0.8,6.309,M,-37.455,M,7.0,0135*65
$PYRTM,2024,122.750740843322,13.860388253461
$GNHDT,81.356,T*12
$PYRTM,2024,122.750746578333,13.860393988472
$GNGGA,180104.50,3356.63777763,N,11943.84191260,W,2,12,0.8,6.296,M,-37.455,M,7.4,0135*61
$PYRTM,2024,122.750746578333,13.860393988472
$GNHDT,81.608,T*1C
$PYRTM,2024,122.750752411690,13.860399821840
$GNGGA,180105.00,3356.63794804,N,11943.84047158,W,2,12,0.8,6.348,M,-37.455,M,4.0,0135*61
$PYRTM,2024,122.750752411690,13.860399821840
$GNHDT,81.635,T*12
$PYRTM,2024,122.750758152083,13.860405562222
$GNGGA,180105.50,3356.63814559,N,11943.83902507,W,2,12,0.8,6.462,M,-37.455,M,4.4,0135*6C
$PYRTM,2024,122.750758152083,13.860405562222
$GNHDT,81.828,T*10
$PYRTM,2024,122.750763988461,13.860411398600
$GNGGA,180106.00,3356.63836510,N,11943.83756322,W,2,12,0.8,6.619,M,-37.455,M,5.0,0135*62
$PYRTM,2024,122.750763988461,13.860411398600
$GNHDT,82.032,T*10
$PYRTM,2024,122.750769720937,13.860417131076
$GNGGA,180106.50,3356.63859311,N,11943.83608028,W,2,12,0.8,6.777,M,-37.455,M,5.4,0135*67
$PYRTM,2024,122.750769720937,13.860417131076
$GNHDT,82.417,T*13
$PYRTM,2024,122.750775564433,13.860422974572
$GNGGA,180107.00,3356.63882090,N,11943.83457126,W,2,12,0.8,6.909,M,-37.455,M,6.0,0135*68
$PYRTM,2024,122.750775564433,13.860422974572
$GNHDT,82.412,T*16
$PYRTM,2024,122.750781299988,13.860428710127
$GNGGA,180107.50,3356.63903593,N,11943.83303708,W,2,12,0.8,6.974,M,-37.455,M,6.4,0135*61
$PYRTM,2024,122.750781299988,13.860428710127
$GNHDT,82.691,T*1F
$PYRTM,2024,122.750787135046,13.860434545185
$GNGGA,180108.00,3356.63923772,N,11943.83148268,W,2,12,0.8,6.992,M,-37.455,M,7.0,0135*67
$PYRTM,2024,122.750787135046,13.860434545185
$GNHDT,82.661,T*10
$PYRTM,2024,122.750792868866,13.860440279005
$GNGGA,180108.50,3356.63943147,N,11943.82991529,W,2,12,0.8,6.958,M,-37.455,M,7.4,0135*69
$PYRTM,2024,122.750792868866,13.860440279005
$GNHDT,82.528,T*1E
$PYRTM,2024,122.750798708646,13.860446118785
$GNGGA,180109.00,3356.63961653,N,11943.82834885,W,2,12,0.8,6.906,M,-37.455,M,7.0,0135*65
$PYRTM,2024,122.750798708646,13.860446118785
$GNHDT,82.472,T*10
$PYRTM,2024,122.750804447836,13.860451857986
$GNGGA,180109.50,3356.63979997,N,11943.82679500,W,2,12,0.8,6.877,M,-37.455,M,7.4,0135*6A
$PYRTM,2024,122.750804447836,13.860451857986
$GNHDT,82.465,T*16
$PYRTM,2024,122.750810283380,13.860457693519
$GNGGA,180110.00,3356.63998947,N,11943.82525020,W,2,12,0.8,6.862,M,-37.455,M,7.0,0135*68
$PYRTM,2024,122.750810283380,13.860457693519
$GNHDT,82.377,T*12
$PYRTM,2024,122.750816019074,13.860463429225
$GNGGA,180110.50,3356.64019671,N,11943.82372427,W,2,12,0.8,6.857,M,-37.455,M,7.4,0135*65
$PYRTM,2024,122.750816019074,13.860463429225
$GNHDT,82.007,T*16
$PYRTM,2024,122.750821858264,13.860469268414
$GNGGA,180111.00,3356.64041275,N,11943.82221294,W,2,12,0.8,6.859,M,-37.455,M,4.0,0135*6C
$PYRTM,2024,122.750821858264,13.860469268414
$GNHDT,81.856,T*19
$PYRTM,2024,122.750827591794,13.860475001933
$GNGGA,180111.50,3356.64062607,N,11943.82071370,W,2,12,0.8,6.834,M,-37.455,M,4.4,0135*6A
$PYRTM,2024,122.750827591794,13.860475001933
$GNHDT,82.025,T*16
$PYRTM,2024,122.750833429421,13.860480839560
$GNGGA,180112.00,3356.64082226,N,11943.81922532,W,2,12,0.8,6.774,M,-37.456,M,5.0,0135*64
$PYRTM,2024,122.750833429421,13.860480839560
$GNHDT,81.903,T*18
$PYRTM,2024,122.750839166111,13.860486576250
$GNGGA,180112.50,3356.64100160,N,11943.81775221,W,2,12,0.8,6.676,M,-37.456,M,5.4,0135*65
$PYRTM,2024,122.750839166111,13.860486576250
$GNHDT,81.634,T*13
$PYRTM,2024,122.750845004248,13.860492414398
$GNGGA,180113.00,3356.64117141,N,11943.81629941,W,2,12,0.8,6.574,M,-37.456,M,6.0,0135*67
$PYRTM,2024,122.750845004248,13.860492414398
$GNHDT,81.502,T*15
$PYRTM,2024,122.750850743750,13.860498153889
$GNGGA,180113.50,3356.64133221,N,11943.81486280,W,2,12,0.8,6.460,M,-37.456,M,6.4,0135*60
$PYRTM,2024,122.750850743750,13.860498153889
$GNHDT,81.537,T*13
$PYRTM,2024,122.750856586887,13.860503997037
$GNGGA,180114.00,3356.64147866,N,11943.81344683,W,2,12,0.8,6.367,M,-37.456,M,7.0,0135*63
$PYRTM,2024,122.750856586887,13.860503997037
$GNHDT,81.427,T*13
$PYRTM,2024,122.750862316007,13.860509726157
$GNGGA,180114.50,3356.64161904,N,11943.81204398,W,2,12,0.8,6.295,M,-37.456,M,7.4,0135*65
$PYRTM,2024,122.750862316007,13.860509726157
$GNHDT,81.376,T*10
$PYRTM,2024,122.750868151771,13.860515561910
$GNGGA,180115.00,3356.64176114,N,11943.81064578,W,2,12,0.8,6.274,M,-37.456,M,7.0,0135*69
$PYRTM,2024,122.750868151771,13.860515561910
$GNHDT,81.437,T*12
$PYRTM,2024,122.750873888924,13.860521299074
$GNGGA,180115.50,3356.64191252,N,11943.80924835,W,2,12,0.8,6.293,M,-37.456,M,7.4,0135*61
$PYRTM,2024,122.750873888924,13.860521299074
$GNHDT,81.424,T*10
$PYRTM,2024,122.750879725301,13.860527135440
$GNGGA,180116.00,3356.64208605,N,11943.80784916,W,2,12,0.8,6.365,M,-37.456,M,7.0,0135*6A
$PYRTM,2024,122.750879725301,13.860527135440
$GNHDT,81.428,T*1C
$PYRTM,2024,122.750885469063,13.860532879201
$GNGGA,180116.50,3356.64228190,N,11943.80644132,W,2,12,0.8,6.471,M,-37.456,M,7.4,0135*63
$PYRTM,2024,122.750885469063,13.860532879201
$GNHDT,81.284,T*1C
$PYRTM,2024,122.750891302164,13.860538712303
$GNGGA,180117.00,3356.64249234,N,11943.80502226,W,2,12,0.8,6.601,M,-37.456,M,4.0,0135*68
$PYRTM,2024,122.750891302164,13.860538712303
$GNHDT,81.324,T*17
$PYRTM,2024,122.750897038206,13.860544448345
$GNGGA,180117.50,3356.64270965,N,11943.80358575,W,2,12,0.8,6.730,M,-37.456,M,4.4,0135*67
$PYRTM,2024,122.750897038206,13.860544448345
$GNHDT,81.625,T*13
$PYRTM,2024,122.750902875775,13.860550285914
$GNGGA,180118.00,3356.64292864,N,11943.80213013,W,2,12,0.8,6.854,M,-37.456,M,5.0,0135*62
$PYRTM,2024,122.750902875775,13.860550285914
$GNHDT,81.584,T*1B
$PYRTM,2024,122.750908611273,13.860556021424
$GNGGA,180118.50,3356.64313554,N,11943.80065341,W,2,12,0.8,6.948,M,-37.456,M,5.4,0135*6E
$PYRTM,2024,122.750908611273,13.860556021424
$GNHDT,81.954,T*1A
$PYRTM,2024,122.750914449097,13.860561859236
$GNGGA,180119.00,3356.64332938,N,11943.79916273,W,2,12,0.8,7.016,M,-37.456,M,6.0,0135*60
$PYRTM,2024,122.750914449097,13.860561859236
$GNHDT,82.045,T*10
$PYRTM,2024,122.750920191366,13.860567601505
$GNGGA,180119.50,3356.64351815,N,11943.79766244,W,2,12,0.8,7.058,M,-37.456,M,6.4,0135*6D
$PYRTM,2024,122.750920191366,13.860567601505
$GNHDT,82.047,T*12
$PYRTM,2024,122.750926027975,13.860573438113
$GNGGA,180120.00,3356.64370949,N,11943.79615131,W,2,12,0.8,7.092,M,-37.456,M,7.0,0135*6E
$PYRTM,2024,122.750926027975,13.860573438113
$GNHDT,82.116,T*17
$PYRTM,2024,122.750931760370,13.860579170509
$GNGGA,180120.50,3356.64391545,N,11943.79462849,W,2,12,0.8,7.113,M,-37.456,M,7.4,0135*6C
$PYRTM,2024,122.750931760370,13.860579170509
$GNHDT,82.146,T*12
$PYRTM,2024,122.750937600891,13.860585011030
$GNGGA,180121.00,3356.64413079,N,11943.79309513,W,2,12,0.8,7.121,M,-37.456,M,7.0,0135*62
$PYRTM,2024,122.750937600891,13.860585011030
$GNHDT,82.264,T*11
$PYRTM,2024,122.750943340799,13.860590750937
$GNGGA,180121.50,3356.64435115,N,11943.79155790,W,2,12,0.8,7.100,M,-37.456,M,7.4,0135*6D
$PYRTM,2024,122.750943340799,13.860590750937
$GNHDT,82.299,T*13
$PYRTM,2024,122.750949170000,13.860596580139
$GNGGA,180122.00,3356.64457685,N,11943.79001913,W,2,12,0.8,7.053,M,-37.456,M,7.0,0135*67
$PYRTM,2024,122.750949170000,13.860596580139
$GNHDT,82.219,T*1B
$PYRTM,2024,122.750954907905,13.860602318044
$GNGGA,180122.50,3356.64480548,N,11943.78848986,W,2,12,0.8,7.001,M,-37.456,M,7.4,0135*61
$PYRTM,2024,122.750954907905,13.860602318044
$GNHDT,82.131,T*12
$PYRTM,2024,122.750960745116,13.860608155266
$GNGGA,180123.00,3356.64502466,N,11943.78697534,W,2,12,0.8,6.926,M,-37.456,M,4.0,0135*60
$PYRTM,2024,122.750960745116,13.860608155266
$GNHDT,82.103,T*13
$PYRTM,2024,122.750966485035,13.860613895174
$GNGGA,180123.50,3356.64522731,N,11943.78547850,W,2,12,0.8,6.851,M,-37.456,M,4.4,0135*62
$PYRTM,2024,122.750966485035,13.860613895174
$GNHDT,82.051,T*15
$PYRTM,2024,122.750972318750,13.860619728889
$GNGGA,180124.00,3356.64540888,N,11943.78399708,W,2,12,0.8,6.761,M,-37.456,M,5.0,0135*67
$PYRTM,2024,122.750972318750,13.860619728889
$GNHDT,82.008,T*19
$PYRTM,2024,122.750978054583,13.860625464722
$GNGGA,180124.50,3356.64557142,N,11943.78253005,W,2,12,0.8,6.680,M,-37.456,M,5.4,0135*6C
$PYRTM,2024,122.750978054583,13.860625464722
$GNHDT,81.974,T*18
$PYRTM,2024,122.750983897963,13.860631308102
$GNGGA,180125.00,3356.64571810,N,11943.78107343,W,2,12,0.8,6.595,M,-37.456,M,6.0,0135*61
$PYRTM,2024,122.750983897963,13.860631308102
$GNHDT,81.952,T*1C
$PYRTM,2024,122.750989636840,13.860637046979
$GNGGA,180125.50,3356.64586459,N,11943.77962474,W,2,12,0.8,6.546,M,-37.456,M,6.4,0135*60
$PYRTM,2024,122.750989636840,13.860637046979
$GNHDT,81.857,T*18
$PYRTM,2024,122.750995471794,13.860642881933
$GNGGA,180126.00,3356.64601617,N,11943.77818535,W,2,12,0.8,6.503,M,-37.456,M,7.0,0135*6E
$PYRTM,2024,122.750995471794,13.860642881933
$GNHDT,81.895,T*16
$PYRTM,2024,122.751001206424,13.860648616562
$GNGGA,180126.50,3356.64617757,N,11943.77675371,W,2,12,0.8,6.500,M,-37.456,M,7.4,0135*6D
$PYRTM,2024,122.751001206424,13.860648616562
$GNHDT,81.615,T*10
$PYRTM,2024,122.751007043750,13.860654453900
$GNGGA,180127.00,3356.64634205,N,11943.77533503,W,2,12,0.8,6.504,M,-37.456,M,7.0,0135*68
$PYRTM,2024,122.751007043750,13.860654453900
$GNHDT,81.603,T*17
$PYRTM,2024,122.751012778623,13.860660188762
$GNGGA,180127.50,3356.64651111,N,11943.77391520,W,2,12,0.8,6.530,M,-37.456,M,7.4,0135*64
$PYRTM,2024,122.751012778623,13.860660188762
$GNHDT,81.759,T*19
$PYRTM,2024,122.751018616389,13.860666026528
$GNGGA,180128.00,3356.64668837,N,11943.77249343,W,2,12,0.8,6.567,M,-37.456,M,7.0,0135*68
$PYRTM,2024,122.751018616389,13.860666026528
$GNHDT,81.754,T*14
$PYRTM,2024,122.751024352257,13.860671762407
$GNGGA,180128.50,3356.64687344,N,11943.77105792,W,2,12,0.8,6.598,M,-37.456,M,7.4,0135*64
$PYRTM,2024,122.751024352257,13.860671762407
$GNHDT,81.645,T*15
$PYRTM,2024,122.751030192025,13.860677602164
$GNGGA,180129.00,3356.64705543,N,11943.76961255,W,2,12,0.8,6.629,M,-37.456,M,4.0,0135*61
$PYRTM,2024,122.751030192025,13.860677602164
$GNHDT,81.439,T*1C
$PYRTM,2024,122.751035925509,13.860683335648
$GNGGA,180129.50,3356.64722974,N,11943.76815498,W,2,12,0.8,6.661,M,-37.456,M,4.4,0135*64
$PYRTM,2024,122.751035925509,13.860683335648
$GNHDT,81.425,T*11
$PYRTM,2024,122.751041761921,13.860689172060
$GNGGA,180130.00,3356.64739668,N,11943.76668936,W,2,12,0.8,6.702,M,-37.456,M,5.0,0135*6D
$PYRTM,2024,122.751041761921,13.860689172060
$GNHDT,81.370,T*16
$PYRTM,2024,122.751047500509,13.860694910648
$GNGGA,180130.50,3356.64757543,N,11943.76522016,W,2,12,0.8,6.758,M,-37.456,M,5.4,0135*67
$PYRTM,2024,122.751047500509,13.860694910648
$GNHDT,81.419,T*1E
$PYRTM,2024,122.751053337847,13.860700747986
$GNGGA,180131.00,3356.64776287,N,11943.76373966,W,2,12,0.8,6.818,M,-37.456,M,6.0,0135*6F
$PYRTM,2024,122.751053337847,13.860700747986
$GNHDT,81.492,T*1D
$PYRTM,2024,122.751059074572,13.860706484711
$GNGGA,180131.50,3356.64796350,N,11943.76223915,W,2,12,0.8,6.862,M,-37.456,M,6.4,0135*66
$PYRTM,2024,122.751059074572,13.860706484711
$GNHDT,81.639,T*1E
$PYRTM,2024,122.751064914502,13.860712324641
$GNGGA,180132.00,3356.64817845,N,11943.76073079,W,2,12,0.8,6.904,M,-37.456,M,7.0,0135*69
$PYRTM,2024,122.751064914502,13.860712324641
$GNHDT,81.632,T*15
$PYRTM,2024,122.751070652847,13.860718062986
$GNGGA,180132.50,3356.64840449,N,11943.75922695,W,2,12,0.8,6.941,M,-37.456,M,7.4,0135*61
$PYRTM,2024,122.751070652847,13.860718062986
$GNHDT,81.665,T*17
$PYRTM,2024,122.751076490278,13.860723900417
$GNGGA,180133.00,3356.64862616,N,11943.75772090,W,2,12,0.8,6.961,M,-37.456,M,7.0,0135*63
$PYRTM,2024,122.751076490278,13.860723900417
$GNHDT,81.941,T*1E
$PYRTM,2024,122.751082220231,13.860729630370
$GNGGA,180133.50,3356.64883174,N,11943.75620633,W,2,12,0.8,6.955,M,-37.456,M,7.4,0135*60
$PYRTM,2024,122.751082220231,13.860729630370
$GNHDT,82.014,T*14
$PYRTM,2024,122.751088065718,13.860735475856
$GNGGA,180134.00,3356.64902426,N,11943.75469108,W,2,12,0.8,6.920,M,-37.456,M,7.0,0135*6E
$PYRTM,2024,122.751088065718,13.860735475856
$GNHDT,82.055,T*11
$PYRTM,2024,122.751093795926,13.860741206076
$GNGGA,180134.50,3356.64921604,N,11943.75318364,W,2,12,0.8,6.886,M,-37.456,M,7.4,0135*68
$PYRTM,2024,122.751093795926,13.860741206076
$GNHDT,81.901,T*1A
$PYRTM,2024,122.751099636447,13.860747046586
$GNGGA,180135.00,3356.64940787,N,11943.75168111,W,2,12,0.8,6.840,M,-37.456,M,4.0,0135*69
$PYRTM,2024,122.751099636447,13.860747046586
$GNHDT,81.840,T*1E
$PYRTM,2024,122.751105374375,13.860752784514
$GNGGA,180135.50,3356.64959922,N,11943.75018570,W,2,12,0.8,6.804,M,-37.456,M,4.4,0135*64
$PYRTM,2024,122.751105374375,13.860752784514
$GNHDT,81.750,T*10
$PYRTM,2024,122.751111213981,13.860758624132
$GNGGA,180136.00,3356.64979232,N,11943.74870594,W,2,12,0.8,6.772,M,-37.456,M,5.0,0135*6C
$PYRTM,2024,122.751111213981,13.860758624132
$GNHDT,81.625,T*13
$PYRTM,2024,122.751116949051,13.860764359190
$GNGGA,180136.50,3356.64999413,N,11943.74724218,W,2,12,0.8,6.752,M,-37.456,M,5.4,0135*69
$PYRTM,2024,122.751116949051,13.860764359190
$GNHDT,81.648,T*18
$PYRTM,2024,122.751122784687,13.860770194826
$GNGGA,180137.00,3356.65019774,N,11943.74577957,W,2,12,0.8,6.731,M,-37.456,M,6.0,0135*69
$PYRTM,2024,122.751122784687,13.860770194826
$GNHDT,81.340,T*15
$PYRTM,2024,122.751128517847,13.860775927986
$GNGGA,180137.50,3356.65039970,N,11943.74432252,W,2,12,0.8,6.700,M,-37.456,M,6.4,0135*6C
$PYRTM,2024,122.751128517847,13.860775927986
$GNHDT,81.276,T*11
$PYRTM,2024,122.751134360556,13.860781770694
$GNGGA,180138.00,3356.65060369,N,11943.74288093,W,2,12,0.8,6.678,M,-37.456,M,7.0,0135*6B
$PYRTM,2024,122.751134360556,13.860781770694
$GNHDT,81.178,T*1C
$PYRTM,2024,122.751140102569,13.860787512708
$GNGGA,180138.50,3356.65080472,N,11943.74145018,W,2,12,0.8,6.678,M,-37.456,M,7.4,0135*68
$PYRTM,2024,122.751140102569,13.860787512708
$GNHDT,81.061,T*15
$PYRTM,2024,122.751145939410,13.860793349549
$GNGGA,180139.00,3356.65099647,N,11943.74002593,W,2,12,0.8,6.674,M,-37.456,M,7.0,0135*6C
$PYRTM,2024,122.751145939410,13.860793349549
$GNHDT,80.773,T*10
$PYRTM,2024,122.751151665556,13.860799075706
$GNGGA,180139.50,3356.65118344,N,11943.73860035,W,2,12,0.8,6.692,M,-37.456,M,7.4,0135*69
$PYRTM,2024,122.751151665556,13.860799075706
$GNHDT,80.682,T*1F
$PYRTM,2024,122.751157505451,13.860804915590
$GNGGA,180140.00,3356.65135799,N,11943.73717115,W,2,12,0.8,6.676,M,-37.456,M,7.0,0135*6B
$PYRTM,2024,122.751157505451,13.860804915590
$GNHDT,80.669,T*1A
$PYRTM,2024,122.751163243565,13.860810653704
$GNGGA,180140.50,3356.65152917,N,11943.73573540,W,2,12,0.8,6.641,M,-37.456,M,7.4,0135*63
$PYRTM,2024,122.751163243565,13.860810653704
$GNHDT,80.522,T*16
$PYRTM,2024,122.751169076563,13.860816486701
$GNGGA,180141.00,3356.65168590,N,11943.73428718,W,2,12,0.8,6.589,M,-37.456,M,4.0,0135*6D
$PYRTM,2024,122.751169076563,13.860816486701
$GNHDT,80.822,T*1B
$PYRTM,2024,122.751174816111,13.860822226250
$GNGGA,180141.50,3356.65185046,N,11943.73283095,W,2,12,0.8,6.536,M,-37.456,M,4.4,0135*60
$PYRTM,2024,122.751174816111,13.860822226250
$GNHDT,80.882,T*11
$PYRTM,2024,122.751180657581,13.860828067720
$GNGGA,180142.00,3356.65201928,N,11943.73136276,W,2,12,0.8,6.485,M,-37.456,M,5.0,0135*66
$PYRTM,2024,122.751180657581,13.860828067720
$GNHDT,80.947,T*19
$PYRTM,2024,122.751186387882,13.860833798021
$GNGGA,180142.50,3356.65220495,N,11943.72989472,W,2,12,0.8,6.484,M,-37.456,M,5.4,0135*61
$PYRTM,2024,122.751186387882,13.860833798021
$GNHDT,81.174,T*10
$PYRTM,2024,122.751192226458,13.860839636597
$GNGGA,180143.00,3356.65239714,N,11943.72843135,W,2,12,0.8,6.519,M,-37.456,M,6.0,0135*64
$PYRTM,2024,122.751192226458,13.860839636597
$GNHDT,81.356,T*12
$PYRTM,2024,122.751197960579,13.860845370718
$GNGGA,180143.50,3356.65259589,N,11943.72696378,W,2,12,0.8,6.593,M,-37.456,M,6.4,0135*6A
$PYRTM,2024,122.751197960579,13.860845370718
$GNHDT,81.724,T*13
$PYRTM,2024,122.751203800845,13.860851210984
$GNGGA,180144.00,3356.65279172,N,11943.72548683,W,2,12,0.8,6.666,M,-37.456,M,7.0,0135*67
$PYRTM,2024,122.751203800845,13.860851210984
$GNHDT,82.046,T*13
$PYRTM,2024,122.751209537350,13.860856947488
$GNGGA,180144.50,3356.65299078,N,11943.72399465,W,2,12,0.8,6.729,M,-37.456,M,7.4,0135*69
$PYRTM,2024,122.751209537350,13.860856947488
$GNHDT,82.026,T*15
$PYRTM,2024,122.751215373947,13.860862784097
$GNGGA,180145.00,3356.65319188,N,11943.72248722,W,2,12,0.8,6.744,M,-37.456,M,7.0,0135*68
$PYRTM,2024,122.751215373947,13.860862784097
$GNHDT,82.194,T*1D
$PYRTM,2024,122.751221111331,13.860868521470
$GNGGA,180145.50,3356.65339664,N,11943.72097697,W,2,12,0.8,6.722,M,-37.456,M,7.4,0135*61
$PYRTM,2024,122.751221111331,13.860868521470
$GNHDT,82.291,T*1B
$PYRTM,2024,122.751226952720,13.860874362859
$GNGGA,180146.00,3356.65360427,N,11943.71946782,W,2,12,0.8,6.671,M,-37.456,M,7.0,0135*6E
$PYRTM,2024,122.751226952720,13.860874362859
$GNHDT,82.180,T*18
$PYRTM,2024,122.751232684861,13.860880095012
$GNGGA,180146.50,3356.65380845,N,11943.71797492,W,2,12,0.8,6.640,M,-37.456,M,7.4,0135*6B
$PYRTM,2024,122.751232684861,13.860880095012
$GNHDT,82.056,T*12
$PYRTM,2024,122.751238521840,13.860885931979
$GNGGA,180147.00,3356.65401033,N,11943.71649457,W,2,12,0.8,6.606,M,-37.456,M,4.0,0135*66
$PYRTM,2024,122.751238521840,13.860885931979
$GNHDT,81.988,T*1B
$PYRTM,2024,122.751244265058,13.860891675197
$GNGGA,180147.50,3356.65421728,N,11943.71502777,W,2,12,0.8,6.608,M,-37.456,M,4.4,0135*6B
$PYRTM,2024,122.751244265058,13.860891675197
$GNHDT,81.807,T*1D
$PYRTM,2024,122.751250096620,13.860897506759
$GNGGA,180148.00,3356.65442938,N,11943.71356453,W,2,12,0.8,6.599,M,-37.456,M,5.0,0135*67
$PYRTM,2024,122.751250096620,13.860897506759
$GNHDT,81.501,T*16
$PYRTM,2024,122.751255831829,13.860903241968
$GNGGA,180148.50,3356.65463653,N,11943.71210369,W,2,12,0.8,6.573,M,-37.456,M,5.4,0135*6E
$PYRTM,2024,122.751255831829,13.860903241968
$GNHDT,81.340,T*15
$PYRTM,2024,122.751261671204,13.860909081343
$GNGGA,180149.00,3356.65484367,N,11943.71064604,W,2,12,0.8,6.521,M,-37.456,M,6.0,0135*6E
$PYRTM,2024,122.751261671204,13.860909081343
$GNHDT,81.133,T*13
$PYRTM,2024,122.751267413935,13.860914824074
$GNGGA,180149.50,3356.65504048,N,11943.70919356,W,2,12,0.8,6.454,M,-37.456,M,6.4,0135*6B
$PYRTM,2024,122.751267413935,13.860914824074
$GNHDT,81.021,T*11
$PYRTM,2024,122.751273249444,13.860920659583
$GNGGA,180150.00,3356.65521762,N,11943.70774870,W,2,12,0.8,6.379,M,-37.456,M,7.0,0135*69
$PYRTM,2024,122.751273249444,13.860920659583
$GNHDT,81.118,T*1A
$PYRTM,2024,122.751278984398,13.860926394537
$GNGGA,180150.50,3356.65538380,N,11943.70630558,W,2,12,0.8,6.325,M,-37.456,M,7.4,0135*67
$PYRTM,2024,122.751278984398,13.860926394537
$GNHDT,81.071,T*14
$PYRTM,2024,122.751284818449,13.860932228588
$GNGGA,180151.00,3356.65554769,N,11943.70487202,W,2,12,0.8,6.320,M,-37.456,M,7.0,0135*6D
$PYRTM,2024,122.751284818449,13.860932228588
$GNHDT,81.025,T*15
$PYRTM,2024,122.751290558958,13.860937969097
$GNGGA,180151.50,3356.65572080,N,11943.70343300,W,2,12,0.8,6.343,M,-37.456,M,7.4,0135*61
$PYRTM,2024,122.751290558958,13.860937969097
$GNHDT,81.085,T*1F
$PYRTM,2024,122.751296396968,13.860943807106
$GNGGA,180152.00,3356.65590838,N,11943.70198180,W,2,12,0.8,6.394,M,-37.456,M,7.0,0135*60
$PYRTM,2024,122.751296396968,13.860943807106
$GNHDT,81.349,T*1C
$PYRTM,2024,122.751302128461,13.860949538600
$GNGGA,180152.50,3356.65610814,N,11943.70051957,W,2,12,0.8,6.452,M,-37.456,M,7.4,0135*6F
$PYRTM,2024,122.751302128461,13.860949538600
$GNHDT,81.473,T*12
$PYRTM,2024,122.751307973403,13.860955383553
$GNGGA,180153.00,3356.65631435,N,11943.69905338,W,2,12,0.8,6.531,M,-37.456,M,4.0,0135*67
$PYRTM,2024,122.751307973403,13.860955383553
$GNHDT,81.813,T*18
$PYRTM,2024,122.751313705174,13.860961115313
$GNGGA,180153.50,3356.65651870,N,11943.69757848,W,2,12,0.8,6.610,M,-37.456,M,4.4,0135*68
$PYRTM,2024,122.751313705174,13.860961115313
$GNHDT,81.963,T*1E
$PYRTM,2024,122.751319544387,13.860966954525
$GNGGA,180154.00,3356.65671778,N,11943.69609279,W,2,12,0.8,6.672,M,-37.456,M,5.0,0135*6C
$PYRTM,2024,122.751319544387,13.860966954525
$GNHDT,82.129,T*1B
$PYRTM,2024,122.751325277512,13.860972687650
$GNGGA,180154.50,3356.65691553,N,11943.69459664,W,2,12,0.8,6.711,M,-37.456,M,5.4,0135*63
$PYRTM,2024,122.751325277512,13.860972687650
$GNHDT,82.345,T*13
$PYRTM,2024,122.751331122361,13.860978532500
$GNGGA,180155.00,3356.65711035,N,11943.69309377,W,2,12,0.8,6.715,M,-37.456,M,6.0,0135*6D
$PYRTM,2024,122.751331122361,13.860978532500
$GNHDT,82.369,T*1D
$PYRTM,2024,122.751336852743,13.860984262882
$GNGGA,180155.50,3356.65730089,N,11943.69158345,W,2,12,0.8,6.707,M,-37.456,M,6.4,0135*6C
$PYRTM,2024,122.751336852743,13.860984262882
$GNHDT,82.439,T*1F
$PYRTM,2024,122.751342689537,13.860990099676
$GNGGA,180156.00,3356.65749566,N,11943.69008076,W,2,12,0.8,6.688,M,-37.456,M,7.0,0135*64
$PYRTM,2024,122.751342689537,13.860990099676
$GNHDT,82.490,T*1C
$PYRTM,2024,122.751348426713,13.860995836852
$GNGGA,180156.50,3356.65770283,N,11943.68859052,W,2,12,0.8,6.673,M,-37.456,M,7.4,0135*6C
$PYRTM,2024,122.751348426713,13.860995836852
$GNHDT,82.494,T*18
$PYRTM,2024,122.751354267269,13.861001677407
$GNGGA,180157.00,3356.65792526,N,11943.68710859,W,2,12,0.8,6.639,M,-37.456,M,7.0,0135*67
$PYRTM,2024,122.751354267269,13.861001677407
$GNHDT,82.394,T*1F
$PYRTM,2024,122.751360000937,13.861007411088
$GNGGA,180157.50,3356.65815694,N,11943.68563610,W,2,12,0.8,6.602,M,-37.456,M,7.4,0135*61
$PYRTM,2024,122.751360000937,13.861007411088
$GNHDT,82.224,T*15
$PYRTM,2024,122.751365840856,13.861013250995
$GNGGA,180158.00,3356.65839085,N,11943.68417767,W,2,12,0.8,6.554,M,-37.456,M,7.0,0135*64
$PYRTM,2024,122.751365840856,13.861013250995
$GNHDT,82.014,T*14
$PYRTM,2024,122.751371578472,13.861018988611
$GNGGA,180158.50,3356.65861192,N,11943.68273523,W,2,12,0.8,6.520,M,-37.456,M,7.4,0135*6A
$PYRTM,2024,122.751371578472,13.861018988611
$GNHDT,81.873,T*1E
$PYRTM,2024,122.751377411424,13.861024821563
$GNGGA,180159.00,3356.65880079,N,11943.68129841,W,2,12,0.8,6.451,M,-37.456,M,4.0,0135*60
$PYRTM,2024,122.751377411424,13.861024821563
$GNHDT,81.751,T*11
$PYRTM,2024,122.751383149259,13.861030559398
$GNGGA,180159.50,3356.65896035,N,11943.67986248,W,2,12,0.8,6.367,M,-37.456,M,4.4,0135*6D
$PYRTM,2024,122.751383149259,13.861030559398
$GNHDT,81.571,T*11
$PYRTM,2024,122.751388990324,13.861036400463
$GNGGA,180200.00,3356.65910100,N,11943.67842615,W,2,12,0.8,6.282,M,-37.456,M,5.0,0135*65
$PYRTM,2024,122.751388990324,13.861036400463
$GNHDT,81.486,T*18
$PYRTM,2024,122.751394725637,13.861042135787
$GNGGA,180200.50,3356.65923810,N,11943.67699033,W,2,12,0.8,6.211,M,-37.456,M,5.4,0135*6C
$PYRTM,2024,122.751394725637,13.861042135787
$GNHDT,81.217,T*16
$PYRTM,2024,122.751400558171,13.861047968310
$GNGGA,180201.00,3356.65938377,N,11943.67555944,W,2,12,0.8,6.176,M,-37.456,M,6.0,0135*67
$PYRTM,2024,122.751400558171,13.861047968310
$GNHDT,80.995,T*16
$PYRTM,2024,122.751406301470,13.861053711609
$GNGGA,180201.50,3356.65955091,N,11943.67414350,W,2,12,0.8,6.200,M,-37.456,M,6.4,0135*6F
$PYRTM,2024,122.751406301470,13.861053711609
$GNHDT,80.734,T*13
$PYRTM,2024,122.751412139618,13.861059549745
$GNGGA,180202.00,3356.65973791,N,11943.67273868,W,2,12,0.8,6.301,M,-37.456,M,7.0,0135*68
$PYRTM,2024,122.751412139618,13.861059549745
$GNHDT,80.817,T*1D
$PYRTM,2024,122.751417872014,13.861065282164
$GNGGA,180202.50,3356.65992931,N,11943.67131754,W,2,12,0.8,6.434,M,-37.456,M,7.4,0135*66
$PYRTM,2024,122.751417872014,13.861065282164
$GNHDT,80.878,T*14
$PYRTM,2024,122.751423706562,13.861071116701
$GNGGA,180203.00,3356.66012414,N,11943.66987934,W,2,12,0.8,6.561,M,-37.456,M,7.0,0135*63
$PYRTM,2024,122.751423706562,13.861071116701
$GNHDT,80.910,T*1B
$PYRTM,2024,122.751429445602,13.861076855741
$GNGGA,180203.50,3356.66032003,N,11943.66841494,W,2,12,0.8,6.641,M,-37.456,M,7.4,0135*6F
$PYRTM,2024,122.751429445602,13.861076855741
$GNHDT,81.275,T*12
$PYRTM,2024,122.751435282801,13.861082692940
$GNGGA,180204.00,3356.66051589,N,11943.66693002,W,2,12,0.8,6.679,M,-37.456,M,7.0,0135*6A
$PYRTM,2024,122.751435282801,13.861082692940
$GNHDT,81.317,T*17
$PYRTM,2024,122.751441021308,13.861088431447
$GNGGA,180204.50,3356.66070193,N,11943.66542314,W,2,12,0.8,6.658,M,-37.456,M,7.4,0135*6F
$PYRTM,2024,122.751441021308,13.861088431447
$GNHDT,81.489,T*17
$PYRTM,2024,122.751446855336,13.861094265475
$GNGGA,180205.00,3356.66088656,N,11943.66391296,W,2,12,0.8,6.627,M,-37.456,M,4.0,0135*6E
$PYRTM,2024,122.751446855336,13.861094265475
$GNHDT,81.730,T*16
$PYRTM,2024,122.751452593148,13.861100003299
$GNGGA,180205.50,3356.66106895,N,11943.66240471,W,2,12,0.8,6.624,M,-37.456,M,4.4,0135*68
$PYRTM,2024,122.751452593148,13.861100003299
$GNHDT,81.528,T*1D
$PYRTM,2024,122.751458430324,13.861105840463
$GNGGA,180206.00,3356.66126066,N,11943.66089158,W,2,12,0.8,6.671,M,-37.457,M,5.0,0135*65
$PYRTM,2024,122.751458430324,13.861105840463
$GNHDT,81.781,T*1C
$PYRTM,2024,122.751464164537,13.861111574676
$GNGGA,180206.50,3356.66146321,N,11943.65937941,W,2,12,0.8,6.753,M,-37.457,M,5.4,0135*6C
$PYRTM,2024,122.751464164537,13.861111574676
$GNHDT,82.043,T*16
$PYRTM,2024,122.751470006979,13.861117417118
$GNGGA,180207.00,3356.66167883,N,11943.65786467,W,2,12,0.8,6.858,M,-37.457,M,6.0,0135*66
$PYRTM,2024,122.751470006979,13.861117417118
$GNHDT,82.429,T*1E
$PYRTM,2024,122.751475739456,13.861123149595
$GNGGA,180207.50,3356.66190365,N,11943.65634896,W,2,12,0.8,6.950,M,-37.457,M,6.4,0135*6F
$PYRTM,2024,122.751475739456,13.861123149595
$GNHDT,82.618,T*1E
$PYRTM,2024,122.751481579225,13.861128989363
$GNGGA,180208.00,3356.66213408,N,11943.65482873,W,2,12,0.8,6.997,M,-37.457,M,7.0,0135*6B
$PYRTM,2024,122.751481579225,13.861128989363
$GNHDT,82.756,T*15
$PYRTM,2024,122.751487313495,13.861134723634
$GNGGA,180208.50,3356.66235706,N,11943.65331564,W,2,12,0.8,6.979,M,-37.457,M,7.4,0135*67
$PYRTM,2024,122.751487313495,13.861134723634
$GNHDT,82.760,T*10
$PYRTM,2024,122.751493155058,13.861140565197
$GNGGA,180209.00,3356.66258213,N,11943.65181835,W,2,12,0.8,6.904,M,-37.457,M,7.0,0135*67
$PYRTM,2024,122.751493155058,13.861140565197
$GNHDT,82.806,T*1F
$PYRTM,2024,122.751498890382,13.861146300521
$GNGGA,180209.50,3356.66280028,N,11943.65034775,W,2,12,0.8,6.841,M,-37.457,M,7.4,0135*6D
$PYRTM,2024,122.751498890382,13.861146300521
$GNHDT,82.774,T*15
$PYRTM,2024,122.751504724919,13.861152135058
$GNGGA,180210.00,3356.66300606,N,11943.64889795,W,2,12,0.8,6.766,M,-37.457,M,7.0,0135*6C
$PYRTM,2024,122.751504724919,13.861152135058
$GNHDT,82.621,T*14
$PYRTM,2024,122.751510464630,13.861157874769
$GNGGA,180210.50,3356.66320075,N,11943.64746661,W,2,12,0.8,6.695,M,-37.457,M,7.4,0135*66
$PYRTM,2024,122.751510464630,13.861157874769
$GNHDT,82.487,T*1A
$PYRTM,2024,122.751516302245,13.861163712384
$GNGGA,180211.00,3356.66339324,N,11943.64605774,W,2,12,0.8,6.654,M,-37.457,M,4.0,0135*64
$PYRTM,2024,122.751516302245,13.861163712384
$GNHDT,82.324,T*14
$PYRTM,2024,122.751522038264,13.861169448403
$GNGGA,180211.50,3356.66358233,N,11943.64466264,W,2,12,0.8,6.626,M,-37.457,M,4.4,0135*63
$PYRTM,2024,122.751522038264,13.861169448403
$GNHDT,82.248,T*1F
$PYRTM,2024,122.751527881227,13.861175291366
$GNGGA,180212.00,3356.66376764,N,11943.64326962,W,2,12,0.8,6.594,M,-37.457,M,5.0,0135*6F
$PYRTM,2024,122.751527881227,13.861175291366
$GNHDT,82.120,T*12
$PYRTM,2024,122.751533609109,13.861181019248
$GNGGA,180212.50,3356.66395035,N,11943.64187237,W,2,12,0.8,6.559,M,-37.457,M,5.4,0135*63
$PYRTM,2024,122.751533609109,13.861181019248
$GNHDT,81.779,T*1B
$PYRTM,2024,122.751539449051,13.861186859190
$GNGGA,180213.00,3356.66412648,N,11943.64047428,W,2,12,0.8,6.515,M,-37.457,M,6.0,0135*69
$PYRTM,2024,122.751539449051,13.861186859190
$GNHDT,81.772,T*10
$PYRTM,2024,122.751545185324,13.861192595463
$GNGGA,180213.50,3356.66429668,N,11943.63907530,W,2,12,0.8,6.497,M,-37.457,M,6.4,0135*6B
$PYRTM,2024,122.751545185324,13.861192595463
$GNHDT,81.574,T*14
$PYRTM,2024,122.751551030567,13.861198440706
$GNGGA,180214.00,3356.66446638,N,11943.63767337,W,2,12,0.8,6.491,M,-37.457,M,7.0,0135*6F
$PYRTM,2024,122.751551030567,13.861198440706
$GNHDT,81.586,T*19
$PYRTM,2024,122.751556761100,13.861204171238
$GNGGA,180214.50,3356.66464438,N,11943.63625952,W,2,12,0.8,6.505,M,-37.457,M,7.4,0135*6E
$PYRTM,2024,122.751556761100,13.861204171238
$GNHDT,81.648,T*18
$PYRTM,2024,122.751562598067,13.861210008206
$GNGGA,180215.00,3356.66482866,N,11943.63482678,W,2,12,0.8,6.521,M,-37.457,M,7.0,0135*6F
$PYRTM,2024,122.751562598067,13.861210008206
$GNHDT,81.745,T*14
$PYRTM,2024,122.751568335347,13.861215745498
$GNGGA,180215.50,3356.66501189,N,11943.63336968,W,2,12,0.8,6.542,M,-37.457,M,7.4,0135*6F
$PYRTM,2024,122.751568335347,13.861215745498
$GNHDT,81.775,T*17
$PYRTM,2024,122.751574171354,13.861221581493
$GNGGA,180216.00,3356.66519068,N,11943.63189057,W,2,12,0.8,6.571,M,-37.457,M,7.0,0135*69
$PYRTM,2024,122.751574171354,13.861221581493
$GNHDT,81.928,T*11
$PYRTM,2024,122.751579908333,13.861227318484
$GNGGA,180216.50,3356.66536385,N,11943.63039413,W,2,12,0.8,6.612,M,-37.457,M,7.4,0135*6D
$PYRTM,2024,122.751579908333,13.861227318484
$GNHDT,81.782,T*1F
$PYRTM,2024,122.751585746979,13.861233157118
$GNGGA,180217.00,3356.66553400,N,11943.62888296,W,2,12,0.8,6.662,M,-37.457,M,4.0,0135*68
$PYRTM,2024,122.751585746979,13.861233157118
$GNHDT,82.129,T*1B
$PYRTM,2024,122.751591485093,13.861238895231
$GNGGA,180217.50,3356.66570647,N,11943.62736119,W,2,12,0.8,6.703,M,-37.457,M,4.4,0135*61
$PYRTM,2024,122.751591485093,13.861238895231
$GNHDT,82.323,T*13
$PYRTM,2024,122.751597321296,13.861244731435
$GNGGA,180218.00,3356.66587812,N,11943.62582957,W,2,12,0.8,6.735,M,-37.457,M,5.0,0135*62
$PYRTM,2024,122.751597321296,13.861244731435
$GNHDT,82.521,T*17
$PYRTM,2024,122.751603057766,13.861250467905
$GNGGA,180218.50,3356.66605278,N,11943.62429388,W,2,12,0.8,6.750,M,-37.457,M,5.4,0135*67
$PYRTM,2024,122.751603057766,13.861250467905
$GNHDT,82.742,T*10
$PYRTM,2024,122.751608893854,13.861256303993
$GNGGA,180219.00,3356.66623346,N,11943.62276053,W,2,12,0.8,6.747,M,-37.457,M,6.0,0135*63
$PYRTM,2024,122.751608893854,13.861256303993
$GNHDT,82.870,T*1E
$PYRTM,2024,122.751614630903,13.861262041030
$GNGGA,180219.50,3356.66642418,N,11943.62124181,W,2,12,0.8,6.753,M,-37.457,M,6.4,0135*66
$PYRTM,2024,122.751614630903,13.861262041030
$GNHDT,82.687,T*18
$PYRTM,2024,122.751620466192,13.861267876331
$GNGGA,180220.00,3356.66661819,N,11943.61973592,W,2,12,0.8,6.751,M,-37.457,M,7.0,0135*6D
$PYRTM,2024,122.751620466192,13.861267876331
$GNHDT,82.654,T*16
$PYRTM,2024,122.751626203194,13.861273613333
$GNGGA,180220.50,3356.66681521,N,11943.61825759,W,2,12,0.8,6.773,M,-37.457,M,7.4,0135*63
$PYRTM,2024,122.751626203194,13.861273613333
$GNHDT,82.557,T*16
$PYRTM,2024,122.751632044838,13.861279454977
$GNGGA,180221.00,3356.66702037,N,11943.61680626,W,2,12,0.8,6.804,M,-37.457,M,7.0,0135*6C
$PYRTM,2024,122.751632044838,13.861279454977
$GNHDT,82.462,T*11
$PYRTM,2024,122.751637776933,13.861285187083
$GNGGA,180221.50,3356.66723179,N,11943.61537046,W,2,12,0.8,6.836,M,-37.457,M,7.4,0135*6B
$PYRTM,2024,122.751637776933,13.861285187083
$GNHDT,82.247,T*10
$PYRTM,2024,122.751643614144,13.861291024282
$GNGGA,180222.00,3356.66744296,N,11943.61394257,W,2,12,0.8,6.815,M,-37.457,M,7.0,0135*66
$PYRTM,2024,122.751643614144,13.861291024282
$GNHDT,82.153,T*16
$PYRTM,2024,122.751649361053,13.861296771192
$GNGGA,180222.50,3356.66764774,N,11943.61252807,W,2,12,0.8,6.783,M,-37.457,M,7.4,0135*68
$PYRTM,2024,122.751649361053,13.861296771192
$GNHDT,81.964,T*19
$PYRTM,2024,122.751655188900,13.861302599051
$GNGGA,180223.00,3356.66783526,N,11943.61112578,W,2,12,0.8,6.741,M,-37.457,M,4.0,0135*6B
$PYRTM,2024,122.751655188900,13.861302599051
$GNHDT,81.796,T*1A
$PYRTM,2024,122.751660931794,13.861308341933
$GNGGA,180223.50,3356.66800244,N,11943.60972653,W,2,12,0.8,6.699,M,-37.457,M,4.4,0135*6C
$PYRTM,2024,122.751660931794,13.861308341933
$GNHDT,81.536,T*12
$PYRTM,2024,122.751666762998,13.861314173137
$GNGGA,180224.00,3356.66815490,N,11943.60833831,W,2,12,0.8,6.678,M,-37.457,M,5.0,0135*61
$PYRTM,2024,122.751666762998,13.861314173137
$GNHDT,81.420,T*14
$PYRTM,2024,122.751672498958,13.861319909097
$GNGGA,180224.50,3356.66831100,N,11943.60695419,W,2,12,0.8,6.693,M,-37.457,M,5.4,0135*6B
$PYRTM,2024,122.751672498958,13.861319909097
$GNHDT,81.577,T*17
$PYRTM,2024,122.751678336829,13.861325746968
$GNGGA,180225.00,3356.66847815,N,11943.60556581,W,2,12,0.8,6.738,M,-37.457,M,6.0,0135*68
$PYRTM,2024,122.751678336829,13.861325746968
$GNHDT,81.756,T*16
$PYRTM,2024,122.751684074236,13.861331484387
$GNGGA,180225.50,3356.66865932,N,11943.60415292,W,2,12,0.8,6.776,M,-37.457,M,6.4,0135*64
$PYRTM,2024,122.751684074236,13.861331484387
$GNHDT,81.827,T*1F
$PYRTM,2024,122.751689914861,13.861337325000
$GNGGA,180226.00,3356.66885578,N,11943.60271479,W,2,12,0.8,6.813,M,-37.457,M,7.0,0135*60
$PYRTM,2024,122.751689914861,13.861337325000
$GNHDT,82.073,T*15
$PYRTM,2024,122.751695649317,13.861343059456
$GNGGA,180226.50,3356.66906246,N,11943.60125391,W,2,12,0.8,6.826,M,-37.457,M,7.4,0135*64
$PYRTM,2024,122.751695649317,13.861343059456
$GNHDT,82.477,T*15
$PYRTM,2024,122.751701486852,13.861348896991
$GNGGA,180227.00,3356.66927306,N,11943.59977231,W,2,12,0.8,6.826,M,-37.457,M,7.0,0135*6C
$PYRTM,2024,122.751701486852,13.861348896991
$GNHDT,82.599,T*14
$PYRTM,2024,122.751707223356,13.861354633495
$GNGGA,180227.50,3356.66947648,N,11943.59828284,W,2,12,0.8,6.833,M,-37.457,M,7.4,0135*65
$PYRTM,2024,122.751707223356,13.861354633495
$GNHDT,82.970,T*1F
$PYRTM,2024,122.751713060069,13.861360470208
$GNGGA,180228.00,3356.66967188,N,11943.59678394,W,2,12,0.8,6.859,M,-37.457,M,7.0,0135*65
$PYRTM,2024,122.751713060069,13.861360470208
$GNHDT,83.315,T*17
$PYRTM,2024,122.751718798912,13.861366209051
$GNGGA,180228.50,3356.66985968,N,11943.59528527,W,2,12,0.8,6.912,M,-37.457,M,7.4,0135*68
$PYRTM,2024,122.751718798912,13.861366209051
$GNHDT,83.147,T*12
$PYRTM,2024,122.751724636644,13.861372046794
$GNGGA,180229.00,3356.67004172,N,11943.59377836,W,2,12,0.8,6.954,M,-37.457,M,4.0,0135*6A
$PYRTM,2024,122.751724636644,13.861372046794
$GNHDT,83.161,T*16
$PYRTM,2024,122.751730369826,13.861377779965
$GNGGA,180229.50,3356.67022897,N,11943.59227678,W,2,12,0.8,6.983,M,-37.457,M,4.4,0135*67
$PYRTM,2024,122.751730369826,13.861377779965
$GNHDT,83.137,T*15
