$PYRTM,2024,126.833333431088,17.942980841227
$GNGGA,200000.00,3356.55538622,N,11932.24993000,W,2,11,1.1,8.400,M,-37.558,M,4.0,0131*63
$PYRTM,2024,126.833333431088,17.942980841227
$GNHDT,248.239,T*2D
$PYRTM,2024,126.833339162512,17.942986572650
$GNGGA,200000.50,3356.55528855,N,11932.25006550,W,2,11,1.1,8.469,M,-37.558,M,4.4,0131*66
$PYRTM,2024,126.833339162512,17.942986572650
$GNHDT,248.512,T*23
$PYRTM,2024,126.833345006458,17.942992416597
$GNGGA,200001.00,3356.55517860,N,11932.25019647,W,2,11,1.1,8.501,M,-37.558,M,5.0,0131*69
$PYRTM,2024,126.833345006458,17.942992416597
$GNHDT,248.372,T*23
$PYRTM,2024,126.833350741574,17.942998151713
$GNGGA,200001.50,3356.55506564,N,11932.25033651,W,2,11,1.1,8.481,M,-37.558,M,5.4,0131*67
$PYRTM,2024,126.833350741574,17.942998151713
$GNHDT,248.157,T*26
$PYRTM,2024,126.833356581794,17.943003991933
$GNGGA,200002.00,3356.55496338,N,11932.25047669,W,2,11,1.1,8.429,M,-37.558,M,6.0,0131*6B
$PYRTM,2024,126.833356581794,17.943003991933
$GNHDT,248.330,T*25
$PYRTM,2024,126.833362315498,17.943009725637
$GNGGA,200002.50,3356.55487972,N,11932.25061984,W,2,11,1.1,8.355,M,-37.558,M,6.4,0131*6A
$PYRTM,2024,126.833362315498,17.943009725637
$GNHDT,248.335,T*20
$PYRTM,2024,126.833368155463,17.943015565602
$GNGGA,200003.00,3356.55481307,N,11932.25077425,W,2,11,1.1,8.279,M,-37.558,M,7.0,0131*6B
$PYRTM,2024,126.833368155463,17.943015565602
$GNHDT,248.394,T*2B
$PYRTM,2024,126.833373887361,17.943021297500
$GNGGA,200003.50,3356.55475804,N,11932.25094182,W,2,11,1.1,8.192,M,-37.558,M,7.4,0131*6A
$PYRTM,2024,126.833373887361,17.943021297500
$GNHDT,248.491,T*29
$PYRTM,2024,126.833379729201,17.943027139340
$GNGGA,200004.00,3356.55470263,N,11932.25111548,W,2,11,1.1,8.132,M,-37.558,M,7.0,0131*66
$PYRTM,2024,126.833379729201,17.943027139340
$GNHDT,248.429,T*2A
$PYRTM,2024,126.833385463634,17.943032873773
$GNGGA,200004.50,3356.55464432,N,11932.25131325,W,2,11,1.1,8.101,M,-37.558,M,7.4,0131*6F
$PYRTM,2024,126.833385463634,17.943032873773
$GNHDT,248.309,T*2F
$PYRTM,2024,126.833391303090,17.943038713229
$GNGGA,200005.00,3356.55455955,N,11932.25149593,W,2,11,1.1,8.122,M,-37.558,M,7.0,0131*64
$PYRTM,2024,126.833391303090,17.943038713229
$GNHDT,248.227,T*22
$PYRTM,2024,126.833397032002,17.943044442141
$GNGGA,200005.50,3356.55445679,N,11932.25165996,W,2,11,1.1,8.195,M,-37.558,M,7.4,0131*6E
$PYRTM,2024,126.833397032002,17.943044442141
$GNHDT,248.147,T*27
$PYRTM,2024,126.833402877639,17.943050287778
$GNGGA,200006.00,3356.55433775,N,11932.25181196,W,2,11,1.1,8.315,M,-37.558,M,4.0,0131*6B
$PYRTM,2024,126.833402877639,17.943050287778
$GNHDT,248.020,T*27
$PYRTM,2024,126.833408609699,17.943056019838
$GNGGA,200006.50,3356.55420773,N,11932.25194816,W,2,11,1.1,8.430,M,-37.558,M,4.4,0131*6B
$PYRTM,2024,126.833408609699,17.943056019838
$GNHDT,248.044,T*25
$PYRTM,2024,126.833414450093,17.943061860231
$GNGGA,200007.00,3356.55408501,N,11932.25208202,W,2,11,1.1,8.521,M,-37.558,M,5.0,0131*6F
$PYRTM,2024,126.833414450093,17.943061860231
$GNHDT,248.262,T*23
$PYRTM,2024,126.833420184329,17.943067594468
$GNGGA,200007.50,3356.55397885,N,11932.25221922,W,2,11,1.1,8.552,M,-37.558,M,5.4,0131*68
$PYRTM,2024,126.833420184329,17.943067594468
$GNHDT,248.346,T*24
$PYRTM,2024,126.833426028380,17.943073438519
$GNGGA,200008.00,3356.55390000,N,11932.25236599,W,2,11,1.1,8.531,M,-37.558,M,6.0,0131*68
$PYRTM,2024,126.833426028380,17.943073438519
$GNHDT,248.411,T*21
$PYRTM,2024,126.833431756169,17.943079166308
$GNGGA,200008.50,3356.55383733,N,11932.25252050,W,2,11,1.1,8.455,M,-37.558,M,6.4,0131*6D
$PYRTM,2024,126.833431756169,17.943079166308
$GNHDT,248.191,T*2C
$PYRTM,2024,126.833437600822,17.943085010961
$GNGGA,200009.00,3356.55378115,N,11932.25268230,W,2,11,1.1,8.319,M,-37.558,M,7.0,0131*68
$PYRTM,2024,126.833437600822,17.943085010961
$GNHDT,248.289,T*26
$PYRTM,2024,126.833443333275,17.943090743414
$GNGGA,200009.50,3356.55372211,N,11932.25285008,W,2,11,1.1,8.168,M,-37.558,M,7.4,0131*6A
$PYRTM,2024,126.833443333275,17.943090743414
$GNHDT,248.429,T*2A
$PYRTM,2024,126.833449175035,17.943096585174
$GNGGA,200010.00,3356.55365132,N,11932.25301334,W,2,11,1.1,8.046,M,-37.558,M,7.0,0131*6B
$PYRTM,2024,126.833449175035,17.943096585174
$GNHDT,248.519,T*28
$PYRTM,2024,126.833454902488,17.943102312627
$GNGGA,200010.50,3356.55356884,N,11932.25316968,W,2,11,1.1,7.986,M,-37.558,M,7.4,0131*61
$PYRTM,2024,126.833454902488,17.943102312627
$GNHDT,248.595,T*2C
$PYRTM,2024,126.833460746493,17.943108156632
$GNGGA,200011.00,3356.55346985,N,11932.25331220,W,2,11,1.1,8.024,M,-37.558,M,7.0,0131*6C
$PYRTM,2024,126.833460746493,17.943108156632
$GNHDT,248.452,T*26
$PYRTM,2024,126.833466483623,17.943113893762
$GNGGA,200011.50,3356.55336019,N,11932.25344110,W,2,11,1.1,8.151,M,-37.558,M,7.4,0131*67
$PYRTM,2024,126.833466483623,17.943113893762
$GNHDT,248.411,T*21
$PYRTM,2024,126.833472319433,17.943119729572
$GNGGA,200012.00,3356.55323787,N,11932.25356217,W,2,11,1.1,8.318,M,-37.558,M,4.0,0131*6A
$PYRTM,2024,126.833472319433,17.943119729572
$GNHDT,248.177,T*24
$PYRTM,2024,126.833478053380,17.943125463519
$GNGGA,200012.50,3356.55311180,N,11932.25368605,W,2,11,1.1,8.455,M,-37.558,M,4.4,0131*6F
$PYRTM,2024,126.833478053380,17.943125463519
$GNHDT,247.980,T*2B
$PYRTM,2024,126.833483897419,17.943131307558
$GNGGA,200013.00,3356.55298381,N,11932.25381711,W,2,11,1.1,8.534,M,-37.558,M,5.0,0131*68
$PYRTM,2024,126.833483897419,17.943131307558
$GNHDT,247.836,T*27
$PYRTM,2024,126.833489629433,17.943137039583
$GNGGA,200013.50,3356.55286716,N,11932.25395956,W,2,11,1.1,8.553,M,-37.558,M,5.4,0131*65
$PYRTM,2024,126.833489629433,17.943137039583
$GNHDT,248.307,T*21
$PYRTM,2024,126.833495471447,17.943142881586
$GNGGA,200014.00,3356.55276617,N,11932.25410917,W,2,11,1.1,8.486,M,-37.558,M,6.0,0131*69
$PYRTM,2024,126.833495471447,17.943142881586
$GNHDT,248.206,T*21
$PYRTM,2024,126.833501204606,17.943148614745
$GNGGA,200014.50,3356.55268954,N,11932.25427705,W,2,11,1.1,8.359,M,-37.558,M,6.4,0131*63
$PYRTM,2024,126.833501204606,17.943148614745
$GNHDT,248.114,T*21
$PYRTM,2024,126.833507046424,17.943154456562
$GNGGA,200015.00,3356.55262744,N,11932.25445507,W,2,11,1.1,8.191,M,-37.558,M,7.0,0131*65
$PYRTM,2024,126.833507046424,17.943154456562
$GNHDT,248.102,T*26
$PYRTM,2024,126.833512773738,17.943160183889
$GNGGA,200015.50,3356.55257377,N,11932.25463772,W,2,11,1.1,8.029,M,-37.558,M,7.4,0131*60
$PYRTM,2024,126.833512773738,17.943160183889
$GNHDT,248.220,T*25
$PYRTM,2024,126.833518620903,17.943166031042
$GNGGA,200016.00,3356.55252066,N,11932.25480725,W,2,11,1.1,7.918,M,-37.558,M,7.0,0131*6F
$PYRTM,2024,126.833518620903,17.943166031042
$GNHDT,248.459,T*2D
$PYRTM,2024,126.833524351655,17.943171761806
$GNGGA,200016.50,3356.55245797,N,11932.25495455,W,2,11,1.1,7.913,M,-37.558,M,7.4,0131*6A
$PYRTM,2024,126.833524351655,17.943171761806
$GNHDT,248.365,T*25
$PYRTM,2024,126.833530192280,17.943177602419
$GNGGA,200017.00,3356.55236996,N,11932.25507542,W,2,11,1.1,8.024,M,-37.558,M,7.0,0131*6E
$PYRTM,2024,126.833530192280,17.943177602419
$GNHDT,248.350,T*23
$PYRTM,2024,126.833535928241,17.943183338380
$GNGGA,200017.50,3356.55225525,N,11932.25518518,W,2,11,1.1,8.201,M,-37.558,M,7.4,0131*6D
$PYRTM,2024,126.833535928241,17.943183338380
$GNHDT,248.371,T*20
$PYRTM,2024,126.833541769769,17.943189179907
$GNGGA,200018.00,3356.55211990,N,11932.25529724,W,2,11,1.1,8.378,M,-37.558,M,4.0,0131*65
$PYRTM,2024,126.833541769769,17.943189179907
$GNHDT,248.267,T*26
$PYRTM,2024,126.833547499630,17.943194909769
$GNGGA,200018.50,3356.55197843,N,11932.25543877,W,2,11,1.1,8.481,M,-37.558,M,4.4,0131*62
$PYRTM,2024,126.833547499630,17.943194909769
$GNHDT,248.271,T*21
$PYRTM,2024,126.833553349537,17.943200759687
$GNGGA,200019.00,3356.55184095,N,11932.25561204,W,2,11,1.1,8.504,M,-37.558,M,5.0,0131*60
$PYRTM,2024,126.833553349537,17.943200759687
$GNHDT,248.042,T*23
$PYRTM,2024,126.833559078009,17.943206488148
$GNGGA,200019.50,3356.55172741,N,11932.25580188,W,2,11,1.1,8.462,M,-37.558,M,5.4,0131*6F
$PYRTM,2024,126.833559078009,17.943206488148
$GNHDT,248.111,T*24
$PYRTM,2024,126.833564917419,17.943212327558
$GNGGA,200020.00,3356.55164494,N,11932.25598614,W,2,11,1.1,8.426,M,-37.558,M,6.0,0131*60
$PYRTM,2024,126.833564917419,17.943212327558
$GNHDT,248.010,T*24
$PYRTM,2024,126.833570649583,17.943218059722
$GNGGA,200020.50,3356.55158875,N,11932.25614737,W,2,11,1.1,8.437,M,-37.558,M,6.4,0131*6A
$PYRTM,2024,126.833570649583,17.943218059722
$GNHDT,247.914,T*26
$PYRTM,2024,126.833576487338,17.943223897477
$GNGGA,200021.00,3356.55154909,N,11932.25628150,W,2,11,1.1,8.515,M,-37.558,M,7.0,0131*64
$PYRTM,2024,126.833576487338,17.943223897477
$GNHDT,247.963,T*26
$PYRTM,2024,126.833582220775,17.943229630914
$GNGGA,200021.50,3356.55150575,N,11932.25639880,W,2,11,1.1,8.615,M,-37.558,M,7.4,0131*61
$PYRTM,2024,126.833582220775,17.943229630914
$GNHDT,248.079,T*2B
$PYRTM,2024,126.833588063565,17.943235473715
$GNGGA,200022.00,3356.55145526,N,11932.25650545,W,2,11,1.1,8.710,M,-37.558,M,7.0,0131*6E
$PYRTM,2024,126.833588063565,17.943235473715
$GNHDT,248.276,T*26
$PYRTM,2024,126.833593797951,17.943241208090
$GNGGA,200022.50,3356.55139529,N,11932.25662190,W,2,11,1.1,8.757,M,-37.558,M,7.4,0131*65
$PYRTM,2024,126.833593797951,17.943241208090
$GNHDT,248.378,T*29
$PYRTM,2024,126.833599635324,17.943247045463
$GNGGA,200023.00,3356.55132147,N,11932.25675617,W,2,11,1.1,8.747,M,-37.558,M,7.0,0131*6D
$PYRTM,2024,126.833599635324,17.943247045463
$GNHDT,248.555,T*20
$PYRTM,2024,126.833605368831,17.943252778970
$GNGGA,200023.50,3356.55123661,N,11932.25690800,W,2,11,1.1,8.673,M,-37.558,M,7.4,0131*6A
$PYRTM,2024,126.833605368831,17.943252778970
$GNHDT,248.274,T*24
$PYRTM,2024,126.833611213472,17.943258623611
$GNGGA,200024.00,3356.55113475,N,11932.25707585,W,2,11,1.1,8.560,M,-37.558,M,4.0,0131*65
$PYRTM,2024,126.833611213472,17.943258623611
$GNHDT,248.426,T*25
$PYRTM,2024,126.833616940197,17.943264350336
$GNGGA,200024.50,3356.55102637,N,11932.25724857,W,2,11,1.1,8.431,M,-37.558,M,4.4,0131*66
$PYRTM,2024,126.833616940197,17.943264350336
$GNHDT,248.341,T*23
$PYRTM,2024,126.833622786713,17.943270196852
$GNGGA,200025.00,3356.55091538,N,11932.25741728,W,2,11,1.1,8.354,M,-37.558,M,5.0,0131*60
$PYRTM,2024,126.833622786713,17.943270196852
$GNHDT,248.141,T*21
$PYRTM,2024,126.833628516505,17.943275926655
$GNGGA,200025.50,3356.55081871,N,11932.25757028,W,2,11,1.1,8.346,M,-37.558,M,5.4,0131*63
$PYRTM,2024,126.833628516505,17.943275926655
$GNHDT,248.178,T*2B
$PYRTM,2024,126.833634358090,17.943281768229
$GNGGA,200026.00,3356.55074260,N,11932.25771376,W,2,11,1.1,8.393,M,-37.558,M,6.0,0131*66
$PYRTM,2024,126.833634358090,17.943281768229
$GNHDT,248.110,T*25
$PYRTM,2024,126.833640093102,17.943287503252
$GNGGA,200026.50,3356.55068135,N,11932.25785850,W,2,11,1.1,8.471,M,-37.558,M,6.4,0131*66
$PYRTM,2024,126.833640093102,17.943287503252
$GNHDT,247.741,T*28
$PYRTM,2024,126.833645932847,17.943293342986
$GNGGA,200027.00,3356.55061737,N,11932.25800437,W,2,11,1.1,8.547,M,-37.558,M,7.0,0131*61
$PYRTM,2024,126.833645932847,17.943293342986
$GNHDT,247.869,T*2D
$PYRTM,2024,126.833651662465,17.943299072604
$GNGGA,200027.50,3356.55054647,N,11932.25815890,W,2,11,1.1,8.568,M,-37.558,M,7.4,0131*68
$PYRTM,2024,126.833651662465,17.943299072604
$GNHDT,248.113,T*26
$PYRTM,2024,126.833657513137,17.943304923275
$GNGGA,200028.00,3356.55047257,N,11932.25833739,W,2,11,1.1,8.524,M,-37.558,M,7.0,0131*61
$PYRTM,2024,126.833657513137,17.943304923275
$GNHDT,248.351,T*22
$PYRTM,2024,126.833663239965,17.943310650104
$GNGGA,200028.50,3356.55039505,N,11932.25853411,W,2,11,1.1,8.420,M,-37.558,M,7.4,0131*63
$PYRTM,2024,126.833663239965,17.943310650104
$GNHDT,248.260,T*21
$PYRTM,2024,126.833669084167,17.943316494306
$GNGGA,200029.00,3356.55030962,N,11932.25872423,W,2,11,1.1,8.311,M,-37.558,M,7.0,0131*60
$PYRTM,2024,126.833669084167,17.943316494306
$GNHDT,248.390,T*2F
$PYRTM,2024,126.833674812500,17.943322222639
$GNGGA,200029.50,3356.55021142,N,11932.25890128,W,2,11,1.1,8.230,M,-37.558,M,7.4,0131*6B
$PYRTM,2024,126.833674812500,17.943322222639
$GNHDT,248.270,T*20
$PYRTM,2024,126.833680653009,17.943328063148
$GNGGA,200030.00,3356.55009797,N,11932.25904874,W,2,11,1.1,8.213,M,-37.558,M,4.0,0131*68
$PYRTM,2024,126.833680653009,17.943328063148
$GNHDT,248.186,T*2A
$PYRTM,2024,126.833686384201,17.943333794340
$GNGGA,200030.50,3356.54997895,N,11932.25917394,W,2,11,1.1,8.274,M,-37.558,M,4.4,0131*6D
$PYRTM,2024,126.833686384201,17.943333794340
$GNHDT,248.294,T*2A
$PYRTM,2024,126.833692227338,17.943339637477
$GNGGA,200031.00,3356.54986076,N,11932.25929941,W,2,11,1.1,8.364,M,-37.558,M,5.0,0131*66
$PYRTM,2024,126.833692227338,17.943339637477
$GNHDT,248.316,T*21
$PYRTM,2024,126.833697964583,17.943345374722
$GNGGA,200031.50,3356.54973082,N,11932.25939578,W,2,11,1.1,8.465,M,-37.558,M,5.4,0131*67
$PYRTM,2024,126.833697964583,17.943345374722
$GNHDT,248.140,T*20
$PYRTM,2024,126.833703803773,17.943351213912
$GNGGA,200032.00,3356.54960816,N,11932.25950974,W,2,11,1.1,8.525,M,-37.558,M,6.0,0131*6B
$PYRTM,2024,126.833703803773,17.943351213912
$GNHDT,248.118,T*2D
$PYRTM,2024,126.833709538021,17.943356948160
$GNGGA,200032.50,3356.54950897,N,11932.25966002,W,2,11,1.1,8.523,M,-37.558,M,6.4,0131*6B
$PYRTM,2024,126.833709538021,17.943356948160
$GNHDT,248.041,T*20
$PYRTM,2024,126.833715375926,17.943362786065
$GNGGA,200033.00,3356.54942677,N,11932.25983251,W,2,11,1.1,8.463,M,-37.558,M,7.0,0131*63
$PYRTM,2024,126.833715375926,17.943362786065
$GNHDT,247.882,T*28
$PYRTM,2024,126.833721109641,17.943368519792
$GNGGA,200033.50,3356.54936016,N,11932.26001851,W,2,11,1.1,8.383,M,-37.558,M,7.4,0131*63
$PYRTM,2024,126.833721109641,17.943368519792
$GNHDT,248.264,T*25
$PYRTM,2024,126.833726949063,17.943374359201
$GNGGA,200034.00,3356.54929364,N,11932.26019230,W,2,11,1.1,8.298,M,-37.558,M,7.0,0131*62
$PYRTM,2024,126.833726949063,17.943374359201
$GNHDT,248.220,T*25
$PYRTM,2024,126.833732681655,17.943380091794
$GNGGA,200034.50,3356.54922251,N,11932.26034933,W,2,11,1.1,8.253,M,-37.558,M,7.4,0131*6F
$PYRTM,2024,126.833732681655,17.943380091794
$GNHDT,248.168,T*2A
$PYRTM,2024,126.833738525706,17.943385935845
$GNGGA,200035.00,3356.54913986,N,11932.26047976,W,2,11,1.1,8.281,M,-37.558,M,7.0,0131*66
$PYRTM,2024,126.833738525706,17.943385935845
$GNHDT,248.172,T*21
$PYRTM,2024,126.833744258148,17.943391668287
$GNGGA,200035.50,3356.54904791,N,11932.26059212,W,2,11,1.1,8.379,M,-37.558,M,7.4,0131*69
$PYRTM,2024,126.833744258148,17.943391668287
$GNHDT,248.273,T*23
$PYRTM,2024,126.833750097940,17.943397508079
$GNGGA,200036.00,3356.54894406,N,11932.26069004,W,2,11,1.1,8.530,M,-37.558,M,4.0,0131*60
$PYRTM,2024,126.833750097940,17.943397508079
$GNHDT,248.214,T*22
$PYRTM,2024,126.833755831736,17.943403241875
$GNGGA,200036.50,3356.54883448,N,11932.26078847,W,2,11,1.1,8.673,M,-37.558,M,4.4,0131*66
$PYRTM,2024,126.833755831736,17.943403241875
$GNHDT,248.230,T*24
$PYRTM,2024,126.833761672407,17.943409082558
$GNGGA,200037.00,3356.54872744,N,11932.26090393,W,2,11,1.1,8.783,M,-37.558,M,5.0,0131*6C
$PYRTM,2024,126.833761672407,17.943409082558
$GNHDT,248.210,T*26
$PYRTM,2024,126.833767405012,17.943414815139
$GNGGA,200037.50,3356.54863264,N,11932.26104544,W,2,11,1.1,8.828,M,-37.558,M,5.4,0131*64
$PYRTM,2024,126.833767405012,17.943414815139
$GNHDT,248.135,T*22
$PYRTM,2024,126.833773248900,17.943420659039
$GNGGA,200038.00,3356.54855936,N,11932.26121524,W,2,11,1.1,8.814,M,-37.558,M,6.0,0131*6E
$PYRTM,2024,126.833773248900,17.943420659039
$GNHDT,248.152,T*23
$PYRTM,2024,126.833778984398,17.943426394537
$GNGGA,200038.50,3356.54849989,N,11932.26139692,W,2,11,1.1,8.744,M,-37.558,M,6.4,0131*6B
$PYRTM,2024,126.833778984398,17.943426394537
$GNHDT,247.996,T*2C
$PYRTM,2024,126.833784819687,17.943432229826
$GNGGA,200039.00,3356.54844869,N,11932.26158094,W,2,11,1.1,8.631,M,-37.558,M,7.0,0131*6C
$PYRTM,2024,126.833784819687,17.943432229826
$GNHDT,248.070,T*22
$PYRTM,2024,126.833790550532,17.943437960671
$GNGGA,200039.50,3356.54839066,N,11932.26175853,W,2,11,1.1,8.512,M,-37.558,M,7.4,0131*6E
$PYRTM,2024,126.833790550532,17.943437960671
$GNHDT,248.041,T*20
$PYRTM,2024,126.833796398252,17.943443808403
$GNGGA,200040.00,3356.54831859,N,11932.26192692,W,2,11,1.1,8.418,M,-37.558,M,7.0,0131*6C
$PYRTM,2024,126.833796398252,17.943443808403
$GNHDT,248.224,T*21
$PYRTM,2024,126.833802125023,17.943449535174
$GNGGA,200040.50,3356.54822523,N,11932.26208017,W,2,11,1.1,8.371,M,-37.558,M,7.4,0131*6C
$PYRTM,2024,126.833802125023,17.943449535174
$GNHDT,248.182,T*2E
$PYRTM,2024,126.833807972257,17.943455382396
$GNGGA,200041.00,3356.54811430,N,11932.26222006,W,2,11,1.1,8.397,M,-37.558,M,7.0,0131*6F
$PYRTM,2024,126.833807972257,17.943455382396
$GNHDT,248.157,T*26
$PYRTM,2024,126.833813702106,17.943461112245
$GNGGA,200041.50,3356.54800333,N,11932.26234689,W,2,11,1.1,8.491,M,-37.558,M,7.4,0131*6D
$PYRTM,2024,126.833813702106,17.943461112245
$GNHDT,248.183,T*2F
$PYRTM,2024,126.833819546944,17.943466957083
$GNGGA,200042.00,3356.54789965,N,11932.26246916,W,2,11,1.1,8.641,M,-37.558,M,4.0,0131*68
$PYRTM,2024,126.833819546944,17.943466957083
$GNHDT,248.200,T*27
$PYRTM,2024,126.833825274363,17.943472684502
$GNGGA,200042.50,3356.54781372,N,11932.26260525,W,2,11,1.1,8.785,M,-37.558,M,4.4,0131*6C
$PYRTM,2024,126.833825274363,17.943472684502
$GNHDT,248.331,T*24
$PYRTM,2024,126.833831118877,17.943478529028
$GNGGA,200043.00,3356.54774425,N,11932.26275494,W,2,11,1.1,8.878,M,-37.558,M,5.0,0131*60
$PYRTM,2024,126.833831118877,17.943478529028
$GNHDT,248.320,T*24
$PYRTM,2024,126.833836856331,17.943484266470
$GNGGA,200043.50,3356.54768504,N,11932.26292038,W,2,11,1.1,8.906,M,-37.558,M,5.4,0131*6D
$PYRTM,2024,126.833836856331,17.943484266470
$GNHDT,248.143,T*23
$PYRTM,2024,126.833842698947,17.943490109086
$GNGGA,200044.00,3356.54763060,N,11932.26309152,W,2,11,1.1,8.833,M,-37.558,M,6.0,0131*6D
$PYRTM,2024,126.833842698947,17.943490109086
$GNHDT,248.177,T*24
$PYRTM,2024,126.833848425938,17.943495836076
$GNGGA,200044.50,3356.54756802,N,11932.26326416,W,2,11,1.1,8.714,M,-37.558,M,6.4,0131*64
$PYRTM,2024,126.833848425938,17.943495836076
$GNHDT,248.186,T*2A
$PYRTM,2024,126.833854266285,17.943501676424
$GNGGA,200045.00,3356.54748357,N,11932.26342610,W,2,11,1.1,8.595,M,-37.558,M,7.0,0131*6C
$PYRTM,2024,126.833854266285,17.943501676424
$GNHDT,248.057,T*27
$PYRTM,2024,126.833859995220,17.943507405359
$GNGGA,200045.50,3356.54738108,N,11932.26356684,W,2,11,1.1,8.534,M,-37.558,M,7.4,0131*61
$PYRTM,2024,126.833859995220,17.943507405359
$GNHDT,248.073,T*21
$PYRTM,2024,126.833865839201,17.943513249340
$GNGGA,200046.00,3356.54726735,N,11932.26368247,W,2,11,1.1,8.543,M,-37.558,M,7.0,0131*62
$PYRTM,2024,126.833865839201,17.943513249340
$GNHDT,248.074,T*26
$PYRTM,2024,126.833871574780,17.943518984919
$GNGGA,200046.50,3356.54715861,N,11932.26378226,W,2,11,1.1,8.612,M,-37.558,M,7.4,0131*6C
$PYRTM,2024,126.833871574780,17.943518984919
$GNHDT,248.180,T*2C
$PYRTM,2024,126.833877417859,17.943524827986
$GNGGA,200047.00,3356.54705901,N,11932.26387860,W,2,11,1.1,8.692,M,-37.558,M,7.0,0131*6A
$PYRTM,2024,126.833877417859,17.943524827986
$GNHDT,248.277,T*27
$PYRTM,2024,126.833883150162,17.943530560312
$GNGGA,200047.50,3356.54697009,N,11932.26399832,W,2,11,1.1,8.737,M,-37.558,M,7.4,0131*66
$PYRTM,2024,126.833883150162,17.943530560312
$GNHDT,248.307,T*21
$PYRTM,2024,126.833888989942,17.943536400081
$GNGGA,200048.00,3356.54689250,N,11932.26415516,W,2,11,1.1,8.709,M,-37.558,M,4.0,0131*6F
$PYRTM,2024,126.833888989942,17.943536400081
$GNHDT,248.341,T*23
$PYRTM,2024,126.833894717743,17.943542127882
$GNGGA,200048.50,3356.54682090,N,11932.26434849,W,2,11,1.1,8.604,M,-37.558,M,4.4,0131*63
$PYRTM,2024,126.833894717743,17.943542127882
$GNHDT,248.298,T*26
$PYRTM,2024,126.833900560799,17.943547970961
$GNGGA,200049.00,3356.54674161,N,11932.26455123,W,2,11,1.1,8.461,M,-37.558,M,5.0,0131*67
$PYRTM,2024,126.833900560799,17.943547970961
$GNHDT,248.280,T*2F
$PYRTM,2024,126.833906291991,17.943553702130
$GNGGA,200049.50,3356.54665467,N,11932.26473628,W,2,11,1.1,8.342,M,-37.558,M,5.4,0131*6B
$PYRTM,2024,126.833906291991,17.943553702130
$GNHDT,248.189,T*25
$PYRTM,2024,126.833912140058,17.943559550197
$GNGGA,200050.00,3356.54655125,N,11932.26488957,W,2,11,1.1,8.318,M,-37.558,M,6.0,0131*6D
$PYRTM,2024,126.833912140058,17.943559550197
$GNHDT,248.311,T*26
$PYRTM,2024,126.833917865243,17.943565275382
$GNGGA,200050.50,3356.54643212,N,11932.26501529,W,2,11,1.1,8.378,M,-37.558,M,6.4,0131*6F
$PYRTM,2024,126.833917865243,17.943565275382
$GNHDT,248.236,T*22
$PYRTM,2024,126.833923712755,17.943571122894
$GNGGA,200051.00,3356.54629910,N,11932.26512534,W,2,11,1.1,8.501,M,-37.558,M,7.0,0131*6D
$PYRTM,2024,126.833923712755,17.943571122894
$GNHDT,248.202,T*25
$PYRTM,2024,126.833929446690,17.943576856829
$GNGGA,200051.50,3356.54616367,N,11932.26524428,W,2,11,1.1,8.608,M,-37.558,M,7.4,0131*69
$PYRTM,2024,126.833929446690,17.943576856829
$GNHDT,248.180,T*2C
$PYRTM,2024,126.833935283067,17.943582693218
$GNGGA,200052.00,3356.54603615,N,11932.26538901,W,2,11,1.1,8.687,M,-37.558,M,7.0,0131*63
$PYRTM,2024,126.833935283067,17.943582693218
$GNHDT,248.247,T*24
$PYRTM,2024,126.833941025347,17.943588435486
$GNGGA,200052.50,3356.54593432,N,11932.26555904,W,2,11,1.1,8.720,M,-37.558,M,7.4,0131*6D
$PYRTM,2024,126.833941025347,17.943588435486
$GNHDT,248.163,T*21
$PYRTM,2024,126.833946873611,17.943594283762
$GNGGA,200053.00,3356.54585917,N,11932.26574073,W,2,11,1.1,8.755,M,-37.558,M,7.0,0131*68
$PYRTM,2024,126.833946873611,17.943594283762
$GNHDT,248.305,T*23
$PYRTM,2024,126.833952591887,17.943600002037
$GNGGA,200053.50,3356.54580245,N,11932.26591574,W,2,11,1.1,8.786,M,-37.558,M,7.4,0131*67
$PYRTM,2024,126.833952591887,17.943600002037
$GNHDT,248.040,T*21
$PYRTM,2024,126.833958434734,17.943605844873
$GNGGA,200054.00,3356.54574961,N,11932.26607323,W,2,11,1.1,8.828,M,-37.558,M,4.0,0131*67
$PYRTM,2024,126.833958434734,17.943605844873
$GNHDT,247.756,T*2E
$PYRTM,2024,126.833964162627,17.943611572778
$GNGGA,200054.50,3356.54568687,N,11932.26621848,W,2,11,1.1,8.880,M,-37.558,M,4.4,0131*6C
$PYRTM,2024,126.833964162627,17.943611572778
$GNHDT,247.910,T*22
$PYRTM,2024,126.833970005903,17.943617416053
$GNGGA,200055.00,3356.54560069,N,11932.26635726,W,2,11,1.1,8.928,M,-37.558,M,5.0,0131*62
$PYRTM,2024,126.833970005903,17.943617416053
$GNHDT,247.969,T*2C
$PYRTM,2024,126.833975745023,17.943623155162
$GNGGA,200055.50,3356.54549312,N,11932.26649850,W,2,11,1.1,8.922,M,-37.558,M,5.4,0131*68
$PYRTM,2024,126.833975745023,17.943623155162
$GNHDT,247.922,T*23
$PYRTM,2024,126.833981583391,17.943628993530
$GNGGA,200056.00,3356.54537725,N,11932.26665023,W,2,11,1.1,8.908,M,-37.558,M,6.0,0131*6A
$PYRTM,2024,126.833981583391,17.943628993530
$GNHDT,247.994,T*2E
$PYRTM,2024,126.833987320972,17.943634731123
$GNGGA,200056.50,3356.54526577,N,11932.26679513,W,2,11,1.1,8.894,M,-37.558,M,6.4,0131*61
$PYRTM,2024,126.833987320972,17.943634731123
$GNHDT,248.110,T*25
$PYRTM,2024,126.833993153009,17.943640563148
$GNGGA,200057.00,3356.54517648,N,11932.26693405,W,2,11,1.1,8.910,M,-37.558,M,7.0,0131*62
$PYRTM,2024,126.833993153009,17.943640563148
$GNHDT,248.278,T*28
$PYRTM,2024,126.833998885035,17.943646295174
$GNGGA,200057.50,3356.54510708,N,11932.26705663,W,2,11,1.1,8.939,M,-37.558,M,7.4,0131*66
$PYRTM,2024,126.833998885035,17.943646295174
$GNHDT,248.352,T*21
$PYRTM,2024,126.834004727141,17.943652137280
$GNGGA,200058.00,3356.54505306,N,11932.26717643,W,2,11,1.1,8.986,M,-37.558,M,7.0,0131*63
$PYRTM,2024,126.834004727141,17.943652137280
$GNHDT,248.335,T*20
$PYRTM,2024,126.834010468588,17.943657878727
$GNGGA,200058.50,3356.54500384,N,11932.26730699,W,2,11,1.1,8.995,M,-37.558,M,7.4,0131*6D
$PYRTM,2024,126.834010468588,17.943657878727
$GNHDT,248.365,T*25
$PYRTM,2024,126.834016304155,17.943663714294
$GNGGA,200059.00,3356.54494492,N,11932.26745656,W,2,11,1.1,8.946,M,-37.558,M,7.0,0131*6E
$PYRTM,2024,126.834016304155,17.943663714294
$GNHDT,248.467,T*20
$PYRTM,2024,126.834022037500,17.943669447639
$GNGGA,200059.50,3356.54486912,N,11932.26762737,W,2,11,1.1,8.822,M,-37.558,M,7.4,0131*69
$PYRTM,2024,126.834022037500,17.943669447639
$GNHDT,248.074,T*26
$PYRTM,2024,126.834027882257,17.943675292407
$GNGGA,200100.00,3356.54477297,N,11932.26780552,W,2,11,1.1,8.685,M,-37.558,M,4.0,0131*60
$PYRTM,2024,126.834027882257,17.943675292407
$GNHDT,248.075,T*27
$PYRTM,2024,126.834033609757,17.943681019896
$GNGGA,200100.50,3356.54466476,N,11932.26797734,W,2,11,1.1,8.592,M,-37.558,M,4.4,0131*69
$PYRTM,2024,126.834033609757,17.943681019896
$GNHDT,247.803,T*21
$PYRTM,2024,126.834039448681,17.943686858819
$GNGGA,200101.00,3356.54454702,N,11932.26813584,W,2,11,1.1,8.583,M,-37.558,M,5.0,0131*63
$PYRTM,2024,126.834039448681,17.943686858819
$GNHDT,247.891,T*2A
$PYRTM,2024,126.834045179873,17.943692590012
$GNGGA,200101.50,3356.54443419,N,11932.26827660,W,2,11,1.1,8.678,M,-37.558,M,5.4,0131*64
$PYRTM,2024,126.834045179873,17.943692590012
$GNHDT,247.923,T*22
$PYRTM,2024,126.834051024734,17.943698434873
$GNGGA,200102.00,3356.54433919,N,11932.26840320,W,2,11,1.1,8.833,M,-37.558,M,6.0,0131*6E
$PYRTM,2024,126.834051024734,17.943698434873
$GNHDT,248.132,T*25
$PYRTM,2024,126.834056759375,17.943704169514
$GNGGA,200102.50,3356.54426715,N,11932.26852114,W,2,11,1.1,8.995,M,-37.558,M,6.4,0131*62
$PYRTM,2024,126.834056759375,17.943704169514
$GNHDT,248.018,T*2C
$PYRTM,2024,126.834062597569,17.943710007708
$GNGGA,200103.00,3356.54421831,N,11932.26864184,W,2,11,1.1,9.136,M,-37.558,M,7.0,0131*61
$PYRTM,2024,126.834062597569,17.943710007708
$GNHDT,248.165,T*27
$PYRTM,2024,126.834068329630,17.943715739769
$GNGGA,200103.50,3356.54418246,N,11932.26877417,W,2,11,1.1,9.199,M,-37.558,M,7.4,0131*68
$PYRTM,2024,126.834068329630,17.943715739769
$GNHDT,248.086,T*2B
$PYRTM,2024,126.834074171817,17.943721581956
$GNGGA,200104.00,3356.54414525,N,11932.26894199,W,2,11,1.1,9.149,M,-37.558,M,7.0,0131*63
$PYRTM,2024,126.834074171817,17.943721581956
$GNHDT,248.080,T*2D
$PYRTM,2024,126.834079907396,17.943727317546
$GNGGA,200104.50,3356.54407232,N,11932.26911976,W,2,11,1.1,9.011,M,-37.558,M,7.4,0131*68
$PYRTM,2024,126.834079907396,17.943727317546
$GNHDT,248.117,T*22
$PYRTM,2024,126.834085746505,17.943733156644
$GNGGA,200105.00,3356.54396441,N,11932.26928664,W,2,11,1.1,8.802,M,-37.558,M,7.0,0131*68
$PYRTM,2024,126.834085746505,17.943733156644
$GNHDT,247.872,T*27
$PYRTM,2024,126.834091480208,17.943738890359
$GNGGA,200105.50,3356.54382690,N,11932.26944551,W,2,11,1.1,8.605,M,-37.558,M,7.4,0131*64
$PYRTM,2024,126.834091480208,17.943738890359
$GNHDT,247.803,T*21
$PYRTM,2024,126.834097322037,17.943744732176
$GNGGA,200106.00,3356.54367498,N,11932.26958180,W,2,11,1.1,8.484,M,-37.558,M,4.0,0131*6A
$PYRTM,2024,126.834097322037,17.943744732176
$GNHDT,247.940,T*27
$PYRTM,2024,126.834103056829,17.943750466979
$GNGGA,200106.50,3356.54353346,N,11932.26970253,W,2,11,1.1,8.455,M,-37.558,M,4.4,0131*63
$PYRTM,2024,126.834103056829,17.943750466979
$GNHDT,247.974,T*20
$PYRTM,2024,126.834108895532,17.943756305683
$GNGGA,200107.00,3356.54342320,N,11932.26982279,W,2,11,1.1,8.527,M,-37.558,M,5.0,0131*63
$PYRTM,2024,126.834108895532,17.943756305683
$GNHDT,247.993,T*29
$PYRTM,2024,126.834114633704,17.943762043843
$GNGGA,200107.50,3356.54335564,N,11932.26994093,W,2,11,1.1,8.669,M,-37.558,M,5.4,0131*6C
$PYRTM,2024,126.834114633704,17.943762043843
$GNHDT,248.309,T*2F
$PYRTM,2024,126.834120480556,17.943767890694
$GNGGA,200108.00,3356.54332207,N,11932.27006582,W,2,11,1.1,8.807,M,-37.558,M,6.0,0131*64
$PYRTM,2024,126.834120480556,17.943767890694
$GNHDT,248.211,T*27
$PYRTM,2024,126.834126198345,17.943773608484
$GNGGA,200108.50,3356.54330063,N,11932.27021525,W,2,11,1.1,8.912,M,-37.558,M,6.4,0131*6A
$PYRTM,2024,126.834126198345,17.943773608484
$GNHDT,248.333,T*26
$PYRTM,2024,126.834132047986,17.943779458125
$GNGGA,200109.00,3356.54326864,N,11932.27039138,W,2,11,1.1,8.932,M,-37.558,M,7.0,0131*60
$PYRTM,2024,126.834132047986,17.943779458125
$GNHDT,248.440,T*25
$PYRTM,2024,126.834137777350,17.943785187488
$GNGGA,200109.50,3356.54320490,N,11932.27058452,W,2,11,1.1,8.870,M,-37.558,M,7.4,0131*69
$PYRTM,2024,126.834137777350,17.943785187488
$GNHDT,248.245,T*26
$PYRTM,2024,126.834143619688,17.943791029826
$GNGGA,200110.00,3356.54309998,N,11932.27077580,W,2,11,1.1,8.748,M,-37.558,M,7.0,0131*69
$PYRTM,2024,126.834143619688,17.943791029826
$GNHDT,248.226,T*23
$PYRTM,2024,126.834149350984,17.943796761134
$GNGGA,200110.50,3356.54296028,N,11932.27094529,W,2,11,1.1,8.639,M,-37.558,M,7.4,0131*64
$PYRTM,2024,126.834149350984,17.943796761134
$GNHDT,248.053,T*23
$PYRTM,2024,126.834155191771,17.943802601910
$GNGGA,200111.00,3356.54280199,N,11932.27108252,W,2,11,1.1,8.583,M,-37.558,M,7.0,0131*65
$PYRTM,2024,126.834155191771,17.943802601910
$GNHDT,248.077,T*25
$PYRTM,2024,126.834160929965,17.943808340104
$GNGGA,200111.50,3356.54264976,N,11932.27119513,W,2,11,1.1,8.614,M,-37.558,M,7.4,0131*68
$PYRTM,2024,126.834160929965,17.943808340104
$GNHDT,248.272,T*22
$PYRTM,2024,126.834166766343,17.943814176481
$GNGGA,200112.00,3356.54252564,N,11932.27129056,W,2,11,1.1,8.698,M,-37.558,M,4.0,0131*60
$PYRTM,2024,126.834166766343,17.943814176481
$GNHDT,248.437,T*25
$PYRTM,2024,126.834172495845,17.943819905995
$GNGGA,200112.50,3356.54244356,N,11932.27139396,W,2,11,1.1,8.794,M,-37.558,M,4.4,0131*62
$PYRTM,2024,126.834172495845,17.943819905995
$GNHDT,248.577,T*20
$PYRTM,2024,126.834178339201,17.943825749352
$GNGGA,200113.00,3356.54239605,N,11932.27152345,W,2,11,1.1,8.869,M,-37.558,M,5.0,0131*64
$PYRTM,2024,126.834178339201,17.943825749352
$GNHDT,248.519,T*28
$PYRTM,2024,126.834184069282,17.943831479421
$GNGGA,200113.50,3356.54236630,N,11932.27168930,W,2,11,1.1,8.888,M,-37.558,M,5.4,0131*62
$PYRTM,2024,126.834184069282,17.943831479421
$GNHDT,248.355,T*26
$PYRTM,2024,126.834189916586,17.943837326736
$GNGGA,200114.00,3356.54233746,N,11932.27187268,W,2,11,1.1,8.876,M,-37.558,M,6.0,0131*64
$PYRTM,2024,126.834189916586,17.943837326736
$GNHDT,248.434,T*26
$PYRTM,2024,126.834195645417,17.943843055556
$GNGGA,200114.50,3356.54228355,N,11932.27205089,W,2,11,1.1,8.861,M,-37.558,M,6.4,0131*6B
$PYRTM,2024,126.834195645417,17.943843055556
$GNHDT,248.336,T*23
$PYRTM,2024,126.834201487002,17.943848897141
$GNGGA,200115.00,3356.54219449,N,11932.27220608,W,2,11,1.1,8.858,M,-37.558,M,7.0,0131*60
$PYRTM,2024,126.834201487002,17.943848897141
$GNHDT,248.438,T*2A
$PYRTM,2024,126.834207221146,17.943854631285
$GNGGA,200115.50,3356.54207268,N,11932.27234151,W,2,11,1.1,8.872,M,-37.558,M,7.4,0131*6D
$PYRTM,2024,126.834207221146,17.943854631285
$GNHDT,248.233,T*27
$PYRTM,2024,126.834213061042,17.943860471181
$GNGGA,200116.00,3356.54192956,N,11932.27246320,W,2,11,1.1,8.901,M,-37.558,M,7.0,0131*62
$PYRTM,2024,126.834213061042,17.943860471181
$GNHDT,248.240,T*23
$PYRTM,2024,126.834218801620,17.943866211771
$GNGGA,200116.50,3356.54178577,N,11932.27258681,W,2,11,1.1,8.929,M,-37.558,M,7.4,0131*63
$PYRTM,2024,126.834218801620,17.943866211771
$GNHDT,248.446,T*23
$PYRTM,2024,126.834224634375,17.943872044514
$GNGGA,200117.00,3356.54165225,N,11932.27271591,W,2,11,1.1,8.941,M,-37.558,M,7.0,0131*68
$PYRTM,2024,126.834224634375,17.943872044514
$GNHDT,248.512,T*23
$PYRTM,2024,126.834230366852,17.943877776991
$GNGGA,200117.50,3356.54155452,N,11932.27285438,W,2,11,1.1,8.956,M,-37.558,M,7.4,0131*63
$PYRTM,2024,126.834230366852,17.943877776991
$GNHDT,248.431,T*23
$PYRTM,2024,126.834236208831,17.943883618981
$GNGGA,200118.00,3356.54149608,N,11932.27298754,W,2,11,1.1,8.973,M,-37.558,M,4.0,0131*6C
$PYRTM,2024,126.834236208831,17.943883618981
$GNHDT,248.354,T*27
$PYRTM,2024,126.834241941493,17.943889351644
$GNGGA,200118.50,3356.54146704,N,11932.27310987,W,2,11,1.1,9.026,M,-37.558,M,4.4,0131*66
$PYRTM,2024,126.834241941493,17.943889351644
$GNHDT,248.358,T*2B
$PYRTM,2024,126.834247785069,17.943895195208
$GNGGA,200119.00,3356.54144799,N,11932.27322055,W,2,11,1.1,9.057,M,-37.558,M,5.0,0131*60
$PYRTM,2024,126.834247785069,17.943895195208
$GNHDT,247.955,T*23
$PYRTM,2024,126.834253521389,17.943900931528
$GNGGA,200119.50,3356.54142109,N,11932.27333925,W,2,11,1.1,9.067,M,-37.558,M,5.4,0131*65
$PYRTM,2024,126.834253521389,17.943900931528
$GNHDT,248.264,T*25
$PYRTM,2024,126.834259362778,17.943906772928
$GNGGA,200120.00,3356.54136527,N,11932.27347849,W,2,11,1.1,8.988,M,-37.558,M,6.0,0131*67
$PYRTM,2024,126.834259362778,17.943906772928
$GNHDT,248.036,T*20
$PYRTM,2024,126.834265089745,17.943912499896
$GNGGA,200120.50,3356.54128294,N,11932.27363994,W,2,11,1.1,8.841,M,-37.558,M,6.4,0131*65
$PYRTM,2024,126.834265089745,17.943912499896
$GNHDT,248.520,T*22
$PYRTM,2024,126.834270933056,17.943918343206
$GNGGA,200121.00,3356.54117090,N,11932.27381023,W,2,11,1.1,8.669,M,-37.558,M,7.0,0131*63
$PYRTM,2024,126.834270933056,17.943918343206
$GNHDT,248.733,T*22
$PYRTM,2024,126.834276663831,17.943924073970
$GNGGA,200121.50,3356.54103630,N,11932.27396966,W,2,11,1.1,8.537,M,-37.558,M,7.4,0131*6D
$PYRTM,2024,126.834276663831,17.943924073970
$GNHDT,248.514,T*25
$PYRTM,2024,126.834282510370,17.943929920509
$GNGGA,200122.00,3356.54089375,N,11932.27411165,W,2,11,1.1,8.522,M,-37.558,M,7.0,0131*6F
$PYRTM,2024,126.834282510370,17.943929920509
$GNHDT,248.389,T*27
$PYRTM,2024,126.834288246806,17.943935656944
$GNGGA,200122.50,3356.54075884,N,11932.27423507,W,2,11,1.1,8.606,M,-37.558,M,7.4,0131*6C
$PYRTM,2024,126.834288246806,17.943935656944
$GNHDT,248.554,T*21
$PYRTM,2024,126.834294078356,17.943941488495
$GNGGA,200123.00,3356.54064954,N,11932.27435180,W,2,11,1.1,8.758,M,-37.558,M,7.0,0131*66
$PYRTM,2024,126.834294078356,17.943941488495
$GNHDT,248.497,T*2F
$PYRTM,2024,126.834299818947,17.943947229086
$GNGGA,200123.50,3356.54057243,N,11932.27447004,W,2,11,1.1,8.911,M,-37.558,M,7.4,0131*61
$PYRTM,2024,126.834299818947,17.943947229086
$GNHDT,248.344,T*26
$PYRTM,2024,126.834305655220,17.943953065359
$GNGGA,200124.00,3356.54051865,N,11932.27460263,W,2,11,1.1,9.029,M,-37.558,M,4.0,0131*69
$PYRTM,2024,126.834305655220,17.943953065359
$GNHDT,248.328,T*2C
$PYRTM,2024,126.834311390428,17.943958800567
$GNGGA,200124.50,3356.54048200,N,11932.27475865,W,2,11,1.1,9.086,M,-37.558,M,4.4,0131*64
$PYRTM,2024,126.834311390428,17.943958800567
$GNHDT,248.383,T*2D
$PYRTM,2024,126.834317226331,17.943964636470
$GNGGA,200125.00,3356.54044027,N,11932.27493127,W,2,11,1.1,9.061,M,-37.558,M,5.0,0131*60
$PYRTM,2024,126.834317226331,17.943964636470
$GNHDT,248.457,T*23
$PYRTM,2024,126.834322958831,17.943970368970
$GNGGA,200125.50,3356.54037918,N,11932.27510989,W,2,11,1.1,8.983,M,-37.558,M,5.4,0131*62
$PYRTM,2024,126.834322958831,17.943970368970
$GNHDT,248.396,T*29
$PYRTM,2024,126.834328807106,17.943976217245
$GNGGA,200126.00,3356.54029216,N,11932.27528012,W,2,11,1.1,8.869,M,-37.558,M,6.0,0131*6C
$PYRTM,2024,126.834328807106,17.943976217245
$GNHDT,248.476,T*20
$PYRTM,2024,126.834334535949,17.943981946088
$GNGGA,200126.50,3356.54017566,N,11932.27543607,W,2,11,1.1,8.735,M,-37.558,M,6.4,0131*69
$PYRTM,2024,126.834334535949,17.943981946088
$GNHDT,248.199,T*24
$PYRTM,2024,126.834340384028,17.943987794167
$GNGGA,200127.00,3356.54003398,N,11932.27558091,W,2,11,1.1,8.618,M,-37.558,M,7.0,0131*67
$PYRTM,2024,126.834340384028,17.943987794167
$GNHDT,248.001,T*24
$PYRTM,2024,126.834346109398,17.943993519537
$GNGGA,200127.50,3356.53988465,N,11932.27572250,W,2,11,1.1,8.534,M,-37.558,M,7.4,0131*64
$PYRTM,2024,126.834346109398,17.943993519537
$GNHDT,248.281,T*2E
$PYRTM,2024,126.834351951539,17.943999361678
$GNGGA,200128.00,3356.53974270,N,11932.27586509,W,2,11,1.1,8.497,M,-37.558,M,7.0,0131*63
$PYRTM,2024,126.834351951539,17.943999361678
$GNHDT,248.408,T*29
$PYRTM,2024,126.834357683426,17.944005093565
$GNGGA,200128.50,3356.53962802,N,11932.27600538,W,2,11,1.1,8.538,M,-37.558,M,7.4,0131*61
$PYRTM,2024,126.834357683426,17.944005093565
$GNHDT,248.473,T*25
$PYRTM,2024,126.834363523565,17.944010933715
$GNGGA,200129.00,3356.53955011,N,11932.27614284,W,2,11,1.1,8.660,M,-37.558,M,7.0,0131*64
$PYRTM,2024,126.834363523565,17.944010933715
$GNHDT,248.498,T*20
$PYRTM,2024,126.834369260301,17.944016670440
$GNGGA,200129.50,3356.53950311,N,11932.27628409,W,2,11,1.1,8.818,M,-37.558,M,7.4,0131*6E
$PYRTM,2024,126.834369260301,17.944016670440
$GNHDT,248.556,T*23
$PYRTM,2024,126.834375099375,17.944022509514
$GNGGA,200130.00,3356.53947419,N,11932.27643684,W,2,11,1.1,8.984,M,-37.558,M,4.0,0131*63
$PYRTM,2024,126.834375099375,17.944022509514
$GNHDT,248.354,T*27
$PYRTM,2024,126.834380828646,17.944028238785
$GNGGA,200130.50,3356.53944357,N,11932.27659942,W,2,11,1.1,9.124,M,-37.558,M,4.4,0131*61
$PYRTM,2024,126.834380828646,17.944028238785
$GNHDT,248.498,T*20
$PYRTM,2024,126.834386677755,17.944034087894
$GNGGA,200131.00,3356.53938680,N,11932.27675599,W,2,11,1.1,9.216,M,-37.558,M,5.0,0131*62
$PYRTM,2024,126.834386677755,17.944034087894
$GNHDT,248.354,T*27
$PYRTM,2024,126.834392406377,17.944039816516
$GNGGA,200131.50,3356.53929902,N,11932.27689051,W,2,11,1.1,9.255,M,-37.558,M,5.4,0131*63
$PYRTM,2024,126.834392406377,17.944039816516
$GNHDT,248.282,T*2D
$PYRTM,2024,126.834398251076,17.944045661215
$GNGGA,200132.00,3356.53917333,N,11932.27700353,W,2,11,1.1,9.242,M,-37.558,M,6.0,0131*60
$PYRTM,2024,126.834398251076,17.944045661215
$GNHDT,248.351,T*22
$PYRTM,2024,126.834403976586,17.944051386736
$GNGGA,200132.50,3356.53902227,N,11932.27709363,W,2,11,1.1,9.178,M,-37.558,M,6.4,0131*61
$PYRTM,2024,126.834403976586,17.944051386736
$GNHDT,248.221,T*24
$PYRTM,2024,126.834409821493,17.944057231632
$GNGGA,200133.00,3356.53885749,N,11932.27718277,W,2,11,1.1,9.061,M,-37.558,M,7.0,0131*6E
$PYRTM,2024,126.834409821493,17.944057231632
$GNHDT,248.285,T*2A
$PYRTM,2024,126.834415551424,17.944062961574
$GNGGA,200133.50,3356.53870661,N,11932.27728968,W,2,11,1.1,8.902,M,-37.558,M,7.4,0131*65
$PYRTM,2024,126.834415551424,17.944062961574
$GNHDT,248.422,T*21
$PYRTM,2024,126.834421396308,17.944068806447
$GNGGA,200134.00,3356.53858610,N,11932.27742633,W,2,11,1.1,8.704,M,-37.558,M,7.0,0131*6A
$PYRTM,2024,126.834421396308,17.944068806447
$GNHDT,248.565,T*23
$PYRTM,2024,126.834427124838,17.944074534977
$GNGGA,200134.50,3356.53850725,N,11932.27759422,W,2,11,1.1,8.520,M,-37.558,M,7.4,0131*68
$PYRTM,2024,126.834427124838,17.944074534977
$GNHDT,248.447,T*22
$PYRTM,2024,126.834432967650,17.944080377789
$GNGGA,200135.00,3356.53846987,N,11932.27778589,W,2,11,1.1,8.396,M,-37.558,M,7.0,0131*61
$PYRTM,2024,126.834432967650,17.944080377789
$GNHDT,248.459,T*2D
$PYRTM,2024,126.834438699317,17.944086109456
$GNGGA,200135.50,3356.53845468,N,11932.27797972,W,2,11,1.1,8.363,M,-37.558,M,7.4,0131*6C
$PYRTM,2024,126.834438699317,17.944086109456
$GNHDT,248.181,T*2D
$PYRTM,2024,126.834444542639,17.944091952778
$GNGGA,200136.00,3356.53843789,N,11932.27815935,W,2,11,1.1,8.458,M,-37.558,M,4.0,0131*6E
$PYRTM,2024,126.834444542639,17.944091952778
$GNHDT,248.370,T*21
$PYRTM,2024,126.834450273565,17.944097683715
$GNGGA,200136.50,3356.53839367,N,11932.27831989,W,2,11,1.1,8.654,M,-37.558,M,4.4,0131*69
$PYRTM,2024,126.834450273565,17.944097683715
$GNHDT,248.133,T*24
$PYRTM,2024,126.834456116840,17.944103526979
$GNGGA,200137.00,3356.53830871,N,11932.27845750,W,2,11,1.1,8.903,M,-37.558,M,5.0,0131*69
$PYRTM,2024,126.834456116840,17.944103526979
$GNHDT,248.179,T*2A
$PYRTM,2024,126.834461856192,17.944109266331
$GNGGA,200137.50,3356.53818651,N,11932.27858185,W,2,11,1.1,9.121,M,-37.558,M,5.4,0131*65
$PYRTM,2024,126.834461856192,17.944109266331
$GNHDT,248.233,T*27
$PYRTM,2024,126.834467691852,17.944115101991
$GNGGA,200138.00,3356.53803422,N,11932.27870464,W,2,11,1.1,9.268,M,-37.558,M,6.0,0131*6A
$PYRTM,2024,126.834467691852,17.944115101991
$GNHDT,248.118,T*2D
$PYRTM,2024,126.834473424884,17.944120835023
$GNGGA,200138.50,3356.53788506,N,11932.27883779,W,2,11,1.1,9.333,M,-37.558,M,6.4,0131*6C
$PYRTM,2024,126.834473424884,17.944120835023
$GNHDT,248.533,T*20
$PYRTM,2024,126.834479263160,17.944126673299
$GNGGA,200139.00,3356.53775828,N,11932.27898256,W,2,11,1.1,9.298,M,-37.558,M,7.0,0131*6C
$PYRTM,2024,126.834479263160,17.944126673299
$GNHDT,248.592,T*2B
$PYRTM,2024,126.834484995787,17.944132405926
$GNGGA,200139.50,3356.53766958,N,11932.27913253,W,2,11,1.1,9.220,M,-37.558,M,7.4,0131*6D
$PYRTM,2024,126.834484995787,17.944132405926
$GNHDT,248.238,T*2C
$PYRTM,2024,126.834490838808,17.944138248947
$GNGGA,200140.00,3356.53762752,N,11932.27928594,W,2,11,1.1,9.103,M,-37.558,M,7.0,0131*64
$PYRTM,2024,126.834490838808,17.944138248947
$GNHDT,248.424,T*27
$PYRTM,2024,126.834496568796,17.944143978935
$GNGGA,200140.50,3356.53761713,N,11932.27943652,W,2,11,1.1,8.994,M,-37.558,M,7.4,0131*60
$PYRTM,2024,126.834496568796,17.944143978935
$GNHDT,248.404,T*25
$PYRTM,2024,126.834502413322,17.944149823461
$GNGGA,200141.00,3356.53761295,N,11932.27958136,W,2,11,1.1,8.894,M,-37.558,M,7.0,0131*65
$PYRTM,2024,126.834502413322,17.944149823461
$GNHDT,248.476,T*20
$PYRTM,2024,126.834508152014,17.944155562153
$GNGGA,200141.50,3356.53759197,N,11932.27970605,W,2,11,1.1,8.843,M,-37.558,M,7.4,0131*69
$PYRTM,2024,126.834508152014,17.944155562153
$GNHDT,248.693,T*29
$PYRTM,2024,126.834513985625,17.944161395764
$GNGGA,200142.00,3356.53753727,N,11932.27981898,W,2,11,1.1,8.855,M,-37.558,M,4.0,0131*6C
$PYRTM,2024,126.834513985625,17.944161395764
$GNHDT,248.693,T*29
$PYRTM,2024,126.834519717326,17.944167127465
$GNGGA,200142.50,3356.53743432,N,11932.27992445,W,2,11,1.1,8.912,M,-37.558,M,4.4,0131*67
$PYRTM,2024,126.834519717326,17.944167127465
$GNHDT,248.349,T*2B
$PYRTM,2024,126.834525562292,17.944172972454
$GNGGA,200143.00,3356.53728765,N,11932.28003830,W,2,11,1.1,8.954,M,-37.558,M,5.0,0131*68
$PYRTM,2024,126.834525562292,17.944172972454
$GNHDT,247.990,T*2A
$PYRTM,2024,126.834531296250,17.944178706389
$GNGGA,200143.50,3356.53711305,N,11932.28017847,W,2,11,1.1,8.968,M,-37.558,M,5.4,0131*6B
$PYRTM,2024,126.834531296250,17.944178706389
$GNHDT,248.053,T*23
$PYRTM,2024,126.834537138738,17.944184548877
$GNGGA,200144.00,3356.53693563,N,11932.28033955,W,2,11,1.1,8.900,M,-37.558,M,6.0,0131*69
$PYRTM,2024,126.834537138738,17.944184548877
$GNHDT,248.014,T*20
$PYRTM,2024,126.834542874491,17.944190284641
$GNGGA,200144.50,3356.53678572,N,11932.28051546,W,2,11,1.1,8.793,M,-37.558,M,6.4,0131*63
$PYRTM,2024,126.834542874491,17.944190284641
$GNHDT,248.124,T*22
$PYRTM,2024,126.834548710706,17.944196120845
$GNGGA,200145.00,3356.53667858,N,11932.28069784,W,2,11,1.1,8.679,M,-37.558,M,7.0,0131*6B
$PYRTM,2024,126.834548710706,17.944196120845
$GNHDT,248.200,T*27
$PYRTM,2024,126.834554442199,17.944201852350
$GNGGA,200145.50,3356.53661708,N,11932.28087195,W,2,11,1.1,8.609,M,-37.558,M,7.4,0131*67
$PYRTM,2024,126.834554442199,17.944201852350
$GNHDT,248.383,T*2D
$PYRTM,2024,126.834560284560,17.944207694711
$GNGGA,200146.00,3356.53658443,N,11932.28104439,W,2,11,1.1,8.599,M,-37.558,M,7.0,0131*60
$PYRTM,2024,126.834560284560,17.944207694711
$GNHDT,248.366,T*26
$PYRTM,2024,126.834566014653,17.944213424792
$GNGGA,200146.50,3356.53655443,N,11932.28119375,W,2,11,1.1,8.645,M,-37.558,M,7.4,0131*6D
$PYRTM,2024,126.834566014653,17.944213424792
$GNHDT,248.334,T*21
$PYRTM,2024,126.834571861597,17.944219271736
$GNGGA,200147.00,3356.53650453,N,11932.28133476,W,2,11,1.1,8.740,M,-37.558,M,7.0,0131*61
$PYRTM,2024,126.834571861597,17.944219271736
$GNHDT,248.229,T*2C
$PYRTM,2024,126.834577590359,17.944225000498
$GNGGA,200147.50,3356.53642306,N,11932.28146007,W,2,11,1.1,8.838,M,-37.558,M,7.4,0131*64
$PYRTM,2024,126.834577590359,17.944225000498
$GNHDT,248.252,T*20
$PYRTM,2024,126.834583432292,17.944230842431
$GNGGA,200148.00,3356.53630360,N,11932.28157510,W,2,11,1.1,8.925,M,-37.558,M,4.0,0131*62
$PYRTM,2024,126.834583432292,17.944230842431
$GNHDT,248.231,T*25
$PYRTM,2024,126.834589169109,17.944236579248
$GNGGA,200148.50,3356.53615819,N,11932.28169686,W,2,11,1.1,8.963,M,-37.558,M,4.4,0131*62
$PYRTM,2024,126.834589169109,17.944236579248
$GNHDT,248.237,T*23
$PYRTM,2024,126.834595010289,17.944242420428
$GNGGA,200149.00,3356.53600541,N,11932.28183106,W,2,11,1.1,8.963,M,-37.558,M,5.0,0131*6C
$PYRTM,2024,126.834595010289,17.944242420428
$GNHDT,248.293,T*2D
$PYRTM,2024,126.834600736875,17.944248147014
$GNGGA,200149.50,3356.53587128,N,11932.28198136,W,2,11,1.1,8.911,M,-37.558,M,5.4,0131*66
$PYRTM,2024,126.834600736875,17.944248147014
$GNHDT,248.262,T*23
$PYRTM,2024,126.834606583021,17.944253993160
$GNGGA,200150.00,3356.53576807,N,11932.28214711,W,2,11,1.1,8.818,M,-37.558,M,6.0,0131*6A
$PYRTM,2024,126.834606583021,17.944253993160
$GNHDT,248.358,T*2B
$PYRTM,2024,126.834612310498,17.944259720637
$GNGGA,200150.50,3356.53570418,N,11932.28232423,W,2,11,1.1,8.746,M,-37.558,M,6.4,0131*6D
$PYRTM,2024,126.834612310498,17.944259720637
$GNHDT,248.365,T*25
$PYRTM,2024,126.834618153380,17.944265563519
$GNGGA,200151.00,3356.53566314,N,11932.28250389,W,2,11,1.1,8.715,M,-37.558,M,7.0,0131*65
$PYRTM,2024,126.834618153380,17.944265563519
$GNHDT,248.192,T*2F
$PYRTM,2024,126.834623884769,17.944271294907
$GNGGA,200151.50,3356.53562730,N,11932.28267550,W,2,11,1.1,8.760,M,-37.558,M,7.4,0131*66
$PYRTM,2024,126.834623884769,17.944271294907
$GNHDT,248.340,T*22
$PYRTM,2024,126.834629724803,17.944277134942
$GNGGA,200152.00,3356.53558387,N,11932.28282170,W,2,11,1.1,8.871,M,-37.558,M,7.0,0131*67
$PYRTM,2024,126.834629724803,17.944277134942
$GNHDT,248.133,T*24
$PYRTM,2024,126.834635464641,17.944282874780
$GNGGA,200152.50,3356.53552685,N,11932.28294319,W,2,11,1.1,9.035,M,-37.558,M,7.4,0131*68
$PYRTM,2024,126.834635464641,17.944282874780
$GNHDT,248.008,T*2D
$PYRTM,2024,126.834641301794,17.944288711933
$GNGGA,200153.00,3356.53544424,N,11932.28304490,W,2,11,1.1,9.209,M,-37.558,M,7.0,0131*65
$PYRTM,2024,126.834641301794,17.944288711933
$GNHDT,248.113,T*26
$PYRTM,2024,126.834647038310,17.944294448449
$GNGGA,200153.50,3356.53533225,N,11932.28314597,W,2,11,1.1,9.343,M,-37.558,M,7.4,0131*6B
$PYRTM,2024,126.834647038310,17.944294448449
$GNHDT,247.996,T*2C
$PYRTM,2024,126.834652876667,17.944300286817
$GNGGA,200154.00,3356.53519964,N,11932.28326917,W,2,11,1.1,9.352,M,-37.558,M,4.0,0131*6D
$PYRTM,2024,126.834652876667,17.944300286817
$GNHDT,248.055,T*25
$PYRTM,2024,126.834658611412,17.944306021551
$GNGGA,200154.50,3356.53506270,N,11932.28343172,W,2,11,1.1,9.228,M,-37.558,M,4.4,0131*68
$PYRTM,2024,126.834658611412,17.944306021551
$GNHDT,248.273,T*23
$PYRTM,2024,126.834664454630,17.944311864769
$GNGGA,200155.00,3356.53493538,N,11932.28361771,W,2,11,1.1,8.982,M,-37.558,M,5.0,0131*60
$PYRTM,2024,126.834664454630,17.944311864769
$GNHDT,248.295,T*2B
$PYRTM,2024,126.834670187164,17.944317597303
$GNGGA,200155.50,3356.53482762,N,11932.28380732,W,2,11,1.1,8.696,M,-37.558,M,5.4,0131*6E
$PYRTM,2024,126.834670187164,17.944317597303
$GNHDT,248.358,T*2B
$PYRTM,2024,126.834676027141,17.944323437280
$GNGGA,200156.00,3356.53474401,N,11932.28397696,W,2,11,1.1,8.464,M,-37.558,M,6.0,0131*66
$PYRTM,2024,126.834676027141,17.944323437280
$GNHDT,248.534,T*27
$PYRTM,2024,126.834681758241,17.944329168380
$GNGGA,200156.50,3356.53468265,N,11932.28411668,W,2,11,1.1,8.376,M,-37.558,M,6.4,0131*62
$PYRTM,2024,126.834681758241,17.944329168380
$GNHDT,248.382,T*2C
$PYRTM,2024,126.834687597280,17.944335007419
$GNGGA,200157.00,3356.53462836,N,11932.28422424,W,2,11,1.1,8.471,M,-37.558,M,7.0,0131*6F
$PYRTM,2024,126.834687597280,17.944335007419
$GNHDT,247.985,T*2E
$PYRTM,2024,126.834693335752,17.944340745891
$GNGGA,200157.50,3356.53457399,N,11932.28430743,W,2,11,1.1,8.693,M,-37.558,M,7.4,0131*69
$PYRTM,2024,126.834693335752,17.944340745891
$GNHDT,247.976,T*22
$PYRTM,2024,126.834699174641,17.944346584780
$GNGGA,200158.00,3356.53449973,N,11932.28438077,W,2,11,1.1,8.956,M,-37.558,M,7.0,0131*68
$PYRTM,2024,126.834699174641,17.944346584780
$GNHDT,248.066,T*25
$PYRTM,2024,126.834704909537,17.944352319676
$GNGGA,200158.50,3356.53439624,N,11932.28447038,W,2,11,1.1,9.174,M,-37.558,M,7.4,0131*69
$PYRTM,2024,126.834704909537,17.944352319676
$GNHDT,248.113,T*26
$PYRTM,2024,126.834710748808,17.944358158947
$GNGGA,200159.00,3356.53426398,N,11932.28459130,W,2,11,1.1,9.263,M,-37.558,M,7.0,0131*66
$PYRTM,2024,126.834710748808,17.944358158947
$GNHDT,248.373,T*22
$PYRTM,2024,126.834716480544,17.944363890683
$GNGGA,200159.50,3356.53412463,N,11932.28475145,W,2,11,1.1,9.213,M,-37.558,M,7.4,0131*68
$PYRTM,2024,126.834716480544,17.944363890683
$GNHDT,248.274,T*24
$PYRTM,2024,126.834722324086,17.944369734225
$GNGGA,200200.00,3356.53399346,N,11932.28493960,W,2,11,1.1,9.026,M,-37.558,M,4.0,0131*62
$PYRTM,2024,126.834722324086,17.944369734225
$GNHDT,248.311,T*26
$PYRTM,2024,126.834728054896,17.944375465035
$GNGGA,200200.50,3356.53388395,N,11932.28512315,W,2,11,1.1,8.781,M,-37.558,M,4.4,0131*66
$PYRTM,2024,126.834728054896,17.944375465035
$GNHDT,248.026,T*21
$PYRTM,2024,126.834733891620,17.944381301759
$GNGGA,200201.00,3356.53379997,N,11932.28528317,W,2,11,1.1,8.607,M,-37.559,M,5.0,0131*64
$PYRTM,2024,126.834733891620,17.944381301759
$GNHDT,248.005,T*20
$PYRTM,2024,126.834739624468,17.944387034606
$GNGGA,200201.50,3356.53373430,N,11932.28541025,W,2,11,1.1,8.514,M,-37.559,M,5.4,0131*63
$PYRTM,2024,126.834739624468,17.944387034606
$GNHDT,247.945,T*22
$PYRTM,2024,126.834745466655,17.944392876794
$GNGGA,200202.00,3356.53368229,N,11932.28553641,W,2,11,1.1,8.534,M,-37.559,M,6.0,0131*63
$PYRTM,2024,126.834745466655,17.944392876794
$GNHDT,248.022,T*25
$PYRTM,2024,126.834751201979,17.944398612118
$GNGGA,200202.50,3356.53362654,N,11932.28564954,W,2,11,1.1,8.622,M,-37.559,M,6.4,0131*6D
$PYRTM,2024,126.834751201979,17.944398612118
$GNHDT,248.049,T*28
$PYRTM,2024,126.834757042118,17.944404452257
$GNGGA,200203.00,3356.53355739,N,11932.28578358,W,2,11,1.1,8.717,M,-37.559,M,7.0,0131*6E
$PYRTM,2024,126.834757042118,17.944404452257
$GNHDT,247.975,T*21
$PYRTM,2024,126.834762777072,17.944410187211
$GNGGA,200203.50,3356.53347177,N,11932.28593663,W,2,11,1.1,8.802,M,-37.559,M,7.4,0131*63
$PYRTM,2024,126.834762777072,17.944410187211
$GNHDT,247.799,T*2D
$PYRTM,2024,126.834768620810,17.944416030949
$GNGGA,200204.00,3356.53337344,N,11932.28611077,W,2,11,1.1,8.868,M,-37.559,M,7.0,0131*66
$PYRTM,2024,126.834768620810,17.944416030949
$GNHDT,247.663,T*29
$PYRTM,2024,126.834774350069,17.944421760208
$GNGGA,200204.50,3356.53327019,N,11932.28628084,W,2,11,1.1,8.933,M,-37.559,M,7.4,0131*64
$PYRTM,2024,126.834774350069,17.944421760208
$GNHDT,247.894,T*2F
$PYRTM,2024,126.834780191204,17.944427601343
$GNGGA,200205.00,3356.53317091,N,11932.28643507,W,2,11,1.1,9.010,M,-37.559,M,7.0,0131*6D
$PYRTM,2024,126.834780191204,17.944427601343
$GNHDT,247.949,T*2E
$PYRTM,2024,126.834785929259,17.944433339398
$GNGGA,200205.50,3356.53308070,N,11932.28656654,W,2,11,1.1,9.109,M,-37.559,M,7.4,0131*65
$PYRTM,2024,126.834785929259,17.944433339398
$GNHDT,248.068,T*2B
$PYRTM,2024,126.834791768194,17.944439178333
$GNGGA,200206.00,3356.53300027,N,11932.28667164,W,2,11,1.1,9.179,M,-37.559,M,4.0,0131*6F
$PYRTM,2024,126.834791768194,17.944439178333
$GNHDT,248.225,T*20
$PYRTM,2024,126.834797500197,17.944444910336
$GNGGA,200206.50,3356.53292987,N,11932.28677371,W,2,11,1.1,9.194,M,-37.559,M,4.4,0131*63
$PYRTM,2024,126.834797500197,17.944444910336
$GNHDT,248.274,T*24
$PYRTM,2024,126.834803339456,17.944450749595
$GNGGA,200207.00,3356.53286420,N,11932.28688596,W,2,11,1.1,9.131,M,-37.559,M,5.0,0131*67
$PYRTM,2024,126.834803339456,17.944450749595
$GNHDT,248.155,T*24
$PYRTM,2024,126.834809069664,17.944456479803
$GNGGA,200207.50,3356.53279908,N,11932.28702865,W,2,11,1.1,8.986,M,-37.559,M,5.4,0131*66
$PYRTM,2024,126.834809069664,17.944456479803
$GNHDT,248.220,T*25
$PYRTM,2024,126.834814921933,17.944462332083
$GNGGA,200208.00,3356.53272106,N,11932.28719206,W,2,11,1.1,8.776,M,-37.559,M,6.0,0131*62
$PYRTM,2024,126.834814921933,17.944462332083
$GNHDT,248.155,T*24
$PYRTM,2024,126.834820644468,17.944468054606
$GNGGA,200208.50,3356.53262977,N,11932.28736047,W,2,11,1.1,8.560,M,-37.559,M,6.4,0131*63
$PYRTM,2024,126.834820644468,17.944468054606
$GNHDT,247.888,T*22
$PYRTM,2024,126.834826484688,17.944473894826
$GNGGA,200209.00,3356.53252085,N,11932.28751960,W,2,11,1.1,8.411,M,-37.559,M,7.0,0131*6F
$PYRTM,2024,126.834826484688,17.944473894826
$GNHDT,247.856,T*21
$PYRTM,2024,126.834832221377,17.944479631516
$GNGGA,200209.50,3356.53240320,N,11932.28766111,W,2,11,1.1,8.377,M,-37.559,M,7.4,0131*6C
$PYRTM,2024,126.834832221377,17.944479631516
$GNHDT,247.788,T*2D
$PYRTM,2024,126.834838068796,17.944485478935
$GNGGA,200210.00,3356.53228136,N,11932.28778064,W,2,11,1.1,8.452,M,-37.559,M,7.0,0131*62
$PYRTM,2024,126.834838068796,17.944485478935
$GNHDT,247.624,T*2A
$PYRTM,2024,126.834843797604,17.944491207743
$GNGGA,200210.50,3356.53216539,N,11932.28788526,W,2,11,1.1,8.611,M,-37.559,M,7.4,0131*6C
$PYRTM,2024,126.834843797604,17.944491207743
$GNHDT,247.831,T*20
$PYRTM,2024,126.834849634653,17.944497044803
$GNGGA,200211.00,3356.53206220,N,11932.28798002,W,2,11,1.1,8.801,M,-37.559,M,7.0,0131*6F
$PYRTM,2024,126.834849634653,17.944497044803
$GNHDT,247.859,T*2E
$PYRTM,2024,126.834855372222,17.944502782361
$GNGGA,200211.50,3356.53197597,N,11932.28807972,W,2,11,1.1,8.951,M,-37.559,M,7.4,0131*6D
$PYRTM,2024,126.834855372222,17.944502782361
$GNHDT,248.022,T*25
$PYRTM,2024,126.834861209294,17.944508619433
$GNGGA,200212.00,3356.53189877,N,11932.28820564,W,2,11,1.1,9.028,M,-37.559,M,4.0,0131*68
$PYRTM,2024,126.834861209294,17.944508619433
$GNHDT,247.912,T*20
$PYRTM,2024,126.834866940903,17.944514351042
$GNGGA,200212.50,3356.53182407,N,11932.28835940,W,2,11,1.1,8.985,M,-37.559,M,4.4,0131*68
$PYRTM,2024,126.834866940903,17.944514351042
$GNHDT,248.034,T*22
$PYRTM,2024,126.834872784051,17.944520194190
$GNGGA,200213.00,3356.53173510,N,11932.28853669,W,2,11,1.1,8.833,M,-37.559,M,5.0,0131*68
$PYRTM,2024,126.834872784051,17.944520194190
$GNHDT,248.055,T*25
$PYRTM,2024,126.834878514005,17.944525924144
$GNGGA,200213.50,3356.53163348,N,11932.28871856,W,2,11,1.1,8.638,M,-37.559,M,5.4,0131*64
$PYRTM,2024,126.834878514005,17.944525924144
$GNHDT,248.029,T*2E
$PYRTM,2024,126.834884358692,17.944531768831
$GNGGA,200214.00,3356.53151624,N,11932.28888355,W,2,11,1.1,8.478,M,-37.559,M,6.0,0131*67
$PYRTM,2024,126.834884358692,17.944531768831
$GNHDT,247.882,T*28
$PYRTM,2024,126.834890088241,17.944537498380
$GNGGA,200214.50,3356.53139259,N,11932.28901629,W,2,11,1.1,8.442,M,-37.559,M,6.4,0131*61
$PYRTM,2024,126.834890088241,17.944537498380
$GNHDT,248.033,T*25
$PYRTM,2024,126.834895929687,17.944543339838
$GNGGA,200215.00,3356.53125706,N,11932.28913104,W,2,11,1.1,8.558,M,-37.559,M,7.0,0131*63
$PYRTM,2024,126.834895929687,17.944543339838
$GNHDT,247.864,T*20
$PYRTM,2024,126.834901664873,17.944549075012
$GNGGA,200215.50,3356.53112697,N,11932.28920745,W,2,11,1.1,8.769,M,-37.559,M,7.4,0131*6C
$PYRTM,2024,126.834901664873,17.944549075012
$GNHDT,248.079,T*2B
$PYRTM,2024,126.834907503669,17.944554913808
$GNGGA,200216.00,3356.53100384,N,11932.28929609,W,2,11,1.1,8.988,M,-37.559,M,7.0,0131*6B
$PYRTM,2024,126.834907503669,17.944554913808
$GNHDT,248.063,T*20
$PYRTM,2024,126.834913246840,17.944560656979
$GNGGA,200216.50,3356.53091379,N,11932.28943628,W,2,11,1.1,9.132,M,-37.559,M,7.4,0131*66
$PYRTM,2024,126.834913246840,17.944560656979
$GNHDT,247.918,T*2A
$PYRTM,2024,126.834919081736,17.944566491875
$GNGGA,200217.00,3356.53083767,N,11932.28961338,W,2,11,1.1,9.160,M,-37.559,M,7.0,0131*6D
$PYRTM,2024,126.834919081736,17.944566491875
$GNHDT,247.904,T*27
$PYRTM,2024,126.834924817674,17.944572227813
$GNGGA,200217.50,3356.53077422,N,11932.28981268,W,2,11,1.1,9.120,M,-37.559,M,7.4,0131*6B
$PYRTM,2024,126.834924817674,17.944572227813
$GNHDT,248.049,T*28
$PYRTM,2024,126.834930653727,17.944578063866
$GNGGA,200218.00,3356.53070972,N,11932.29001269,W,2,11,1.1,9.023,M,-37.559,M,4.0,0131*6A
$PYRTM,2024,126.834930653727,17.944578063866
$GNHDT,248.062,T*21
$PYRTM,2024,126.834936389560,17.944583799699
$GNGGA,200218.50,3356.53064370,N,11932.29018878,W,2,11,1.1,8.955,M,-37.559,M,4.4,0131*6D
$PYRTM,2024,126.834936389560,17.944583799699
$GNHDT,247.824,T*24
$PYRTM,2024,126.834942226748,17.944589636887
$GNGGA,200219.00,3356.53055362,N,11932.29031334,W,2,11,1.1,8.971,M,-37.559,M,5.0,0131*63
$PYRTM,2024,126.834942226748,17.944589636887
$GNHDT,247.832,T*23
$PYRTM,2024,126.834947960683,17.944595370822
$GNGGA,200219.50,3356.53045251,N,11932.29040405,W,2,11,1.1,9.051,M,-37.559,M,5.4,0131*6B
$PYRTM,2024,126.834947960683,17.944595370822
$GNHDT,247.618,T*25
$PYRTM,2024,126.834953805660,17.944601215799
$GNGGA,200220.00,3356.53034076,N,11932.29048873,W,2,11,1.1,9.163,M,-37.559,M,6.0,0131*67
$PYRTM,2024,126.834953805660,17.944601215799
$GNHDT,247.673,T*28
$PYRTM,2024,126.834959538600,17.944606948750
$GNGGA,200220.50,3356.53022543,N,11932.29058637,W,2,11,1.1,9.231,M,-37.559,M,6.4,0131*69
$PYRTM,2024,126.834959538600,17.944606948750
$GNHDT,247.744,T*2D
$PYRTM,2024,126.834965376667,17.944612786806
$GNGGA,200221.00,3356.53011898,N,11932.29070964,W,2,11,1.1,9.260,M,-37.559,M,7.0,0131*64
$PYRTM,2024,126.834965376667,17.944612786806
$GNHDT,247.815,T*26
$PYRTM,2024,126.834971110498,17.944618520648
$GNGGA,200221.50,3356.53004018,N,11932.29085825,W,2,11,1.1,9.237,M,-37.559,M,7.4,0131*6D
$PYRTM,2024,126.834971110498,17.944618520648
$GNHDT,247.857,T*20
$PYRTM,2024,126.834976951296,17.944624361435
$GNGGA,200222.00,3356.52999210,N,11932.29101679,W,2,11,1.1,9.188,M,-37.559,M,7.0,0131*64
$PYRTM,2024,126.834976951296,17.944624361435
$GNHDT,247.998,T*22
$PYRTM,2024,126.834982685243,17.944630095382
$GNGGA,200222.50,3356.52996389,N,11932.29117360,W,2,11,1.1,9.139,M,-37.559,M,7.4,0131*6B
$PYRTM,2024,126.834982685243,17.944630095382
$GNHDT,247.926,T*27
$PYRTM,2024,126.834988523542,17.944635933681
$GNGGA,200223.00,3356.52993329,N,11932.29133261,W,2,11,1.1,9.074,M,-37.559,M,7.0,0131*6A
$PYRTM,2024,126.834988523542,17.944635933681
$GNHDT,247.986,T*2D
$PYRTM,2024,126.834994259225,17.944641669363
$GNGGA,200223.50,3356.52988108,N,11932.29148901,W,2,11,1.1,8.999,M,-37.559,M,7.4,0131*6A
$PYRTM,2024,126.834994259225,17.944641669363
$GNHDT,247.839,T*28
$PYRTM,2024,126.835000100127,17.944647510278
$GNGGA,200224.00,3356.52979223,N,11932.29164758,W,2,11,1.1,8.917,M,-37.559,M,4.0,0131*61
$PYRTM,2024,126.835000100127,17.944647510278
$GNHDT,247.708,T*25
$PYRTM,2024,126.835005829306,17.944653239456
$GNGGA,200224.50,3356.52966468,N,11932.29179663,W,2,11,1.1,8.833,M,-37.559,M,4.4,0131*65
$PYRTM,2024,126.835005829306,17.944653239456
$GNHDT,247.489,T*2F
$PYRTM,2024,126.835011672604,17.944659082743
$GNGGA,200225.00,3356.52950611,N,11932.29194225,W,2,11,1.1,8.760,M,-37.559,M,5.0,0131*61
$PYRTM,2024,126.835011672604,17.944659082743
$GNHDT,247.243,T*2F
$PYRTM,2024,126.835017406586,17.944664816725
$GNGGA,200225.50,3356.52934540,N,11932.29207543,W,2,11,1.1,8.729,M,-37.559,M,5.4,0131*66
$PYRTM,2024,126.835017406586,17.944664816725
$GNHDT,247.566,T*2F
$PYRTM,2024,126.835023248090,17.944670658229
$GNGGA,200226.00,3356.52919555,N,11932.29221097,W,2,11,1.1,8.723,M,-37.559,M,6.0,0131*6E
$PYRTM,2024,126.835023248090,17.944670658229
$GNHDT,247.697,T*22
$PYRTM,2024,126.835028987512,17.944676397650
$GNGGA,200226.50,3356.52907280,N,11932.29235870,W,2,11,1.1,8.750,M,-37.559,M,6.4,0131*6F
$PYRTM,2024,126.835028987512,17.944676397650
$GNHDT,247.643,T*2B
$PYRTM,2024,126.835034818576,17.944682228715
$GNGGA,200227.00,3356.52897476,N,11932.29251228,W,2,11,1.1,8.775,M,-37.559,M,7.0,0131*6B
$PYRTM,2024,126.835034818576,17.944682228715
$GNHDT,247.742,T*2B
$PYRTM,2024,126.835040554907,17.944687965058
$GNGGA,200227.50,3356.52890914,N,11932.29268141,W,2,11,1.1,8.815,M,-37.559,M,7.4,0131*6B
$PYRTM,2024,126.835040554907,17.944687965058
$GNHDT,247.803,T*21
$PYRTM,2024,126.835046395336,17.944693805475
$GNGGA,200228.00,3356.52886020,N,11932.29285332,W,2,11,1.1,8.856,M,-37.559,M,7.0,0131*6E
$PYRTM,2024,126.835046395336,17.944693805475
$GNHDT,247.687,T*23
$PYRTM,2024,126.835052127257,17.944699537396
$GNGGA,200228.50,3356.52881184,N,11932.29301681,W,2,11,1.1,8.928,M,-37.559,M,7.4,0131*6F
$PYRTM,2024,126.835052127257,17.944699537396
$GNHDT,247.534,T*28
$PYRTM,2024,126.835057969155,17.944705379294
