$PYRTM,2024,123.250000173287,14.359647583426
$GNGGA,060000.00,3411.91381921,N,12007.32698569,W,2,12,0.9,7.760,M,-36.847,M,5.0,0135*61
$PYRTM,2024,123.250000173287,14.359647583426
$GNHDT,279.969,T*21
$PYRTM,2024,123.250005911528,14.359653321667
$GNGGA,060000.50,3411.91401930,N,12007.32779005,W,2,12,0.9,8.030,M,-36.847,M,5.4,0135*63
$PYRTM,2024,123.250005911528,14.359653321667
$GNHDT,280.191,T*28
$PYRTM,2024,123.250011747431,14.359659157569
$GNGGA,060001.00,3411.91420468,N,12007.32865636,W,2,12,0.9,8.373,M,-36.847,M,6.0,0135*63
$PYRTM,2024,123.250011747431,14.359659157569
$GNHDT,280.217,T*25
$PYRTM,2024,123.250017477755,14.359664887894
$GNGGA,060001.50,3411.91433638,N,12007.32954352,W,2,12,0.9,8.697,M,-36.847,M,6.4,0135*6C
$PYRTM,2024,123.250017477755,14.359664887894
$GNHDT,280.164,T*22
$PYRTM,2024,123.250023323958,14.359670734097
$GNGGA,060002.00,3411.91439396,N,12007.33041480,W,2,12,0.9,9.005,M,-36.847,M,7.0,0135*6C
$PYRTM,2024,123.250023323958,14.359670734097
$GNHDT,280.369,T*2D
$PYRTM,2024,123.250029062569,14.359676472720
$GNGGA,060002.50,3411.91440363,N,12007.33125021,W,2,12,0.9,9.300,M,-36.847,M,7.4,0135*63
$PYRTM,2024,123.250029062569,14.359676472720
$GNHDT,280.776,T*27
$PYRTM,2024,123.250034902431,14.359682312569
$GNGGA,060003.00,3411.91439366,N,12007.33202793,W,2,12,0.9,9.582,M,-36.847,M,7.0,0135*6C
$PYRTM,2024,123.250034902431,14.359682312569
$GNHDT,280.813,T*2B
$PYRTM,2024,123.250040626169,14.359688036308
$GNGGA,060003.50,3411.91440236,N,12007.33277312,W,2,12,0.9,9.768,M,-36.847,M,7.4,0135*6E
$PYRTM,2024,123.250040626169,14.359688036308
$GNHDT,280.625,T*20
$PYRTM,2024,123.250046465174,14.359693875312
$GNGGA,060004.00,3411.91445953,N,12007.33353213,W,2,12,0.9,9.778,M,-36.847,M,7.0,0135*63
$PYRTM,2024,123.250046465174,14.359693875312
$GNHDT,280.423,T*24
$PYRTM,2024,123.250052209977,14.359699620116
$GNGGA,060004.50,3411.91459255,N,12007.33436246,W,2,12,0.9,9.455,M,-36.847,M,7.4,0135*6A
$PYRTM,2024,123.250052209977,14.359699620116
$GNHDT,280.148,T*2C
$PYRTM,2024,123.250058047234,14.359705457373
$GNGGA,060005.00,3411.91480195,N,12007.33529280,W,2,12,0.9,8.734,M,-36.847,M,4.0,0135*62
$PYRTM,2024,123.250058047234,14.359705457373
$GNHDT,279.835,T*29
$PYRTM,2024,123.250063776262,14.359711186400
$GNGGA,060005.50,3411.91505425,N,12007.33630477,W,2,12,0.9,7.741,M,-36.847,M,4.4,0135*69
$PYRTM,2024,123.250063776262,14.359711186400
$GNHDT,280.223,T*22
$PYRTM,2024,123.250069618854,14.359717028993
$GNGGA,060006.00,3411.91530339,N,12007.33733917,W,2,12,0.9,6.783,M,-36.847,M,5.0,0135*60
$PYRTM,2024,123.250069618854,14.359717028993
$GNHDT,280.310,T*23
$PYRTM,2024,123.250075353044,14.359722763183
$GNGGA,060006.50,3411.91551535,N,12007.33835910,W,2,12,0.9,6.134,M,-36.847,M,5.4,0135*68
$PYRTM,2024,123.250075353044,14.359722763183
$GNHDT,280.372,T*27
$PYRTM,2024,123.250081198727,14.359728608877
$GNGGA,060007.00,3411.91566461,N,12007.33932367,W,2,12,0.9,6.080,M,-36.847,M,6.0,0135*6D
$PYRTM,2024,123.250081198727,14.359728608877
$GNHDT,280.354,T*23
$PYRTM,2024,123.250086936678,14.359734346817
$GNGGA,060007.50,3411.91573608,N,12007.34024045,W,2,12,0.9,6.570,M,-36.847,M,6.4,0135*65
$PYRTM,2024,123.250086936678,14.359734346817
$GNHDT,279.999,T*2E
$PYRTM,2024,123.250092769711,14.359740179850
$GNGGA,060008.00,3411.91574972,N,12007.34112808,W,2,12,0.9,7.387,M,-36.847,M,7.0,0135*65
$PYRTM,2024,123.250092769711,14.359740179850
$GNHDT,279.398,T*25
$PYRTM,2024,123.250098500613,14.359745910764
$GNGGA,060008.50,3411.91575691,N,12007.34202702,W,2,12,0.9,8.309,M,-36.847,M,7.4,0135*69
$PYRTM,2024,123.250098500613,14.359745910764
$GNHDT,279.195,T*2A
$PYRTM,2024,123.250104344861,14.359751755000
$GNGGA,060009.00,3411.91578176,N,12007.34295070,W,2,12,0.9,9.171,M,-36.847,M,7.0,0135*6A
$PYRTM,2024,123.250104344861,14.359751755000
$GNHDT,279.013,T*25
$PYRTM,2024,123.250110077569,14.359757487708
$GNGGA,060009.50,3411.91582919,N,12007.34385580,W,2,12,0.9,9.885,M,-36.847,M,7.4,0135*67
$PYRTM,2024,123.250110077569,14.359757487708
$GNHDT,278.839,T*24
$PYRTM,2024,123.250115915961,14.359763326100
$GNGGA,060010.00,3411.91588743,N,12007.34469955,W,2,12,0.9,10.357,M,-36.847,M,7.0,0135*58
$PYRTM,2024,123.250115915961,14.359763326100
$GNHDT,278.614,T*25
$PYRTM,2024,123.250121656076,14.359769066227
$GNGGA,060010.50,3411.91596191,N,12007.34549367,W,2,12,0.9,10.564,M,-36.847,M,7.4,0135*51
$PYRTM,2024,123.250121656076,14.359769066227
$GNHDT,278.632,T*21
$PYRTM,2024,123.250127491181,14.359774901319
$GNGGA,060011.00,3411.91605026,N,12007.34622908,W,2,12,0.9,10.426,M,-36.847,M,4.0,0135*5C
$PYRTM,2024,123.250127491181,14.359774901319
$GNHDT,278.617,T*26
$PYRTM,2024,123.250133219410,14.359780629549
$GNGGA,060011.50,3411.91615873,N,12007.34695857,W,2,12,0.9,9.961,M,-36.847,M,4.4,0135*65
$PYRTM,2024,123.250133219410,14.359780629549
$GNHDT,278.750,T*24
$PYRTM,2024,123.250139059965,14.359786470104
$GNGGA,060012.00,3411.91627321,N,12007.34771198,W,2,12,0.9,9.222,M,-36.847,M,5.0,0135*66
$PYRTM,2024,123.250139059965,14.359786470104
$GNHDT,279.020,T*25
$PYRTM,2024,123.250144796968,14.359792207106
$GNGGA,060012.50,3411.91638450,N,12007.34854288,W,2,12,0.9,8.293,M,-36.847,M,5.4,0135*69
$PYRTM,2024,123.250144796968,14.359792207106
$GNHDT,278.796,T*2E
$PYRTM,2024,123.250150634931,14.359798045069
$GNGGA,060013.00,3411.91650668,N,12007.34945472,W,2,12,0.9,7.324,M,-36.847,M,6.0,0135*6D
$PYRTM,2024,123.250150634931,14.359798045069
$GNHDT,279.179,T*28
$PYRTM,2024,123.250156369630,14.359803779769
$GNGGA,060013.50,3411.91663523,N,12007.35040773,W,2,12,0.9,6.573,M,-36.847,M,6.4,0135*6A
$PYRTM,2024,123.250156369630,14.359803779769
$GNHDT,279.392,T*2F
$PYRTM,2024,123.250162219838,14.359809629977
$GNGGA,060014.00,3411.91674543,N,12007.35131835,W,2,12,0.9,6.354,M,-36.847,M,7.0,0135*64
$PYRTM,2024,123.250162219838,14.359809629977
$GNHDT,279.775,T*22
$PYRTM,2024,123.250167951157,14.359815361308
$GNGGA,060014.50,3411.91681362,N,12007.35213841,W,2,12,0.9,6.756,M,-36.847,M,7.4,0135*6C
$PYRTM,2024,123.250167951157,14.359815361308
$GNHDT,279.792,T*2B
$PYRTM,2024,123.250173790058,14.359821200197
$GNGGA,060015.00,3411.91683025,N,12007.35293153,W,2,12,0.9,7.588,M,-36.847,M,7.0,0135*6C
$PYRTM,2024,123.250173790058,14.359821200197
$GNHDT,279.847,T*2C
$PYRTM,2024,123.250179519838,14.359826929977
$GNGGA,060015.50,3411.91684535,N,12007.35380573,W,2,12,0.9,8.496,M,-36.847,M,7.4,0135*6A
$PYRTM,2024,123.250179519838,14.359826929977
$GNHDT,278.789,T*20
$PYRTM,2024,123.250185353079,14.359832763218
$GNGGA,060016.00,3411.91689599,N,12007.35482037,W,2,12,0.9,9.126,M,-36.848,M,7.0,0135*63
$PYRTM,2024,123.250185353079,14.359832763218
$GNHDT,278.197,T*29
$PYRTM,2024,123.250191094120,14.359838504259
$GNGGA,060016.50,3411.91698487,N,12007.35593905,W,2,12,0.9,9.326,M,-36.848,M,7.4,0135*67
$PYRTM,2024,123.250191094120,14.359838504259
$GNHDT,278.294,T*29
$PYRTM,2024,123.250196934884,14.359844345023
$GNGGA,060017.00,3411.91710199,N,12007.35704774,W,2,12,0.9,9.165,M,-36.848,M,4.0,0135*6E
$PYRTM,2024,123.250196934884,14.359844345023
$GNHDT,278.302,T*27
$PYRTM,2024,123.250202662361,14.359850072500
$GNGGA,060017.50,3411.91721798,N,12007.35804460,W,2,12,0.9,8.851,M,-36.848,M,4.4,0135*6C
$PYRTM,2024,123.250202662361,14.359850072500
$GNHDT,278.112,T*24
$PYRTM,2024,123.250208504062,14.359855914201
$GNGGA,060018.00,3411.91733017,N,12007.35888493,W,2,12,0.9,8.643,M,-36.848,M,5.0,0135*65
$PYRTM,2024,123.250208504062,14.359855914201
$GNHDT,278.339,T*2F
$PYRTM,2024,123.250214242778,14.359861652928
$GNGGA,060018.50,3411.91741859,N,12007.35959148,W,2,12,0.9,8.681,M,-36.848,M,5.4,0135*63
$PYRTM,2024,123.250214242778,14.359861652928
$GNHDT,278.685,T*2D
$PYRTM,2024,123.250220077338,14.359867487488
$GNGGA,060019.00,3411.91748489,N,12007.36023156,W,2,12,0.9,8.923,M,-36.848,M,6.0,0135*67
$PYRTM,2024,123.250220077338,14.359867487488
$GNHDT,278.886,T*20
$PYRTM,2024,123.250225809097,14.359873219236
$GNGGA,060019.50,3411.91752964,N,12007.36089977,W,2,12,0.9,9.217,M,-36.848,M,6.4,0135*65
$PYRTM,2024,123.250225809097,14.359873219236
$GNHDT,278.796,T*2E
$PYRTM,2024,123.250231653403,14.359879063542
$GNGGA,060020.00,3411.91758205,N,12007.36168575,W,2,12,0.9,9.290,M,-36.848,M,7.0,0135*66
$PYRTM,2024,123.250231653403,14.359879063542
$GNHDT,279.093,T*2D
$PYRTM,2024,123.250237391481,14.359884801632
$GNGGA,060020.50,3411.91764277,N,12007.36258393,W,2,12,0.9,9.042,M,-36.848,M,7.4,0135*6E
$PYRTM,2024,123.250237391481,14.359884801632
$GNHDT,279.076,T*26
$PYRTM,2024,123.250243225417,14.359890635556
$GNGGA,060021.00,3411.91771223,N,12007.36353159,W,2,12,0.9,8.585,M,-36.848,M,7.0,0135*6A
$PYRTM,2024,123.250243225417,14.359890635556
$GNHDT,279.226,T*21
$PYRTM,2024,123.250248959398,14.359896369537
$GNGGA,060021.50,3411.91780065,N,12007.36447602,W,2,12,0.9,8.035,M,-36.848,M,7.4,0135*60
$PYRTM,2024,123.250248959398,14.359896369537
$GNHDT,279.426,T*27
$PYRTM,2024,123.250254800648,14.359902210787
$GNGGA,060022.00,3411.91790123,N,12007.36539557,W,2,12,0.9,7.549,M,-36.848,M,7.0,0135*6A
$PYRTM,2024,123.250254800648,14.359902210787
$GNHDT,279.569,T*2D
$PYRTM,2024,123.250260539387,14.359907949525
$GNGGA,060022.50,3411.91801037,N,12007.36628686,W,2,12,0.9,7.301,M,-36.848,M,7.4,0135*6E
$PYRTM,2024,123.250260539387,14.359907949525
$GNHDT,279.409,T*2A
$PYRTM,2024,123.250266377234,14.359913787373
$GNGGA,060023.00,3411.91809787,N,12007.36714673,W,2,12,0.9,7.399,M,-36.848,M,4.0,0135*6C
$PYRTM,2024,123.250266377234,14.359913787373
$GNHDT,279.175,T*24
$PYRTM,2024,123.250272112789,14.359919522928
$GNGGA,060023.50,3411.91815620,N,12007.36797470,W,2,12,0.9,7.782,M,-36.848,M,4.4,0135*68
$PYRTM,2024,123.250272112789,14.359919522928
$GNHDT,279.107,T*21
$PYRTM,2024,123.250277954271,14.359925364410
$GNGGA,060024.00,3411.91819288,N,12007.36879464,W,2,12,0.9,8.327,M,-36.848,M,5.0,0135*6B
$PYRTM,2024,123.250277954271,14.359925364410
$GNHDT,279.114,T*23
$PYRTM,2024,123.250283684826,14.359931094965
$GNGGA,060024.50,3411.91824345,N,12007.36964375,W,2,12,0.9,8.870,M,-36.848,M,5.4,0135*67
$PYRTM,2024,123.250283684826,14.359931094965
$GNHDT,279.250,T*20
$PYRTM,2024,123.250289521343,14.359936931481
$GNGGA,060025.00,3411.91833153,N,12007.37056861,W,2,12,0.9,9.163,M,-36.848,M,6.0,0135*6A
$PYRTM,2024,123.250289521343,14.359936931481
$GNHDT,279.289,T*24
$PYRTM,2024,123.250295261215,14.359942671354
$GNGGA,060025.50,3411.91847146,N,12007.37155825,W,2,12,0.9,9.086,M,-36.848,M,6.4,0135*64
$PYRTM,2024,123.250295261215,14.359942671354
$GNHDT,279.269,T*2A
$PYRTM,2024,123.250301101863,14.359948512002
$GNGGA,060026.00,3411.91863772,N,12007.37256189,W,2,12,0.9,8.784,M,-36.848,M,7.0,0135*6B
$PYRTM,2024,123.250301101863,14.359948512002
$GNHDT,279.324,T*22
$PYRTM,2024,123.250306829850,14.359954239988
$GNGGA,060026.50,3411.91879230,N,12007.37352508,W,2,12,0.9,8.480,M,-36.848,M,7.4,0135*6D
$PYRTM,2024,123.250306829850,14.359954239988
$GNHDT,279.625,T*26
$PYRTM,2024,123.250312668843,14.359960078981
$GNGGA,060027.00,3411.91890473,N,12007.37438362,W,2,12,0.9,8.391,M,-36.848,M,7.0,0135*6D
$PYRTM,2024,123.250312668843,14.359960078981
$GNHDT,279.594,T*2F
$PYRTM,2024,123.250318408877,14.359965819028
$GNGGA,060027.50,3411.91896348,N,12007.37513695,W,2,12,0.9,8.612,M,-36.848,M,7.4,0135*6E
$PYRTM,2024,123.250318408877,14.359965819028
$GNHDT,279.397,T*2A
$PYRTM,2024,123.250324248877,14.359971659016
$GNGGA,060028.00,3411.91898723,N,12007.37582303,W,2,12,0.9,9.026,M,-36.848,M,7.0,0135*65
$PYRTM,2024,123.250324248877,14.359971659016
$GNHDT,279.568,T*2C
$PYRTM,2024,123.250329976053,14.359977386192
$GNGGA,060028.50,3411.91899860,N,12007.37652543,W,2,12,0.9,9.421,M,-36.848,M,7.4,0135*62
$PYRTM,2024,123.250329976053,14.359977386192
$GNHDT,279.558,T*2F
$PYRTM,2024,123.250335818854,14.359983228993
$GNGGA,060029.00,3411.91901935,N,12007.37734183,W,2,12,0.9,9.536,M,-36.848,M,4.0,0135*6E
$PYRTM,2024,123.250335818854,14.359983228993
$GNHDT,279.730,T*23
$PYRTM,2024,123.250341559421,14.359988969560
$GNGGA,060029.50,3411.91908378,N,12007.37827920,W,2,12,0.9,9.212,M,-36.848,M,4.4,0135*68
$PYRTM,2024,123.250341559421,14.359988969560
$GNHDT,279.924,T*28
$PYRTM,2024,123.250347398403,14.359994808542
$GNGGA,060030.00,3411.91920000,N,12007.37928864,W,2,12,0.9,8.553,M,-36.848,M,5.0,0135*6A
$PYRTM,2024,123.250347398403,14.359994808542
$GNHDT,279.807,T*28
$PYRTM,2024,123.250353129699,14.360000539838
$GNGGA,060030.50,3411.91935870,N,12007.38029331,W,2,12,0.9,7.756,M,-36.848,M,5.4,0135*64
$PYRTM,2024,123.250353129699,14.360000539838
$GNHDT,279.771,T*26
$PYRTM,2024,123.250358964792,14.360006374942
$GNGGA,060031.00,3411.91952733,N,12007.38124557,W,2,12,0.9,7.077,M,-36.848,M,6.0,0135*60
$PYRTM,2024,123.250358964792,14.360006374942
$GNHDT,279.702,T*22
$PYRTM,2024,123.250364706782,14.360012116921
$GNGGA,060031.50,3411.91965709,N,12007.38212559,W,2,12,0.9,6.817,M,-36.848,M,6.4,0135*6B
$PYRTM,2024,123.250364706782,14.360012116921
$GNHDT,279.731,T*22
$PYRTM,2024,123.250370549456,14.360017959595
$GNGGA,060032.00,3411.91974452,N,12007.38293984,W,2,12,0.9,7.059,M,-36.848,M,7.0,0135*63
$PYRTM,2024,123.250370549456,14.360017959595
$GNHDT,280.040,T*25
$PYRTM,2024,123.250376276620,14.360023686759
$GNGGA,060032.50,3411.91981840,N,12007.38370517,W,2,12,0.9,7.649,M,-36.848,M,7.4,0135*6A
$PYRTM,2024,123.250376276620,14.360023686759
$GNHDT,280.191,T*28
$PYRTM,2024,123.250382119560,14.360029529699
$GNGGA,060033.00,3411.91989176,N,12007.38444745,W,2,12,0.9,8.458,M,-36.848,M,7.0,0135*66
$PYRTM,2024,123.250382119560,14.360029529699
$GNHDT,280.137,T*24
$PYRTM,2024,123.250387854861,14.360035265000
$GNGGA,060033.50,3411.91998383,N,12007.38521015,W,2,12,0.9,9.184,M,-36.848,M,7.4,0135*6A
$PYRTM,2024,123.250387854861,14.360035265000
$GNHDT,280.466,T*25
$PYRTM,2024,123.250393693877,14.360041104016
$GNGGA,060034.00,3411.92008767,N,12007.38604680,W,2,12,0.9,9.675,M,-36.848,M,7.0,0135*66
$PYRTM,2024,123.250393693877,14.360041104016
$GNHDT,280.627,T*22
$PYRTM,2024,123.250399423796,14.360046833935
$GNGGA,060034.50,3411.92018765,N,12007.38696896,W,2,12,0.9,9.786,M,-36.848,M,7.4,0135*6B
$PYRTM,2024,123.250399423796,14.360046833935
$GNHDT,280.440,T*21
$PYRTM,2024,123.250405270266,14.360052680405
$GNGGA,060035.00,3411.92029285,N,12007.38794790,W,2,12,0.9,9.500,M,-36.848,M,4.0,0135*67
$PYRTM,2024,123.250405270266,14.360052680405
$GNHDT,280.171,T*26
$PYRTM,2024,123.250411001088,14.360058411227
$GNGGA,060035.50,3411.92039730,N,12007.38894353,W,2,12,0.9,8.911,M,-36.848,M,4.4,0135*65
$PYRTM,2024,123.250411001088,14.360058411227
$GNHDT,280.362,T*26
$PYRTM,2024,123.250416836898,14.360064247049
$GNGGA,060036.00,3411.92049355,N,12007.38991305,W,2,12,0.9,8.259,M,-36.848,M,5.0,0135*66
$PYRTM,2024,123.250416836898,14.360064247049
$GNHDT,280.031,T*23
$PYRTM,2024,123.250422568877,14.360069979016
$GNGGA,060036.50,3411.92058124,N,12007.39082851,W,2,12,0.9,7.753,M,-36.848,M,5.4,0135*63
$PYRTM,2024,123.250422568877,14.360069979016
$GNHDT,279.829,T*24
$PYRTM,2024,123.250428414468,14.360075824606
$GNGGA,060037.00,3411.92067129,N,12007.39166184,W,2,12,0.9,7.598,M,-36.848,M,6.0,0135*6E
$PYRTM,2024,123.250428414468,14.360075824606
$GNHDT,280.073,T*25
$PYRTM,2024,123.250434145995,14.360081556134
$GNGGA,060037.50,3411.92078224,N,12007.39242929,W,2,12,0.9,7.803,M,-36.848,M,6.4,0135*6A
$PYRTM,2024,123.250434145995,14.360081556134
$GNHDT,280.451,T*21
$PYRTM,2024,123.250439985324,14.360087395463
$GNGGA,060038.00,3411.92092795,N,12007.39316686,W,2,12,0.9,8.239,M,-36.848,M,7.0,0135*68
$PYRTM,2024,123.250439985324,14.360087395463
$GNHDT,280.878,T*26
$PYRTM,2024,123.250445721748,14.360093131887
$GNGGA,060038.50,3411.92110200,N,12007.39393184,W,2,12,0.9,8.743,M,-36.848,M,7.4,0135*6B
$PYRTM,2024,123.250445721748,14.360093131887
$GNHDT,280.862,T*2D
$PYRTM,2024,123.250451560521,14.360098970660
$GNGGA,060039.00,3411.92128890,N,12007.39475884,W,2,12,0.9,9.186,M,-36.848,M,7.0,0135*6B
$PYRTM,2024,123.250451560521,14.360098970660
$GNHDT,281.025,T*27
$PYRTM,2024,123.250457290718,14.360104700856
$GNGGA,060039.50,3411.92145797,N,12007.39565265,W,2,12,0.9,9.475,M,-36.848,M,7.4,0135*65
$PYRTM,2024,123.250457290718,14.360104700856
$GNHDT,281.008,T*28
$PYRTM,2024,123.250463137188,14.360110547326
$GNGGA,060040.00,3411.92157831,N,12007.39659281,W,2,12,0.9,9.496,M,-36.848,M,7.0,0135*61
$PYRTM,2024,123.250463137188,14.360110547326
$GNHDT,280.624,T*21
$PYRTM,2024,123.250468871840,14.360116281991
$GNGGA,060040.50,3411.92165858,N,12007.39754807,W,2,12,0.9,9.303,M,-36.848,M,7.4,0135*6D
$PYRTM,2024,123.250468871840,14.360116281991
$GNHDT,280.692,T*2C
$PYRTM,2024,123.250474714988,14.360122125127
$GNGGA,060041.00,3411.92172168,N,12007.39849845,W,2,12,0.9,8.882,M,-36.848,M,4.0,0135*64
$PYRTM,2024,123.250474714988,14.360122125127
$GNHDT,280.697,T*29
$PYRTM,2024,123.250480441042,14.360127851181
$GNGGA,060041.50,3411.92180528,N,12007.39943493,W,2,12,0.9,8.370,M,-36.848,M,4.4,0135*62
$PYRTM,2024,123.250480441042,14.360127851181
$GNHDT,281.489,T*25
$PYRTM,2024,123.250486282650,14.360133692789
$GNGGA,060042.00,3411.92189883,N,12007.40037392,W,2,12,0.9,7.822,M,-36.848,M,5.0,0135*65
$PYRTM,2024,123.250486282650,14.360133692789
$GNHDT,281.286,T*2C
$PYRTM,2024,123.250492013912,14.360139424051
$GNGGA,060042.50,3411.92201773,N,12007.40129735,W,2,12,0.9,7.474,M,-36.848,M,5.4,0135*6F
$PYRTM,2024,123.250492013912,14.360139424051
$GNHDT,280.976,T*29
$PYRTM,2024,123.250497865671,14.360145275810
$GNGGA,060043.00,3411.92217757,N,12007.40214933,W,2,12,0.9,7.418,M,-36.848,M,6.0,0135*62
$PYRTM,2024,123.250497865671,14.360145275810
$GNHDT,280.928,T*22
$PYRTM,2024,123.250503592882,14.360151003021
$GNGGA,060043.50,3411.92236089,N,12007.40291792,W,2,12,0.9,7.684,M,-36.848,M,6.4,0135*6B
$PYRTM,2024,123.250503592882,14.360151003021
$GNHDT,281.113,T*23
$PYRTM,2024,123.250509437789,14.360156847928
$GNGGA,060044.00,3411.92254307,N,12007.40364620,W,2,12,0.9,8.166,M,-36.848,M,7.0,0135*6A
$PYRTM,2024,123.250509437789,14.360156847928
$GNHDT,281.264,T*20
$PYRTM,2024,123.250515167245,14.360162577384
$GNGGA,060044.50,3411.92271678,N,12007.40441349,W,2,12,0.9,8.691,M,-36.848,M,7.4,0135*64
$PYRTM,2024,123.250515167245,14.360162577384
$GNHDT,281.693,T*2C
$PYRTM,2024,123.250521003738,14.360168413877
$GNGGA,060045.00,3411.92287577,N,12007.40530599,W,2,12,0.9,9.043,M,-36.848,M,7.0,0135*65
$PYRTM,2024,123.250521003738,14.360168413877
$GNHDT,281.700,T*27
$PYRTM,2024,123.250526736782,14.360174146921
$GNGGA,060045.50,3411.92299577,N,12007.40629835,W,2,12,0.9,9.103,M,-36.848,M,7.4,0135*6E
$PYRTM,2024,123.250526736782,14.360174146921
$GNHDT,281.580,T*2D
$PYRTM,2024,123.250532578252,14.360179988391
$GNGGA,060046.00,3411.92307307,N,12007.40732446,W,2,12,0.9,8.984,M,-36.848,M,7.0,0135*6E
$PYRTM,2024,123.250532578252,14.360179988391
$GNHDT,281.053,T*26
$PYRTM,2024,123.250538315243,14.360185725382
$GNGGA,060046.50,3411.92311607,N,12007.40828918,W,2,12,0.9,8.814,M,-36.848,M,7.4,0135*67
$PYRTM,2024,123.250538315243,14.360185725382
$GNHDT,280.978,T*27
$PYRTM,2024,123.250544154757,14.360191564896
$GNGGA,060047.00,3411.92314859,N,12007.40915623,W,2,12,0.9,8.749,M,-36.848,M,4.0,0135*6B
$PYRTM,2024,123.250544154757,14.360191564896
$GNHDT,281.336,T*26
$PYRTM,2024,123.250549882060,14.360197292199
$GNGGA,060047.50,3411.92322614,N,12007.40994412,W,2,12,0.9,8.764,M,-36.848,M,4.4,0135*6E
$PYRTM,2024,123.250549882060,14.360197292199
$GNHDT,281.839,T*22
$PYRTM,2024,123.250555722280,14.360203132419
$GNGGA,060048.00,3411.92339713,N,12007.41070599,W,2,12,0.9,8.780,M,-36.848,M,5.0,0135*67
$PYRTM,2024,123.250555722280,14.360203132419
$GNHDT,282.103,T*21
$PYRTM,2024,123.250561460208,14.360208870347
$GNGGA,060048.50,3411.92363495,N,12007.41152604,W,2,12,0.9,8.700,M,-36.848,M,5.4,0135*6A
$PYRTM,2024,123.250561460208,14.360208870347
$GNHDT,282.179,T*2C
$PYRTM,2024,123.250567302836,14.360214712975
$GNGGA,060049.00,3411.92389675,N,12007.41241088,W,2,12,0.9,8.570,M,-36.848,M,6.0,0135*67
$PYRTM,2024,123.250567302836,14.360214712975
$GNHDT,282.260,T*27
$PYRTM,2024,123.250573033657,14.360220443796
$GNGGA,060049.50,3411.92413382,N,12007.41333227,W,2,12,0.9,8.443,M,-36.848,M,6.4,0135*6D
$PYRTM,2024,123.250573033657,14.360220443796
$GNHDT,281.673,T*22
$PYRTM,2024,123.250578874039,14.360226284178
$GNGGA,060050.00,3411.92433003,N,12007.41426480,W,2,12,0.9,8.383,M,-36.848,M,7.0,0135*6E
$PYRTM,2024,123.250578874039,14.360226284178
$GNHDT,281.615,T*22
$PYRTM,2024,123.250584611389,14.360232021528
$GNGGA,060050.50,3411.92447999,N,12007.41521068,W,2,12,0.9,8.375,M,-36.848,M,7.4,0135*6B
$PYRTM,2024,123.250584611389,14.360232021528
$GNHDT,281.869,T*27
$PYRTM,2024,123.250590444606,14.360237854745
$GNGGA,060051.00,3411.92459007,N,12007.41617169,W,2,12,0.9,8.399,M,-36.848,M,7.0,0135*6E
$PYRTM,2024,123.250590444606,14.360237854745
$GNHDT,282.131,T*20
$PYRTM,2024,123.250596183623,14.360243593762
$GNGGA,060051.50,3411.92468470,N,12007.41712558,W,2,12,0.9,8.428,M,-36.848,M,7.4,0135*66
$PYRTM,2024,123.250596183623,14.360243593762
$GNHDT,282.091,T*2B
$PYRTM,2024,123.250602019352,14.360249429491
$GNGGA,060052.00,3411.92480611,N,12007.41806453,W,2,12,0.9,8.444,M,-36.848,M,7.0,0135*6D
$PYRTM,2024,123.250602019352,14.360249429491
$GNHDT,282.007,T*24
$PYRTM,2024,123.250607755856,14.360255165995
$GNGGA,060052.50,3411.92496256,N,12007.41899919,W,2,12,0.9,8.413,M,-36.848,M,7.4,0135*6B
$PYRTM,2024,123.250607755856,14.360255165995
$GNHDT,282.113,T*20
$PYRTM,2024,123.250613602975,14.360261013113
$GNGGA,060053.00,3411.92513926,N,12007.41994797,W,2,12,0.9,8.317,M,-36.848,M,4.0,0135*6F
$PYRTM,2024,123.250613602975,14.360261013113
$GNHDT,282.183,T*29
$PYRTM,2024,123.250619332083,14.360266742222
$GNGGA,060053.50,3411.92532011,N,12007.42091272,W,2,12,0.9,8.237,M,-36.848,M,4.4,0135*62
$PYRTM,2024,123.250619332083,14.360266742222
$GNHDT,282.423,T*26
$PYRTM,2024,123.250625170463,14.360272580602
$GNGGA,060054.00,3411.92552146,N,12007.42185827,W,2,12,0.9,8.193,M,-36.848,M,5.0,0135*63
$PYRTM,2024,123.250625170463,14.360272580602
$GNHDT,282.710,T*25
$PYRTM,2024,123.250630899688,14.360278309826
$GNGGA,060054.50,3411.92572539,N,12007.42272778,W,2,12,0.9,8.322,M,-36.848,M,5.4,0135*6A
$PYRTM,2024,123.250630899688,14.360278309826
$GNHDT,282.540,T*22
$PYRTM,2024,123.250636742512,14.360284152650
$GNGGA,060055.00,3411.92588681,N,12007.42347393,W,2,12,0.9,8.736,M,-36.848,M,6.0,0135*6B
$PYRTM,2024,123.250636742512,14.360284152650
$GNHDT,282.038,T*28
$PYRTM,2024,123.250642482477,14.360289892616
$GNGGA,060055.50,3411.92599907,N,12007.42416113,W,2,12,0.9,9.336,M,-36.848,M,6.4,0135*67
$PYRTM,2024,123.250642482477,14.360289892616
$GNHDT,282.156,T*21
$PYRTM,2024,123.250648322083,14.360295732222
$GNGGA,060056.00,3411.92608045,N,12007.42483607,W,2,12,0.9,9.959,M,-36.848,M,7.0,0135*6D
$PYRTM,2024,123.250648322083,14.360295732222
$GNHDT,282.136,T*27
$PYRTM,2024,123.250654053113,14.360301463252
$GNGGA,060056.50,3411.92615957,N,12007.42561511,W,2,12,0.9,10.280,M,-36.848,M,7.4,0135*54
$PYRTM,2024,123.250654053113,14.360301463252
$GNHDT,282.029,T*28
$PYRTM,2024,123.250659898634,14.360307308773
$GNGGA,060057.00,3411.92624711,N,12007.42655277,W,2,12,0.9,10.048,M,-36.848,M,7.0,0135*5F
$PYRTM,2024,123.250659898634,14.360307308773
$GNHDT,282.204,T*25
$PYRTM,2024,123.250665635521,14.360313045671
$GNGGA,060057.50,3411.92636270,N,12007.42762526,W,2,12,0.9,9.225,M,-36.848,M,7.4,0135*68
$PYRTM,2024,123.250665635521,14.360313045671
$GNHDT,281.774,T*24
$PYRTM,2024,123.250671470451,14.360318880590
$GNGGA,060058.00,3411.92650830,N,12007.42872296,W,2,12,0.9,8.092,M,-36.848,M,7.0,0135*65
$PYRTM,2024,123.250671470451,14.360318880590
$GNHDT,281.227,T*27
$PYRTM,2024,123.250677198542,14.360324608681
$GNGGA,060058.50,3411.92669429,N,12007.42972020,W,2,12,0.9,7.159,M,-36.848,M,7.4,0135*6D
$PYRTM,2024,123.250677198542,14.360324608681
$GNHDT,281.389,T*22
$PYRTM,2024,123.250683045949,14.360330456088
$GNGGA,060059.00,3411.92689803,N,12007.43058187,W,2,12,0.9,6.779,M,-36.848,M,4.0,0135*6D
$PYRTM,2024,123.250683045949,14.360330456088
$GNHDT,281.406,T*22
$PYRTM,2024,123.250688779942,14.360336190093
$GNGGA,060059.50,3411.92710245,N,12007.43132472,W,2,12,0.9,7.011,M,-36.848,M,4.4,0135*6F
$PYRTM,2024,123.250688779942,14.360336190093
$GNHDT,282.033,T*23
$PYRTM,2024,123.250694622986,14.360342033125
$GNGGA,060100.00,3411.92730266,N,12007.43201173,W,2,12,0.9,7.695,M,-36.848,M,5.0,0135*6C
$PYRTM,2024,123.250694622986,14.360342033125
$GNHDT,282.498,T*26
$PYRTM,2024,123.250700356204,14.360347766343
$GNGGA,060100.50,3411.92749592,N,12007.43277959,W,2,12,0.9,8.469,M,-36.848,M,5.4,0135*60
$PYRTM,2024,123.250700356204,14.360347766343
$GNHDT,282.183,T*29
$PYRTM,2024,123.250706184294,14.360353594433
$GNGGA,060101.00,3411.92768203,N,12007.43366623,W,2,12,0.9,9.133,M,-36.848,M,6.0,0135*67
$PYRTM,2024,123.250706184294,14.360353594433
$GNHDT,281.958,T*24
$PYRTM,2024,123.250711925486,14.360359335625
$GNGGA,060101.50,3411.92784920,N,12007.43465894,W,2,12,0.9,9.505,M,-36.848,M,6.4,0135*69
$PYRTM,2024,123.250711925486,14.360359335625
$GNHDT,281.969,T*26
$PYRTM,2024,123.250717769502,14.360365179641
$GNGGA,060102.00,3411.92796971,N,12007.43568676,W,2,12,0.9,9.563,M,-36.848,M,7.0,0135*63
$PYRTM,2024,123.250717769502,14.360365179641
$GNHDT,281.824,T*2E
$PYRTM,2024,123.250723500475,14.360370910625
$GNGGA,060102.50,3411.92805695,N,12007.43667914,W,2,12,0.9,9.388,M,-36.848,M,7.4,0135*66
$PYRTM,2024,123.250723500475,14.360370910625
$GNHDT,282.059,T*2F
$PYRTM,2024,123.250729338657,14.360376748796
$GNGGA,060103.00,3411.92813592,N,12007.43759071,W,2,12,0.9,9.111,M,-36.848,M,7.0,0135*61
$PYRTM,2024,123.250729338657,14.360376748796
$GNHDT,282.246,T*23
$PYRTM,2024,123.250735074711,14.360382484850
$GNGGA,060103.50,3411.92823545,N,12007.43841104,W,2,12,0.9,8.855,M,-36.848,M,7.4,0135*64
$PYRTM,2024,123.250735074711,14.360382484850
$GNHDT,282.339,T*2A
$PYRTM,2024,123.250740909167,14.360388319306
$GNGGA,060104.00,3411.92838895,N,12007.43915783,W,2,12,0.9,8.694,M,-36.848,M,7.0,0135*62
$PYRTM,2024,123.250740909167,14.360388319306
$GNHDT,282.416,T*20
$PYRTM,2024,123.250746648727,14.360394058866
$GNGGA,060104.50,3411.92859660,N,12007.43987768,W,2,12,0.9,8.664,M,-36.848,M,7.4,0135*61
$PYRTM,2024,123.250746648727,14.360394058866
$GNHDT,282.408,T*2F
$PYRTM,2024,123.250752492384,14.360399902512
$GNGGA,060105.00,3411.92881365,N,12007.44060075,W,2,12,0.9,8.746,M,-36.848,M,4.0,0135*6A
$PYRTM,2024,123.250752492384,14.360399902512
$GNHDT,282.286,T*2F
$PYRTM,2024,123.250758229919,14.360405640058
$GNGGA,060105.50,3411.92900660,N,12007.44134042,W,2,12,0.9,8.911,M,-36.848,M,4.4,0135*6B
$PYRTM,2024,123.250758229919,14.360405640058
$GNHDT,282.080,T*2B
$PYRTM,2024,123.250764060023,14.360411470162
$GNGGA,060106.00,3411.92917679,N,12007.44209694,W,2,12,0.9,9.071,M,-36.848,M,5.0,0135*68
$PYRTM,2024,123.250764060023,14.360411470162
$GNHDT,281.932,T*28
$PYRTM,2024,123.250769793044,14.360417203194
$GNGGA,060106.50,3411.92932261,N,12007.44290934,W,2,12,0.9,9.144,M,-36.848,M,5.4,0135*61
$PYRTM,2024,123.250769793044,14.360417203194
$GNHDT,282.190,T*2B
$PYRTM,2024,123.250775631609,14.360423041748
$GNGGA,060107.00,3411.92944818,N,12007.44383179,W,2,12,0.9,8.935,M,-36.848,M,6.0,0135*6A
$PYRTM,2024,123.250775631609,14.360423041748
$GNHDT,282.129,T*29
$PYRTM,2024,123.250781370382,14.360428780521
$GNGGA,060107.50,3411.92957550,N,12007.44484871,W,2,12,0.9,8.527,M,-36.848,M,6.4,0135*66
$PYRTM,2024,123.250781370382,14.360428780521
$GNHDT,282.169,T*2D
$PYRTM,2024,123.250787209456,14.360434619595
$GNGGA,060108.00,3411.92969333,N,12007.44589968,W,2,12,0.9,7.992,M,-36.848,M,7.0,0135*6F
$PYRTM,2024,123.250787209456,14.360434619595
$GNHDT,282.141,T*27
$PYRTM,2024,123.250792941829,14.360440351968
$GNGGA,060108.50,3411.92981056,N,12007.44691279,W,2,12,0.9,7.579,M,-36.848,M,7.4,0135*60
$PYRTM,2024,123.250792941829,14.360440351968
$GNHDT,281.790,T*2E
$PYRTM,2024,123.250798784421,14.360446194560
$GNGGA,060109.00,3411.92995700,N,12007.44783141,W,2,12,0.9,7.482,M,-36.848,M,7.0,0135*6E
$PYRTM,2024,123.250798784421,14.360446194560
$GNHDT,282.089,T*22
$PYRTM,2024,123.250804524178,14.360451934317
$GNGGA,060109.50,3411.93015243,N,12007.44866298,W,2,12,0.9,7.665,M,-36.848,M,7.4,0135*65
$PYRTM,2024,123.250804524178,14.360451934317
$GNHDT,282.058,T*2E
$PYRTM,2024,123.250810363449,14.360457773588
$GNGGA,060110.00,3411.93038504,N,12007.44942784,W,2,12,0.9,8.103,M,-36.848,M,7.0,0135*60
$PYRTM,2024,123.250810363449,14.360457773588
$GNHDT,282.591,T*2E
$PYRTM,2024,123.250816093634,14.360463503785
$GNGGA,060110.50,3411.93062702,N,12007.45019419,W,2,12,0.9,8.658,M,-36.848,M,7.4,0135*62
$PYRTM,2024,123.250816093634,14.360463503785
$GNHDT,282.624,T*23
$PYRTM,2024,123.250821928137,14.360469338275
$GNGGA,060111.00,3411.93085156,N,12007.45100953,W,2,12,0.9,9.175,M,-36.848,M,4.0,0135*6C
$PYRTM,2024,123.250821928137,14.360469338275
$GNHDT,282.617,T*23
$PYRTM,2024,123.250827662951,14.360475073090
$GNGGA,060111.50,3411.93103939,N,12007.45190921,W,2,12,0.9,9.478,M,-36.848,M,4.4,0135*67
$PYRTM,2024,123.250827662951,14.360475073090
$GNHDT,281.993,T*23
$PYRTM,2024,123.250833506875,14.360480917014
$GNGGA,060112.00,3411.93118518,N,12007.45290495,W,2,12,0.9,9.457,M,-36.848,M,5.0,0135*6D
$PYRTM,2024,123.250833506875,14.360480917014
$GNHDT,281.431,T*26
$PYRTM,2024,123.250839244606,14.360486654745
$GNGGA,060112.50,3411.93130761,N,12007.45393680,W,2,12,0.9,9.187,M,-36.848,M,5.4,0135*66
$PYRTM,2024,123.250839244606,14.360486654745
$GNHDT,281.807,T*2F
$PYRTM,2024,123.250845081227,14.360492491354
$GNGGA,060113.00,3411.93141106,N,12007.45495597,W,2,12,0.9,8.796,M,-36.848,M,6.0,0135*67
$PYRTM,2024,123.250845081227,14.360492491354
$GNHDT,282.143,T*25
$PYRTM,2024,123.250850809780,14.360498219919
$GNGGA,060113.50,3411.93152931,N,12007.45587895,W,2,12,0.9,8.502,M,-36.848,M,6.4,0135*6A
$PYRTM,2024,123.250850809780,14.360498219919
$GNHDT,281.788,T*27
$PYRTM,2024,123.250856651227,14.360504061366
$GNGGA,060114.00,3411.93167014,N,12007.45667709,W,2,12,0.9,8.494,M,-36.848,M,7.0,0135*6C
$PYRTM,2024,123.250856651227,14.360504061366
$GNHDT,281.830,T*2B
$PYRTM,2024,123.250862397697,14.360509807836
$GNGGA,060114.50,3411.93182765,N,12007.45738074,W,2,12,0.9,8.728,M,-36.848,M,7.4,0135*65
$PYRTM,2024,123.250862397697,14.360509807836
$GNHDT,281.699,T*26
$PYRTM,2024,123.250868219838,14.360515629977
$GNGGA,060115.00,3411.93199242,N,12007.45806805,W,2,12,0.9,9.114,M,-36.848,M,7.0,0135*6B
$PYRTM,2024,123.250868219838,14.360515629977
$GNHDT,281.534,T*22
$PYRTM,2024,123.250873960532,14.360521370671
$GNGGA,060115.50,3411.93215786,N,12007.45886872,W,2,12,0.9,9.293,M,-36.848,M,7.4,0135*64
$PYRTM,2024,123.250873960532,14.360521370671
$GNHDT,280.990,T*21
$PYRTM,2024,123.250879799711,14.360527209850
$GNGGA,060116.00,3411.93233181,N,12007.45984505,W,2,12,0.9,9.050,M,-36.848,M,7.0,0135*60
$PYRTM,2024,123.250879799711,14.360527209850
$GNHDT,280.390,T*2B
$PYRTM,2024,123.250885534931,14.360532945069
$GNGGA,060116.50,3411.93249809,N,12007.46092908,W,2,12,0.9,8.483,M,-36.848,M,7.4,0135*62
$PYRTM,2024,123.250885534931,14.360532945069
$GNHDT,280.453,T*23
$PYRTM,2024,123.250891375787,14.360538785926
$GNGGA,060117.00,3411.93263775,N,12007.46200689,W,2,12,0.9,7.852,M,-36.848,M,4.0,0135*6D
$PYRTM,2024,123.250891375787,14.360538785926
$GNHDT,280.359,T*2E
$PYRTM,2024,123.250897107546,14.360544517685
$GNGGA,060117.50,3411.93274485,N,12007.46298373,W,2,12,0.9,7.474,M,-36.848,M,4.4,0135*6F
$PYRTM,2024,123.250897107546,14.360544517685
$GNHDT,280.456,T*26
$PYRTM,2024,123.250902952176,14.360550362326
$GNGGA,060118.00,3411.93284730,N,12007.46379494,W,2,12,0.9,7.602,M,-36.848,M,5.0,0135*61
$PYRTM,2024,123.250902952176,14.360550362326
$GNHDT,280.617,T*21
$PYRTM,2024,123.250908690428,14.360556100567
$GNGGA,060118.50,3411.93296030,N,12007.46449550,W,2,12,0.9,8.051,M,-36.848,M,5.4,0135*66
$PYRTM,2024,123.250908690428,14.360556100567
$GNHDT,280.566,T*24
$PYRTM,2024,123.250914528588,14.360561938727
$GNGGA,060119.00,3411.93310608,N,12007.46514686,W,2,12,0.9,8.707,M,-36.848,M,6.0,0135*62
$PYRTM,2024,123.250914528588,14.360561938727
$GNHDT,281.018,T*29
$PYRTM,2024,123.250920260567,14.360567670706
$GNGGA,060119.50,3411.93329037,N,12007.46585191,W,2,12,0.9,9.249,M,-36.848,M,6.4,0135*64
$PYRTM,2024,123.250920260567,14.360567670706
$GNHDT,281.211,T*22
$PYRTM,2024,123.250926094225,14.360573504363
$GNGGA,060120.00,3411.93351487,N,12007.46667966,W,2,12,0.9,9.448,M,-36.848,M,7.0,0135*66
$PYRTM,2024,123.250926094225,14.360573504363
$GNHDT,281.562,T*21
$PYRTM,2024,123.250931834259,14.360579244398
$GNGGA,060120.50,3411.93375114,N,12007.46762611,W,2,12,0.9,9.231,M,-36.848,M,7.4,0135*6D
$PYRTM,2024,123.250931834259,14.360579244398
$GNHDT,281.203,T*21
$PYRTM,2024,123.250937668519,14.360585078657
$GNGGA,060121.00,3411.93394075,N,12007.46861387,W,2,12,0.9,8.791,M,-36.848,M,7.0,0135*6C
$PYRTM,2024,123.250937668519,14.360585078657
$GNHDT,281.113,T*23
$PYRTM,2024,123.250943402824,14.360590812963
$GNGGA,060121.50,3411.93404995,N,12007.46955141,W,2,12,0.9,8.371,M,-36.848,M,7.4,0135*60
$PYRTM,2024,123.250943402824,14.360590812963
$GNHDT,280.842,T*2F
$PYRTM,2024,123.250949243009,14.360596653160
$GNGGA,060122.00,3411.93410118,N,12007.47043626,W,2,12,0.9,8.118,M,-36.848,M,7.0,0135*6E
$PYRTM,2024,123.250949243009,14.360596653160
$GNHDT,280.632,T*26
$PYRTM,2024,123.250954981933,14.360602392072
$GNGGA,060122.50,3411.93412521,N,12007.47126433,W,2,12,0.9,8.111,M,-36.848,M,7.4,0135*6E
$PYRTM,2024,123.250954981933,14.360602392072
$GNHDT,280.545,T*25
$PYRTM,2024,123.250960811667,14.360608221806
$GNGGA,060123.00,3411.93416918,N,12007.47206864,W,2,12,0.9,8.290,M,-36.848,M,4.0,0135*6A
$PYRTM,2024,123.250960811667,14.360608221806
$GNHDT,280.272,T*26
$PYRTM,2024,123.250966551597,14.360613961736
$GNGGA,060123.50,3411.93428292,N,12007.47286485,W,2,12,0.9,8.545,M,-36.848,M,4.4,0135*6B
$PYRTM,2024,123.250966551597,14.360613961736
$GNHDT,280.435,T*23
$PYRTM,2024,123.250972394155,14.360619804294
$GNGGA,060124.00,3411.93448494,N,12007.47364907,W,2,12,0.9,8.822,M,-36.848,M,5.0,0135*6C
$PYRTM,2024,123.250972394155,14.360619804294
$GNHDT,280.832,T*28
$PYRTM,2024,123.250978126586,14.360625536736
$GNGGA,060124.50,3411.93474421,N,12007.47442744,W,2,12,0.9,9.039,M,-36.848,M,5.4,0135*65
$PYRTM,2024,123.250978126586,14.360625536736
$GNHDT,281.030,T*23
$PYRTM,2024,123.250983971343,14.360631381481
$GNGGA,060125.00,3411.93502019,N,12007.47524529,W,2,12,0.9,9.134,M,-36.848,M,6.0,0135*6D
$PYRTM,2024,123.250983971343,14.360631381481
$GNHDT,281.125,T*26
$PYRTM,2024,123.250989698484,14.360637108623
$GNGGA,060125.50,3411.93525833,N,12007.47613216,W,2,12,0.9,9.063,M,-36.848,M,6.4,0135*66
$PYRTM,2024,123.250989698484,14.360637108623
$GNHDT,281.104,T*25
$PYRTM,2024,123.250995540081,14.360642950220
$GNGGA,060126.00,3411.93542726,N,12007.47709510,W,2,12,0.9,8.834,M,-36.848,M,7.0,0135*6F
$PYRTM,2024,123.250995540081,14.360642950220
$GNHDT,280.732,T*27
$PYRTM,2024,123.251001279595,14.360648689734
$GNGGA,060126.50,3411.93553484,N,12007.47809374,W,2,12,0.9,8.531,M,-36.848,M,7.4,0135*66
$PYRTM,2024,123.251001279595,14.360648689734
$GNHDT,280.619,T*2F
$PYRTM,2024,123.251007113657,14.360654523796
$GNGGA,060127.00,3411.93558040,N,12007.47909913,W,2,12,0.9,8.229,M,-36.848,M,7.0,0135*65
$PYRTM,2024,123.251007113657,14.360654523796
$GNHDT,280.432,T*24
$PYRTM,2024,123.251012850197,14.360660260347
$GNGGA,060127.50,3411.93559408,N,12007.48006999,W,2,12,0.9,8.053,M,-36.848,M,7.4,0135*69
$PYRTM,2024,123.251012850197,14.360660260347
$GNHDT,280.461,T*22
$PYRTM,2024,123.251018689699,14.360666099838
$GNGGA,060128.00,3411.93561763,N,12007.48098948,W,2,12,0.9,8.040,M,-36.848,M,7.0,0135*6B
$PYRTM,2024,123.251018689699,14.360666099838
$GNHDT,280.594,T*29
$PYRTM,2024,123.251024425579,14.360671835718
$GNGGA,060128.50,3411.93570885,N,12007.48184847,W,2,12,0.9,8.172,M,-36.848,M,7.4,0135*6F
$PYRTM,2024,123.251024425579,14.360671835718
$GNHDT,281.178,T*2E
$PYRTM,2024,123.251030266377,14.360677676516
$GNGGA,060129.00,3411.93590168,N,12007.48267789,W,2,12,0.9,8.401,M,-36.848,M,4.0,0135*6A
$PYRTM,2024,123.251030266377,14.360677676516
$GNHDT,281.306,T*25
$PYRTM,2024,123.251035996817,14.360683406968
$GNGGA,060129.50,3411.93617973,N,12007.48349812,W,2,12,0.9,8.650,M,-36.848,M,4.4,0135*63
$PYRTM,2024,123.251035996817,14.360683406968
$GNHDT,281.386,T*2D
$PYRTM,2024,123.251041839468,14.360689249606
$GNGGA,060130.00,3411.93647898,N,12007.48431375,W,2,12,0.9,8.899,M,-36.848,M,5.0,0135*63
$PYRTM,2024,123.251041839468,14.360689249606
$GNHDT,281.507,T*22
$PYRTM,2024,123.251047569549,14.360694979688
$GNGGA,060130.50,3411.93674924,N,12007.48513931,W,2,12,0.9,9.120,M,-36.848,M,5.4,0135*65
$PYRTM,2024,123.251047569549,14.360694979688
$GNHDT,281.333,T*23
$PYRTM,2024,123.251053407824,14.360700817963
$GNGGA,060131.00,3411.93694679,N,12007.48600072,W,2,12,0.9,9.281,M,-36.848,M,6.0,0135*68
$PYRTM,2024,123.251053407824,14.360700817963
$GNHDT,281.111,T*21
$PYRTM,2024,123.251059145000,14.360706555150
$GNGGA,060131.50,3411.93706373,N,12007.48693746,W,2,12,0.9,9.278,M,-36.848,M,6.4,0135*60
$PYRTM,2024,123.251059145000,14.360706555150
$GNHDT,280.756,T*25
$PYRTM,2024,123.251064991111,14.360712401250
$GNGGA,060132.00,3411.93711319,N,12007.48793462,W,2,12,0.9,9.047,M,-36.848,M,7.0,0135*63
$PYRTM,2024,123.251064991111,14.360712401250
$GNHDT,280.561,T*23
$PYRTM,2024,123.251070721979,14.360718132118
$GNGGA,060132.50,3411.93711991,N,12007.48895712,W,2,12,0.9,8.678,M,-36.848,M,7.4,0135*6E
$PYRTM,2024,123.251070721979,14.360718132118
$GNHDT,280.364,T*20
$PYRTM,2024,123.251076559120,14.360723969259
$GNGGA,060133.00,3411.93713078,N,12007.48998090,W,2,12,0.9,8.276,M,-36.848,M,7.0,0135*69
$PYRTM,2024,123.251076559120,14.360723969259
$GNHDT,280.432,T*24
$PYRTM,2024,123.251082290926,14.360729701065
$GNGGA,060133.50,3411.93720217,N,12007.49095209,W,2,12,0.9,7.968,M,-36.848,M,7.4,0135*6F
$PYRTM,2024,123.251082290926,14.360729701065
$GNHDT,280.493,T*2F
$PYRTM,2024,123.251088135266,14.360735545405
$GNGGA,060134.00,3411.93736542,N,12007.49183052,W,2,12,0.9,7.920,M,-36.848,M,7.0,0135*6F
$PYRTM,2024,123.251088135266,14.360735545405
$GNHDT,280.583,T*2F
$PYRTM,2024,123.251093875914,14.360741286053
$GNGGA,060134.50,3411.93757265,N,12007.49261559,W,2,12,0.9,8.185,M,-36.848,M,7.4,0135*62
$PYRTM,2024,123.251093875914,14.360741286053
$GNHDT,280.654,T*26
$PYRTM,2024,123.251099700544,14.360747110683
$GNGGA,060135.00,3411.93777986,N,12007.49335769,W,2,12,0.9,8.695,M,-36.848,M,4.0,0135*62
$PYRTM,2024,123.251099700544,14.360747110683
$GNHDT,279.928,T*24
$PYRTM,2024,123.251105443148,14.360752853287
$GNGGA,060135.50,3411.93796759,N,12007.49411959,W,2,12,0.9,9.262,M,-36.848,M,4.4,0135*61
$PYRTM,2024,123.251105443148,14.360752853287
$GNHDT,279.333,T*24
$PYRTM,2024,123.251111276910,14.360758687049
$GNGGA,060136.00,3411.93810745,N,12007.49497279,W,2,12,0.9,9.663,M,-36.848,M,5.0,0135*6C
$PYRTM,2024,123.251111276910,14.360758687049
$GNHDT,278.976,T*2E
$PYRTM,2024,123.251117013970,14.360764424109
$GNGGA,060136.50,3411.93820283,N,12007.49596168,W,2,12,0.9,9.631,M,-36.848,M,5.4,0135*65
$PYRTM,2024,123.251117013970,14.360764424109
$GNHDT,279.263,T*20
$PYRTM,2024,123.251122862813,14.360770272951
$GNGGA,060137.00,3411.93829216,N,12007.49705298,W,2,12,0.9,9.101,M,-36.848,M,6.0,0135*63
$PYRTM,2024,123.251122862813,14.360770272951
$GNHDT,279.551,T*26
$PYRTM,2024,123.251128591736,14.360776001875
$GNGGA,060137.50,3411.93838906,N,12007.49815035,W,2,12,0.9,8.319,M,-36.848,M,6.4,0135*69
$PYRTM,2024,123.251128591736,14.360776001875
$GNHDT,279.669,T*2E
$PYRTM,2024,123.251134427859,14.360781837998
$GNGGA,060138.00,3411.93850137,N,12007.49915049,W,2,12,0.9,7.675,M,-36.848,M,7.0,0135*68
$PYRTM,2024,123.251134427859,14.360781837998
$GNHDT,279.771,T*26
$PYRTM,2024,123.251140162315,14.360787572454
$GNGGA,060138.50,3411.93860207,N,12007.50001923,W,2,12,0.9,7.433,M,-36.848,M,7.4,0135*6B
$PYRTM,2024,123.251140162315,14.360787572454
$GNHDT,279.641,T*24
$PYRTM,2024,123.251146009178,14.360793419317
$GNGGA,060139.00,3411.93868492,N,12007.50076766,W,2,12,0.9,7.726,M,-36.848,M,7.0,0135*61
$PYRTM,2024,123.251146009178,14.360793419317
$GNHDT,279.376,T*25
$PYRTM,2024,123.251151741007,14.360799151146
$GNGGA,060139.50,3411.93874362,N,12007.50146101,W,2,12,0.9,8.365,M,-36.848,M,7.4,0135*6C
$PYRTM,2024,123.251151741007,14.360799151146
$GNHDT,278.906,T*29
$PYRTM,2024,123.251157576921,14.360804987060
$GNGGA,060140.00,3411.93880484,N,12007.50218265,W,2,12,0.9,9.118,M,-36.848,M,7.0,0135*67
$PYRTM,2024,123.251157576921,14.360804987060
$GNHDT,278.583,T*28
$PYRTM,2024,123.251163307002,14.360810717141
$GNGGA,060140.50,3411.93887121,N,12007.50299784,W,2,12,0.9,9.711,M,-36.848,M,7.4,0135*67
$PYRTM,2024,123.251163307002,14.360810717141
$GNHDT,278.335,T*23
$PYRTM,2024,123.251169148437,14.360816558576
$GNGGA,060141.00,3411.93894682,N,12007.50392626,W,2,12,0.9,9.978,M,-36.848,M,4.0,0135*6A
$PYRTM,2024,123.251169148437,14.360816558576
$GNHDT,278.331,T*27
$PYRTM,2024,123.251174882975,14.360822293113
$GNGGA,060141.50,3411.93902365,N,12007.50489090,W,2,12,0.9,9.927,M,-36.848,M,4.4,0135*65
$PYRTM,2024,123.251174882975,14.360822293113
$GNHDT,277.879,T*2F
$PYRTM,2024,123.251180729410,14.360828139560
$GNGGA,060142.00,3411.93909841,N,12007.50585659,W,2,12,0.9,9.545,M,-36.848,M,5.0,0135*66
$PYRTM,2024,123.251180729410,14.360828139560
$GNHDT,277.986,T*2E
$PYRTM,2024,123.251186462593,14.360833872731
$GNGGA,060142.50,3411.93917196,N,12007.50681789,W,2,12,0.9,8.979,M,-36.848,M,5.4,0135*62
$PYRTM,2024,123.251186462593,14.360833872731
$GNHDT,277.980,T*28
$PYRTM,2024,123.251192294167,14.360839704317
$GNGGA,060143.00,3411.93925686,N,12007.50775790,W,2,12,0.9,8.334,M,-36.848,M,6.0,0135*67
$PYRTM,2024,123.251192294167,14.360839704317
$GNHDT,278.070,T*21
$PYRTM,2024,123.251198028403,14.360845438542
$GNGGA,060143.50,3411.93937791,N,12007.50867294,W,2,12,0.9,7.782,M,-36.848,M,6.4,0135*69
$PYRTM,2024,123.251198028403,14.360845438542
$GNHDT,278.416,T*25
$PYRTM,2024,123.251203870035,14.360851280174
$GNGGA,060144.00,3411.93952413,N,12007.50954074,W,2,12,0.9,7.517,M,-36.848,M,7.0,0135*67
$PYRTM,2024,123.251203870035,14.360851280174
$GNHDT,279.031,T*25
$PYRTM,2024,123.251209612257,14.360857022396
$GNGGA,060144.50,3411.93966298,N,12007.51036250,W,2,12,0.9,7.624,M,-36.848,M,7.4,0135*6F
$PYRTM,2024,123.251209612257,14.360857022396
$GNHDT,279.525,T*25
$PYRTM,2024,123.251215442998,14.360862853137
$GNGGA,060145.00,3411.93977266,N,12007.51116306,W,2,12,0.9,8.008,M,-36.848,M,7.0,0135*68
$PYRTM,2024,123.251215442998,14.360862853137
$GNHDT,279.826,T*2B
$PYRTM,2024,123.251221179780,14.360868589919
$GNGGA,060145.50,3411.93986277,N,12007.51196383,W,2,12,0.9,8.573,M,-36.848,M,7.4,0135*6B
$PYRTM,2024,123.251221179780,14.360868589919
$GNHDT,279.509,T*2B
$PYRTM,2024,123.251227017500,14.360874427650
$GNGGA,060146.00,3411.93993872,N,12007.51279701,W,2,12,0.9,9.166,M,-36.848,M,7.0,0135*6F
$PYRTM,2024,123.251227017500,14.360874427650
$GNHDT,279.532,T*23
$PYRTM,2024,123.251232756007,14.360880166157
$GNGGA,060146.50,3411.94001914,N,12007.51365938,W,2,12,0.9,9.642,M,-36.848,M,7.4,0135*63
$PYRTM,2024,123.251232756007,14.360880166157
$GNHDT,279.477,T*23
$PYRTM,2024,123.251238592037,14.360886002176
$GNGGA,060147.00,3411.94009056,N,12007.51456054,W,2,12,0.9,9.854,M,-36.848,M,4.0,0135*6A
$PYRTM,2024,123.251238592037,14.360886002176
$GNHDT,279.739,T*2A
$PYRTM,2024,123.251244326944,14.360891737095
$GNGGA,060147.50,3411.94015806,N,12007.51551261,W,2,12,0.9,9.730,M,-36.848,M,4.4,0135*64
$PYRTM,2024,123.251244326944,14.360891737095
$GNHDT,280.090,T*28
$PYRTM,2024,123.251250166655,14.360897576794
$GNGGA,060148.00,3411.94022563,N,12007.51650826,W,2,12,0.9,9.261,M,-36.848,M,5.0,0135*6B
$PYRTM,2024,123.251250166655,14.360897576794
$GNHDT,279.952,T*29
$PYRTM,2024,123.251255904560,14.360903314699
$GNGGA,060148.50,3411.94029614,N,12007.51749231,W,2,12,0.9,8.640,M,-36.848,M,5.4,0135*61
$PYRTM,2024,123.251255904560,14.360903314699
$GNHDT,279.537,T*26
$PYRTM,2024,123.251261741944,14.360909152083
$GNGGA,060149.00,3411.94037065,N,12007.51843009,W,2,12,0.9,8.056,M,-36.848,M,6.0,0135*60
$PYRTM,2024,123.251261741944,14.360909152083
$GNHDT,279.384,T*28
$PYRTM,2024,123.251267473009,14.360914883148
$GNGGA,060149.50,3411.94047127,N,12007.51929401,W,2,12,0.9,7.703,M,-36.848,M,6.4,0135*68
$PYRTM,2024,123.251267473009,14.360914883148
$GNHDT,279.801,T*2E
$PYRTM,2024,123.251273317326,14.360920727465
$GNGGA,060150.00,3411.94061113,N,12007.52007416,W,2,12,0.9,7.712,M,-36.848,M,7.0,0135*63
$PYRTM,2024,123.251273317326,14.360920727465
$GNHDT,280.303,T*21
$PYRTM,2024,123.251279056076,14.360926466215
$GNGGA,060150.50,3411.94077373,N,12007.52079858,W,2,12,0.9,8.048,M,-36.848,M,7.4,0135*69
$PYRTM,2024,123.251279056076,14.360926466215
$GNHDT,280.985,T*25
$PYRTM,2024,123.251284894051,14.360932304190
$GNGGA,060151.00,3411.94095009,N,12007.52152519,W,2,12,0.9,8.539,M,-36.848,M,7.0,0135*68
$PYRTM,2024,123.251284894051,14.360932304190
$GNHDT,281.426,T*20
$PYRTM,2024,123.251290623183,14.360938033333
$GNGGA,060151.50,3411.94114105,N,12007.52233234,W,2,12,0.9,9.006,M,-36.848,M,7.4,0135*68
$PYRTM,2024,123.251290623183,14.360938033333
$GNHDT,281.474,T*27
$PYRTM,2024,123.251296459850,14.360943869988
$GNGGA,060152.00,3411.94133511,N,12007.52327262,W,2,12,0.9,9.218,M,-36.848,M,7.0,0135*64
$PYRTM,2024,123.251296459850,14.360943869988
$GNHDT,281.445,T*25
$PYRTM,2024,123.251302196296,14.360949606435
$GNGGA,060152.50,3411.94149018,N,12007.52428836,W,2,12,0.9,9.196,M,-36.848,M,7.4,0135*62
$PYRTM,2024,123.251302196296,14.360949606435
$GNHDT,281.404,T*20
$PYRTM,2024,123.251308039306,14.360955449444
$GNGGA,060153.00,3411.94158904,N,12007.52533858,W,2,12,0.9,9.016,M,-36.848,M,4.0,0135*6F
$PYRTM,2024,123.251308039306,14.360955449444
$GNHDT,281.277,T*22
$PYRTM,2024,123.251313771192,14.360961181331
$GNGGA,060153.50,3411.94163585,N,12007.52637003,W,2,12,0.9,8.785,M,-36.848,M,4.4,0135*6E
$PYRTM,2024,123.251313771192,14.360961181331
$GNHDT,281.381,T*2A
$PYRTM,2024,123.251319610394,14.360967020532
$GNGGA,060154.00,3411.94167927,N,12007.52732746,W,2,12,0.9,8.654,M,-36.848,M,5.0,0135*66
$PYRTM,2024,123.251319610394,14.360967020532
$GNHDT,281.490,T*2D
$PYRTM,2024,123.251325345023,14.360972755162
$GNGGA,060154.50,3411.94175964,N,12007.52817266,W,2,12,0.9,8.684,M,-36.848,M,5.4,0135*61
$PYRTM,2024,123.251325345023,14.360972755162
$GNHDT,281.523,T*24
$PYRTM,2024,123.251331189780,14.360978599919
$GNGGA,060155.00,3411.94189708,N,12007.52892078,W,2,12,0.9,8.886,M,-36.848,M,6.0,0135*69
$PYRTM,2024,123.251331189780,14.360978599919
$GNHDT,281.694,T*2B
$PYRTM,2024,123.251336926296,14.360984336447
$GNGGA,060155.50,3411.94207462,N,12007.52965849,W,2,12,0.9,9.122,M,-36.848,M,6.4,0135*67
$PYRTM,2024,123.251336926296,14.360984336447
$GNHDT,281.459,T*28
$PYRTM,2024,123.251342763692,14.360990173831
$GNGGA,060156.00,3411.94228770,N,12007.53046343,W,2,12,0.9,9.205,M,-36.848,M,7.0,0135*67
$PYRTM,2024,123.251342763692,14.360990173831
$GNHDT,281.296,T*2D
$PYRTM,2024,123.251348497500,14.360995907639
$GNGGA,060156.50,3411.94251958,N,12007.53139854,W,2,12,0.9,8.970,M,-36.848,M,7.4,0135*60
$PYRTM,2024,123.251348497500,14.360995907639
$GNHDT,281.255,T*22
$PYRTM,2024,123.251354336678,14.361001746817
$GNGGA,060157.00,3411.94273350,N,12007.53241795,W,2,12,0.9,8.531,M,-36.848,M,7.0,0135*65
$PYRTM,2024,123.251354336678,14.361001746817
$GNHDT,281.308,T*2B
$PYRTM,2024,123.251360067407,14.361007477558
$GNGGA,060157.50,3411.94289233,N,12007.53343395,W,2,12,0.9,8.105,M,-36.848,M,7.4,0135*61
$PYRTM,2024,123.251360067407,14.361007477558
$GNHDT,281.661,T*21
$PYRTM,2024,123.251365903021,14.361013313160
$GNGGA,060158.00,3411.94299429,N,12007.53439232,W,2,12,0.9,7.901,M,-36.848,M,7.0,0135*66
$PYRTM,2024,123.251365903021,14.361013313160
$GNHDT,281.639,T*2C
$PYRTM,2024,123.251371641944,14.361019052083
$GNGGA,060158.50,3411.94305203,N,12007.53524335,W,2,12,0.9,8.039,M,-36.848,M,7.4,0135*6B
$PYRTM,2024,123.251371641944,14.361019052083
$GNHDT,281.632,T*27
$PYRTM,2024,123.251377483600,14.361024893738
$GNGGA,060159.00,3411.94307866,N,12007.53603322,W,2,12,0.9,8.432,M,-36.848,M,4.0,0135*6C
$PYRTM,2024,123.251377483600,14.361024893738
$GNHDT,281.469,T*2B
$PYRTM,2024,123.251383211273,14.361030621412
$GNGGA,060159.50,3411.94310099,N,12007.53681919,W,2,12,0.9,8.944,M,-36.848,M,4.4,0135*67
$PYRTM,2024,123.251383211273,14.361030621412
$GNHDT,281.078,T*2F
$PYRTM,2024,123.251389062384,14.361036472523
$GNGGA,060200.00,3411.94314891,N,12007.53763917,W,2,12,0.9,9.399,M,-36.848,M,5.0,0135*64
$PYRTM,2024,123.251389062384,14.361036472523
$GNHDT,280.992,T*23
$PYRTM,2024,123.251394787118,14.361042197257
$GNGGA,060200.50,3411.94325610,N,12007.53849546,W,2,12,0.9,9.651,M,-36.848,M,5.4,0135*6E
$PYRTM,2024,123.251394787118,14.361042197257
$GNHDT,280.909,T*21
$PYRTM,2024,123.251400623877,14.361048034016
$GNGGA,060201.00,3411.94343303,N,12007.53938895,W,2,12,0.9,9.624,M,-36.848,M,6.0,0135*6C
$PYRTM,2024,123.251400623877,14.361048034016
$GNHDT,280.865,T*2A
$PYRTM,2024,123.251406362083,14.361053772222
$GNGGA,060201.50,3411.94364943,N,12007.54031743,W,2,12,0.9,9.311,M,-36.848,M,6.4,0135*66
$PYRTM,2024,123.251406362083,14.361053772222
$GNHDT,280.644,T*27
$PYRTM,2024,123.251412207315,14.361059617454
$GNGGA,060202.00,3411.94386819,N,12007.54128202,W,2,12,0.9,8.793,M,-36.848,M,7.0,0135*61
$PYRTM,2024,123.251412207315,14.361059617454
$GNHDT,280.342,T*24
$PYRTM,2024,123.251417939375,14.361065349525
$GNGGA,060202.50,3411.94405425,N,12007.54227177,W,2,12,0.9,8.202,M,-36.848,M,7.4,0135*6F
$PYRTM,2024,123.251417939375,14.361065349525
$GNHDT,280.150,T*25
$PYRTM,2024,123.251423781655,14.361071191794
$GNGGA,060203.00,3411.94417334,N,12007.54326577,W,2,12,0.9,7.770,M,-36.848,M,7.0,0135*60
$PYRTM,2024,123.251423781655,14.361071191794
$GNHDT,280.054,T*20
$PYRTM,2024,123.251429512303,14.361076922442
$GNGGA,060203.50,3411.94422977,N,12007.54423439,W,2,12,0.9,7.653,M,-36.848,M,7.4,0135*63
$PYRTM,2024,123.251429512303,14.361076922442
$GNHDT,279.892,T*24
$PYRTM,2024,123.251435360255,14.361082770394
$GNGGA,060204.00,3411.94427583,N,12007.54514174,W,2,12,0.9,7.868,M,-36.848,M,7.0,0135*68
$PYRTM,2024,123.251435360255,14.361082770394
$GNHDT,279.886,T*21
$PYRTM,2024,123.251441084549,14.361088494699
$GNGGA,060204.50,3411.94435357,N,12007.54597364,W,2,12,0.9,8.343,M,-36.848,M,7.4,0135*60
$PYRTM,2024,123.251441084549,14.361088494699
$GNHDT,280.533,T*24
$PYRTM,2024,123.251446930671,14.361094340810
$GNGGA,060205.00,3411.94444993,N,12007.54672023,W,2,12,0.9,9.034,M,-36.848,M,4.0,0135*6D
$PYRTM,2024,123.251446930671,14.361094340810
$GNHDT,280.289,T*22
$PYRTM,2024,123.251452657685,14.361100067824
$GNGGA,060205.50,3411.94455572,N,12007.54744799,W,2,12,0.9,9.759,M,-36.848,M,4.4,0135*61
$PYRTM,2024,123.251452657685,14.361100067824
$GNHDT,279.882,T*25
$PYRTM,2024,123.251458496782,14.361105906921
$GNGGA,060206.00,3411.94466543,N,12007.54826341,W,2,12,0.9,10.270,M,-36.848,M,5.0,0135*5C
$PYRTM,2024,123.251458496782,14.361105906921
$GNHDT,279.533,T*22
$PYRTM,2024,123.251464237685,14.361111647824
$GNGGA,060206.50,3411.94480196,N,12007.54923179,W,2,12,0.9,10.169,M,-36.848,M,5.4,0135*5F
$PYRTM,2024,123.251464237685,14.361111647824
$GNHDT,279.270,T*22
$PYRTM,2024,123.251470080694,14.361117490833
$GNGGA,060207.00,3411.94495188,N,12007.55028255,W,2,12,0.9,9.529,M,-36.848,M,6.0,0135*61
$PYRTM,2024,123.251470080694,14.361117490833
$GNHDT,279.158,T*2B
$PYRTM,2024,123.251475811065,14.361123221204
$GNGGA,060207.50,3411.94508808,N,12007.55130964,W,2,12,0.9,8.605,M,-36.848,M,6.4,0135*69
$PYRTM,2024,123.251475811065,14.361123221204
$GNHDT,279.441,T*26
$PYRTM,2024,123.251481645347,14.361129055498
$GNGGA,060208.00,3411.94518807,N,12007.55225169,W,2,12,0.9,7.792,M,-36.848,M,7.0,0135*6A
$PYRTM,2024,123.251481645347,14.361129055498
$GNHDT,279.572,T*27
$PYRTM,2024,123.251487381389,14.361134791539
$GNGGA,060208.50,3411.94524721,N,12007.55307951,W,2,12,0.9,7.373,M,-36.848,M,7.4,0135*66
$PYRTM,2024,123.251487381389,14.361134791539
$GNHDT,279.587,T*2D
$PYRTM,2024,123.251493225579,14.361140635718
$GNGGA,060209.00,3411.94528796,N,12007.55382414,W,2,12,0.9,7.469,M,-36.848,M,7.0,0135*6B
$PYRTM,2024,123.251493225579,14.361140635718
$GNHDT,279.549,T*2F
$PYRTM,2024,123.251498961933,14.361146372072
$GNGGA,060209.50,3411.94532531,N,12007.55453247,W,2,12,0.9,7.919,M,-36.848,M,7.4,0135*6F
$PYRTM,2024,123.251498961933,14.361146372072
$GNHDT,279.487,T*2C
$PYRTM,2024,123.251504796563,14.361152206701
$GNGGA,060210.00,3411.94537261,N,12007.55527953,W,2,12,0.9,8.552,M,-36.848,M,7.0,0135*61
$PYRTM,2024,123.251504796563,14.361152206701
$GNHDT,279.009,T*2E
$PYRTM,2024,123.251510527731,14.361157937870
$GNGGA,060210.50,3411.94543003,N,12007.55610059,W,2,12,0.9,9.162,M,-36.848,M,7.4,0135*67
$PYRTM,2024,123.251510527731,14.361157937870
$GNHDT,278.923,T*2E
$PYRTM,2024,123.251516370197,14.361163780347
$GNGGA,060211.00,3411.94550373,N,12007.55702067,W,2,12,0.9,9.556,M,-36.848,M,4.0,0135*6E
$PYRTM,2024,123.251516370197,14.361163780347
$GNHDT,278.799,T*21
$PYRTM,2024,123.251522107465,14.361169517604
$GNGGA,060211.50,3411.94561110,N,12007.55802373,W,2,12,0.9,9.595,M,-36.848,M,4.4,0135*6C
$PYRTM,2024,123.251522107465,14.361169517604
$GNHDT,278.680,T*28
$PYRTM,2024,123.251527948461,14.361175358600
$GNGGA,060212.00,3411.94574745,N,12007.55906968,W,2,12,0.9,9.246,M,-36.848,M,5.0,0135*61
$PYRTM,2024,123.251527948461,14.361175358600
$GNHDT,278.830,T*2D
$PYRTM,2024,123.251533677234,14.361181087373
$GNGGA,060212.50,3411.94589864,N,12007.56007103,W,2,12,0.9,8.753,M,-36.848,M,5.4,0135*60
$PYRTM,2024,123.251533677234,14.361181087373
$GNHDT,278.821,T*2D
$PYRTM,2024,123.251539516134,14.361186926273
$GNGGA,060213.00,3411.94604713,N,12007.56098709,W,2,12,0.9,8.336,M,-36.848,M,6.0,0135*67
$PYRTM,2024,123.251539516134,14.361186926273
$GNHDT,279.037,T*23
$PYRTM,2024,123.251545251424,14.361192661562
$GNGGA,060213.50,3411.94617323,N,12007.56178335,W,2,12,0.9,8.260,M,-36.848,M,6.4,0135*65
$PYRTM,2024,123.251545251424,14.361192661562
$GNHDT,279.397,T*2A
$PYRTM,2024,123.251551103437,14.361198513576
$GNGGA,060214.00,3411.94626265,N,12007.56246992,W,2,12,0.9,8.576,M,-36.848,M,7.0,0135*6A
$PYRTM,2024,123.251551103437,14.361198513576
$GNHDT,279.489,T*22
$PYRTM,2024,123.251556824618,14.361204234757
$GNGGA,060214.50,3411.94630398,N,12007.56311654,W,2,12,0.9,9.154,M,-36.848,M,7.4,0135*6C
$PYRTM,2024,123.251556824618,14.361204234757
$GNHDT,279.592,T*29
$PYRTM,2024,123.251562670081,14.361210080220
$GNGGA,060215.00,3411.94632150,N,12007.56377769,W,2,12,0.9,9.770,M,-36.848,M,7.0,0135*67
$PYRTM,2024,123.251562670081,14.361210080220
$GNHDT,279.293,T*2F
$PYRTM,2024,123.251568398738,14.361215808877
$GNGGA,060215.50,3411.94634183,N,12007.56451844,W,2,12,0.9,10.184,M,-36.848,M,7.4,0135*58
$PYRTM,2024,123.251568398738,14.361215808877
$GNHDT,279.036,T*22
$PYRTM,2024,123.251574247847,14.361221657986
$GNGGA,060216.00,3411.94638730,N,12007.56540228,W,2,12,0.9,10.097,M,-36.848,M,7.0,0135*5A
$PYRTM,2024,123.251574247847,14.361221657986
$GNHDT,278.715,T*25
$PYRTM,2024,123.251579976389,14.361227386539
$GNGGA,060216.50,3411.94646447,N,12007.56640539,W,2,12,0.9,9.494,M,-36.848,M,7.4,0135*6A
$PYRTM,2024,123.251579976389,14.361227386539
$GNHDT,278.833,T*2E
$PYRTM,2024,123.251585824086,14.361233234225
$GNGGA,060217.00,3411.94656098,N,12007.56743675,W,2,12,0.9,8.537,M,-36.848,M,4.0,0135*6E
$PYRTM,2024,123.251585824086,14.361233234225
$GNHDT,279.230,T*26
$PYRTM,2024,123.251591548322,14.361238958461
$GNGGA,060217.50,3411.94668055,N,12007.56840919,W,2,12,0.9,7.626,M,-36.848,M,4.4,0135*66
$PYRTM,2024,123.251591548322,14.361238958461
$GNHDT,279.187,T*29
$PYRTM,2024,123.251597390336,14.361244800475
$GNGGA,060218.00,3411.94681408,N,12007.56926305,W,2,12,0.9,7.064,M,-36.848,M,5.0,0135*64
$PYRTM,2024,123.251597390336,14.361244800475
$GNHDT,279.326,T*20
$PYRTM,2024,123.251603128113,14.361250538252
$GNGGA,060218.50,3411.94694032,N,12007.56998687,W,2,12,0.9,7.091,M,-36.848,M,5.4,0135*6C
$PYRTM,2024,123.251603128113,14.361250538252
$GNHDT,279.669,T*2E
$PYRTM,2024,123.251608968808,14.361256378947
$GNGGA,060219.00,3411.94703909,N,12007.57063080,W,2,12,0.9,7.625,M,-36.848,M,6.0,0135*65
$PYRTM,2024,123.251608968808,14.361256378947
$GNHDT,279.929,T*25
$PYRTM,2024,123.251614702859,14.361262112998
$GNGGA,060219.50,3411.94709093,N,12007.57129169,W,2,12,0.9,8.404,M,-36.848,M,6.4,0135*63
$PYRTM,2024,123.251614702859,14.361262112998
$GNHDT,279.831,T*2D
$PYRTM,2024,123.251620538032,14.361267948171
$GNGGA,060220.00,3411.94712381,N,12007.57203883,W,2,12,0.9,9.170,M,-36.848,M,7.0,0135*62
$PYRTM,2024,123.251620538032,14.361267948171
$GNHDT,279.909,T*27
$PYRTM,2024,123.251626265764,14.361273675914
$GNGGA,060220.50,3411.94715708,N,12007.57293454,W,2,12,0.9,9.609,M,-36.848,M,7.4,0135*67
$PYRTM,2024,123.251626265764,14.361273675914
$GNHDT,279.311,T*24
$PYRTM,2024,123.251632106551,14.361279516690
$GNGGA,060221.00,3411.94721897,N,12007.57392032,W,2,12,0.9,9.639,M,-36.848,M,7.0,0135*6E
$PYRTM,2024,123.251632106551,14.361279516690
$GNHDT,279.479,T*2D
$PYRTM,2024,123.251637849213,14.361285259352
$GNGGA,060221.50,3411.94729945,N,12007.57489682,W,2,12,0.9,9.376,M,-36.848,M,7.4,0135*67
$PYRTM,2024,123.251637849213,14.361285259352
$GNHDT,279.372,T*21
$PYRTM,2024,123.251643682801,14.361291092951
$GNGGA,060222.00,3411.94738563,N,12007.57580968,W,2,12,0.9,9.001,M,-36.848,M,7.0,0135*6D
$PYRTM,2024,123.251643682801,14.361291092951
$GNHDT,279.608,T*29
$PYRTM,2024,123.251649414201,14.361296824340
$GNGGA,060222.50,3411.94746955,N,12007.57662028,W,2,12,0.9,8.764,M,-36.848,M,7.4,0135*6B
$PYRTM,2024,123.251649414201,14.361296824340
$GNHDT,279.696,T*2E
$PYRTM,2024,123.251655254109,14.361302664248
$GNGGA,060223.00,3411.94755650,N,12007.57734064,W,2,12,0.9,8.743,M,-36.848,M,4.0,0135*6F
$PYRTM,2024,123.251655254109,14.361302664248
$GNHDT,279.547,T*21
$PYRTM,2024,123.251660997153,14.361308407303
$GNGGA,060223.50,3411.94765581,N,12007.57799504,W,2,12,0.9,8.904,M,-36.848,M,4.4,0135*6B
$PYRTM,2024,123.251660997153,14.361308407303
$GNHDT,279.387,T*2B
$PYRTM,2024,123.251666832558,14.361314242697
$GNGGA,060224.00,3411.94776714,N,12007.57864373,W,2,12,0.9,9.143,M,-36.848,M,5.0,0135*61
$PYRTM,2024,123.251666832558,14.361314242697
$GNHDT,279.467,T*22
$PYRTM,2024,123.251672567998,14.361319978148
$GNGGA,060224.50,3411.94789452,N,12007.57938297,W,2,12,0.9,9.241,M,-36.848,M,5.4,0135*63
$PYRTM,2024,123.251672567998,14.361319978148
$GNHDT,279.793,T*2A
$PYRTM,2024,123.251678403727,14.361325813866
$GNGGA,060225.00,3411.94803195,N,12007.58026175,W,2,12,0.9,9.041,M,-36.848,M,6.0,0135*67
$PYRTM,2024,123.251678403727,14.361325813866
$GNHDT,280.146,T*22
$PYRTM,2024,123.251684141528,14.361331551667
$GNGGA,060225.50,3411.94817083,N,12007.58121999,W,2,12,0.9,8.646,M,-36.848,M,6.4,0135*69
$PYRTM,2024,123.251684141528,14.361331551667
$GNHDT,279.935,T*28
$PYRTM,2024,123.251689977222,14.361337387361
$GNGGA,060226.00,3411.94828554,N,12007.58217086,W,2,12,0.9,8.270,M,-36.848,M,7.0,0135*69
$PYRTM,2024,123.251689977222,14.361337387361
$GNHDT,279.683,T*2A
$PYRTM,2024,123.251695711470,14.361343121609
$GNGGA,060226.50,3411.94835226,N,12007.58302761,W,2,12,0.9,8.151,M,-36.848,M,7.4,0135*6D
$PYRTM,2024,123.251695711470,14.361343121609
$GNHDT,279.595,T*2E
$PYRTM,2024,123.251701556713,14.361348966852
$GNGGA,060227.00,3411.94837293,N,12007.58375985,W,2,12,0.9,8.369,M,-36.848,M,7.0,0135*6C
$PYRTM,2024,123.251701556713,14.361348966852
$GNHDT,279.394,T*29
$PYRTM,2024,123.251707289873,14.361354700012
$GNGGA,060227.50,3411.94837645,N,12007.58442995,W,2,12,0.9,8.768,M,-36.848,M,7.4,0135*65
$PYRTM,2024,123.251707289873,14.361354700012
$GNHDT,279.438,T*28
$PYRTM,2024,123.251713133414,14.361360543553
$GNGGA,060228.00,3411.94841359,N,12007.58512307,W,2,12,0.9,9.141,M,-36.848,M,7.0,0135*6B
$PYRTM,2024,123.251713133414,14.361360543553
$GNHDT,279.682,T*2B
$PYRTM,2024,123.251718866771,14.361366276910
$GNGGA,060228.50,3411.94850794,N,12007.58594680,W,2,12,0.9,9.204,M,-36.848,M,7.4,0135*69
$PYRTM,2024,123.251718866771,14.361366276910
$GNHDT,279.912,T*2D
$PYRTM,2024,123.251724703900,14.361372114039
