$PYRTM,2024,127.666666918576,18.776314328715
$GNGGA,160000.00,3338.93972257,N,11858.29236927,W,2,14,0.8,8.587,M,-37.884,M,4.0,0131*67
$PYRTM,2024,127.666666918576,18.776314328715
$GNHDT,269.801,T*2F
$PYRTM,2024,127.666672646262,18.776320056400
$GNGGA,160000.50,3338.93966819,N,11858.29273850,W,2,14,0.8,8.706,M,-37.884,M,4.4,0131*68
$PYRTM,2024,127.666672646262,18.776320056400
$GNHDT,269.738,T*2A
$PYRTM,2024,127.666678488380,18.776325898519
$GNGGA,160001.00,3338.93961714,N,11858.29314568,W,2,14,0.8,8.677,M,-37.884,M,5.0,0131*6D
$PYRTM,2024,127.666678488380,18.776325898519
$GNHDT,269.581,T*2A
$PYRTM,2024,127.666684214942,18.776331625069
$GNGGA,160001.50,3338.93957796,N,11858.29354200,W,2,14,0.8,8.579,M,-37.884,M,5.4,0131*63
$PYRTM,2024,127.666684214942,18.776331625069
$GNHDT,269.410,T*23
$PYRTM,2024,127.666690059873,18.776337470012
$GNGGA,160002.00,3338.93955148,N,11858.29389999,W,2,14,0.8,8.505,M,-37.884,M,6.0,0131*65
$PYRTM,2024,127.666690059873,18.776337470012
$GNHDT,269.472,T*27
$PYRTM,2024,127.666695790718,18.776343200856
$GNGGA,160002.50,3338.93955399,N,11858.29421414,W,2,14,0.8,8.466,M,-37.884,M,6.4,0131*63
$PYRTM,2024,127.666695790718,18.776343200856
$GNHDT,269.624,T*26
$PYRTM,2024,127.666701636354,18.776349046493
$GNGGA,160003.00,3338.93958509,N,11858.29448878,W,2,14,0.8,8.509,M,-37.884,M,7.0,0131*61
$PYRTM,2024,127.666701636354,18.776349046493
$GNHDT,269.700,T*21
$PYRTM,2024,127.666707369965,18.776354780116
$GNGGA,160003.50,3338.93964473,N,11858.29474512,W,2,14,0.8,8.597,M,-37.884,M,7.4,0131*6A
$PYRTM,2024,127.666707369965,18.776354780116
$GNHDT,269.868,T*20
$PYRTM,2024,127.666713206296,18.776360616435
$GNGGA,160004.00,3338.93970508,N,11858.29501286,W,2,14,0.8,8.657,M,-37.884,M,7.0,0131*62
$PYRTM,2024,127.666713206296,18.776360616435
$GNHDT,269.766,T*21
$PYRTM,2024,127.666718940579,18.776366350718
$GNGGA,160004.50,3338.93973751,N,11858.29531995,W,2,14,0.8,8.687,M,-37.884,M,7.4,0131*69
$PYRTM,2024,127.666718940579,18.776366350718
$GNHDT,269.666,T*20
$PYRTM,2024,127.666724782257,18.776372192396
$GNGGA,160005.00,3338.93973473,N,11858.29566953,W,2,14,0.8,8.656,M,-37.884,M,7.0,0131*6E
$PYRTM,2024,127.666724782257,18.776372192396
$GNHDT,269.701,T*20
$PYRTM,2024,127.666730516262,18.776377926412
$GNGGA,160005.50,3338.93970922,N,11858.29604134,W,2,14,0.8,8.624,M,-37.884,M,7.4,0131*6E
$PYRTM,2024,127.666730516262,18.776377926412
$GNHDT,269.771,T*27
$PYRTM,2024,127.666736355544,18.776383765683
$GNGGA,160006.00,3338.93967514,N,11858.29640045,W,2,14,0.8,8.613,M,-37.884,M,4.0,0131*63
$PYRTM,2024,127.666736355544,18.776383765683
$GNHDT,269.699,T*20
$PYRTM,2024,127.666742085914,18.776389496065
$GNGGA,160006.50,3338.93965272,N,11858.29673575,W,2,14,0.8,8.640,M,-37.884,M,4.4,0131*67
$PYRTM,2024,127.666742085914,18.776389496065
$GNHDT,269.880,T*26
$PYRTM,2024,127.666747932025,18.776395342176
$GNGGA,160007.00,3338.93964605,N,11858.29705078,W,2,14,0.8,8.705,M,-37.884,M,5.0,0131*6B
$PYRTM,2024,127.666747932025,18.776395342176
$GNHDT,269.798,T*20
$PYRTM,2024,127.666753665683,18.776401075822
$GNGGA,160007.50,3338.93965303,N,11858.29736651,W,2,14,0.8,8.750,M,-37.884,M,5.4,0131*65
$PYRTM,2024,127.666753665683,18.776401075822
$GNHDT,269.649,T*2D
$PYRTM,2024,127.666759505903,18.776406916042
$GNGGA,160008.00,3338.93967258,N,11858.29769822,W,2,14,0.8,8.740,M,-37.884,M,6.0,0131*64
$PYRTM,2024,127.666759505903,18.776406916042
$GNHDT,269.683,T*2B
$PYRTM,2024,127.666765234144,18.776412644282
$GNGGA,160008.50,3338.93969853,N,11858.29804958,W,2,14,0.8,8.689,M,-37.884,M,6.4,0131*66
$PYRTM,2024,127.666765234144,18.776412644282
$GNHDT,269.386,T*2B
$PYRTM,2024,127.666771077581,18.776418487720
$GNGGA,160009.00,3338.93972954,N,11858.29841539,W,2,14,0.8,8.615,M,-37.884,M,7.0,0131*64
$PYRTM,2024,127.666771077581,18.776418487720
$GNHDT,269.318,T*2C
$PYRTM,2024,127.666776808414,18.776424218565
$GNGGA,160009.50,3338.93975820,N,11858.29877011,W,2,14,0.8,8.577,M,-37.884,M,7.4,0131*6D
$PYRTM,2024,127.666776808414,18.776424218565
$GNHDT,269.499,T*22
$PYRTM,2024,127.666782650509,18.776430060648
$GNGGA,160010.00,3338.93977775,N,11858.29909139,W,2,14,0.8,8.620,M,-37.884,M,7.0,0131*6B
$PYRTM,2024,127.666782650509,18.776430060648
$GNHDT,269.690,T*29
$PYRTM,2024,127.666788383437,18.776435793576
$GNGGA,160010.50,3338.93978021,N,11858.29937414,W,2,14,0.8,8.740,M,-37.884,M,7.4,0131*63
$PYRTM,2024,127.666788383437,18.776435793576
$GNHDT,269.774,T*22
$PYRTM,2024,127.666794224745,18.776441634896
$GNGGA,160011.00,3338.93976095,N,11858.29964336,W,2,14,0.8,8.913,M,-37.884,M,7.0,0131*6B
$PYRTM,2024,127.666794224745,18.776441634896
$GNHDT,269.833,T*2E
$PYRTM,2024,127.666799961238,18.776447371389
$GNGGA,160011.50,3338.93973393,N,11858.29992356,W,2,14,0.8,9.017,M,-37.884,M,7.4,0131*69
$PYRTM,2024,127.666799961238,18.776447371389
$GNHDT,269.565,T*20
$PYRTM,2024,127.666805802894,18.776453213032
$GNGGA,160012.00,3338.93970561,N,11858.30024425,W,2,14,0.8,8.986,M,-37.884,M,4.0,0131*6F
$PYRTM,2024,127.666805802894,18.776453213032
$GNHDT,269.536,T*26
$PYRTM,2024,127.666811531562,18.776458941690
$GNGGA,160012.50,3338.93968785,N,11858.30060589,W,2,14,0.8,8.791,M,-37.884,M,4.4,0131*60
$PYRTM,2024,127.666811531562,18.776458941690
$GNHDT,269.671,T*26
$PYRTM,2024,127.666817375486,18.776464785625
$GNGGA,160013.00,3338.93968569,N,11858.30098991,W,2,14,0.8,8.474,M,-37.884,M,5.0,0131*6B
$PYRTM,2024,127.666817375486,18.776464785625
$GNHDT,269.671,T*26
$PYRTM,2024,127.666823105058,18.776470515208
$GNGGA,160013.50,3338.93968475,N,11858.30136563,W,2,14,0.8,8.148,M,-37.884,M,5.4,0131*68
$PYRTM,2024,127.666823105058,18.776470515208
$GNHDT,269.705,T*24
$PYRTM,2024,127.666828947303,18.776476357454
$GNGGA,160014.00,3338.93967211,N,11858.30172720,W,2,14,0.8,7.907,M,-37.884,M,6.0,0131*6F
$PYRTM,2024,127.666828947303,18.776476357454
$GNHDT,269.646,T*22
$PYRTM,2024,127.666834681134,18.776482091273
$GNGGA,160014.50,3338.93964411,N,11858.30207345,W,2,14,0.8,7.817,M,-37.884,M,6.4,0131*6D
$PYRTM,2024,127.666834681134,18.776482091273
$GNHDT,269.673,T*24
$PYRTM,2024,127.666840525903,18.776487936042
$GNGGA,160015.00,3338.93961347,N,11858.30240701,W,2,14,0.8,7.871,M,-37.884,M,7.0,0131*6A
$PYRTM,2024,127.666840525903,18.776487936042
$GNHDT,269.613,T*22
$PYRTM,2024,127.666846253414,18.776493663565
$GNGGA,160015.50,3338.93959692,N,11858.30273849,W,2,14,0.8,8.019,M,-37.884,M,7.4,0131*67
$PYRTM,2024,127.666846253414,18.776493663565
$GNHDT,269.544,T*23
$PYRTM,2024,127.666852095208,18.776499505347
$GNGGA,160016.00,3338.93959858,N,11858.30308475,W,2,14,0.8,8.188,M,-37.884,M,7.0,0131*6A
$PYRTM,2024,127.666852095208,18.776499505347
$GNHDT,269.627,T*25
$PYRTM,2024,127.666857828854,18.776505238993
$GNGGA,160016.50,3338.93960422,N,11858.30344343,W,2,14,0.8,8.350,M,-37.884,M,7.4,0131*6D
$PYRTM,2024,127.666857828854,18.776505238993
$GNHDT,269.730,T*22
$PYRTM,2024,127.666863673704,18.776511083843
$GNGGA,160017.00,3338.93960238,N,11858.30380461,W,2,14,0.8,8.513,M,-37.884,M,7.0,0131*6E
$PYRTM,2024,127.666863673704,18.776511083843
$GNHDT,269.687,T*2F
$PYRTM,2024,127.666869403252,18.776516813391
$GNGGA,160017.50,3338.93958894,N,11858.30416972,W,2,14,0.8,8.627,M,-37.884,M,7.4,0131*6B
$PYRTM,2024,127.666869403252,18.776516813391
$GNHDT,269.688,T*20
$PYRTM,2024,127.666875246192,18.776522656331
$GNGGA,160018.00,3338.93955431,N,11858.30454493,W,2,14,0.8,8.694,M,-37.884,M,4.0,0131*64
$PYRTM,2024,127.666875246192,18.776522656331
$GNHDT,269.560,T*25
$PYRTM,2024,127.666880974340,18.776528384479
$GNGGA,160018.50,3338.93949577,N,11858.30491467,W,2,14,0.8,8.713,M,-37.884,M,4.4,0131*67
$PYRTM,2024,127.666880974340,18.776528384479
$GNHDT,269.561,T*24
$PYRTM,2024,127.666886818322,18.776534228461
$GNGGA,160019.00,3338.93942646,N,11858.30526626,W,2,14,0.8,8.719,M,-37.884,M,5.0,0131*6C
$PYRTM,2024,127.666886818322,18.776534228461
$GNHDT,269.645,T*21
$PYRTM,2024,127.666892551181,18.776539961331
$GNGGA,160019.50,3338.93936287,N,11858.30558241,W,2,14,0.8,8.758,M,-37.884,M,5.4,0131*6E
$PYRTM,2024,127.666892551181,18.776539961331
$GNHDT,269.156,T*24
$PYRTM,2024,127.666898398380,18.776545808530
$GNGGA,160020.00,3338.93931699,N,11858.30586350,W,2,14,0.8,8.822,M,-37.884,M,6.0,0131*6A
$PYRTM,2024,127.666898398380,18.776545808530
$GNHDT,269.093,T*2C
$PYRTM,2024,127.666904123287,18.776551533437
$GNGGA,160020.50,3338.93930268,N,11858.30613094,W,2,14,0.8,8.894,M,-37.884,M,6.4,0131*69
$PYRTM,2024,127.666904123287,18.776551533437
$GNHDT,269.148,T*2B
$PYRTM,2024,127.666909966852,18.776557376991
$GNGGA,160021.00,3338.93933112,N,11858.30641984,W,2,14,0.8,8.919,M,-37.884,M,7.0,0131*6E
$PYRTM,2024,127.666909966852,18.776557376991
$GNHDT,269.256,T*27
$PYRTM,2024,127.666915701921,18.776563112060
$GNGGA,160021.50,3338.93939401,N,11858.30675628,W,2,14,0.8,8.840,M,-37.884,M,7.4,0131*61
$PYRTM,2024,127.666915701921,18.776563112060
$GNHDT,269.576,T*22
$PYRTM,2024,127.666921547164,18.776568957315
$GNGGA,160022.00,3338.93947664,N,11858.30713778,W,2,14,0.8,8.664,M,-37.884,M,7.0,0131*66
$PYRTM,2024,127.666921547164,18.776568957315
$GNHDT,269.710,T*20
$PYRTM,2024,127.666927271736,18.776574681887
$GNGGA,160022.50,3338.93954664,N,11858.30754807,W,2,14,0.8,8.487,M,-37.884,M,7.4,0131*6E
$PYRTM,2024,127.666927271736,18.776574681887
$GNHDT,269.807,T*29
$PYRTM,2024,127.666933117546,18.776580527697
$GNGGA,160023.00,3338.93958624,N,11858.30796318,W,2,14,0.8,8.378,M,-37.884,M,7.0,0131*6A
$PYRTM,2024,127.666933117546,18.776580527697
$GNHDT,269.588,T*23
$PYRTM,2024,127.666938852616,18.776586262755
$GNGGA,160023.50,3338.93958979,N,11858.30834746,W,2,14,0.8,8.424,M,-37.884,M,7.4,0131*6A
$PYRTM,2024,127.666938852616,18.776586262755
$GNHDT,269.551,T*27
$PYRTM,2024,127.666944690787,18.776592100937
$GNGGA,160024.00,3338.93956168,N,11858.30868734,W,2,14,0.8,8.620,M,-37.884,M,4.0,0131*63
$PYRTM,2024,127.666944690787,18.776592100937
$GNHDT,269.337,T*21
$PYRTM,2024,127.666950421331,18.776597831470
$GNGGA,160024.50,3338.93950974,N,11858.30898675,W,2,14,0.8,8.917,M,-37.884,M,4.4,0131*61
$PYRTM,2024,127.666950421331,18.776597831470
$GNHDT,269.400,T*22
$PYRTM,2024,127.666956263762,18.776603673912
$GNGGA,160025.00,3338.93944922,N,11858.30927006,W,2,14,0.8,9.236,M,-37.884,M,5.0,0131*68
$PYRTM,2024,127.666956263762,18.776603673912
$GNHDT,269.180,T*2F
$PYRTM,2024,127.666961994734,18.776609404873
$GNGGA,160025.50,3338.93940687,N,11858.30956359,W,2,14,0.8,9.471,M,-37.884,M,5.4,0131*67
$PYRTM,2024,127.666961994734,18.776609404873
$GNHDT,269.103,T*24
$PYRTM,2024,127.666967839120,18.776615249259
$GNGGA,160026.00,3338.93940142,N,11858.30988707,W,2,14,0.8,9.509,M,-37.884,M,6.0,0131*6A
$PYRTM,2024,127.666967839120,18.776615249259
$GNHDT,269.186,T*29
$PYRTM,2024,127.666973572350,18.776620982488
$GNGGA,160026.50,3338.93944718,N,11858.31024680,W,2,14,0.8,9.333,M,-37.884,M,6.4,0131*69
$PYRTM,2024,127.666973572350,18.776620982488
$GNHDT,269.179,T*29
$PYRTM,2024,127.666979410741,18.776626820880
$GNGGA,160027.00,3338.93952106,N,11858.31063032,W,2,14,0.8,8.984,M,-37.884,M,7.0,0131*6D
$PYRTM,2024,127.666979410741,18.776626820880
$GNHDT,269.255,T*24
$PYRTM,2024,127.666985149352,18.776632559491
$GNGGA,160027.50,3338.93960377,N,11858.31102251,W,2,14,0.8,8.520,M,-37.884,M,7.4,0131*6A
$PYRTM,2024,127.666985149352,18.776632559491
$GNHDT,269.309,T*2C
$PYRTM,2024,127.666990988137,18.776638398275
$GNGGA,160028.00,3338.93965569,N,11858.31140580,W,2,14,0.8,8.079,M,-37.884,M,7.0,0131*6C
$PYRTM,2024,127.666990988137,18.776638398275
$GNHDT,269.219,T*2C
$PYRTM,2024,127.666996716366,18.776644126505
$GNGGA,160028.50,3338.93965472,N,11858.31176815,W,2,14,0.8,7.816,M,-37.884,M,7.4,0131*6C
$PYRTM,2024,127.666996716366,18.776644126505
$GNHDT,269.166,T*27
$PYRTM,2024,127.667002563854,18.776649973993
$GNGGA,160029.00,3338.93960622,N,11858.31209531,W,2,14,0.8,7.760,M,-37.884,M,7.0,0131*60
$PYRTM,2024,127.667002563854,18.776649973993
$GNHDT,268.912,T*2D
$PYRTM,2024,127.667008292130,18.776655702269
$GNGGA,160029.50,3338.93953943,N,11858.31239970,W,2,14,0.8,7.910,M,-37.884,M,7.4,0131*6A
$PYRTM,2024,127.667008292130,18.776655702269
$GNHDT,268.829,T*24
$PYRTM,2024,127.667014135475,18.776661545613
$GNGGA,160030.00,3338.93946282,N,11858.31270496,W,2,14,0.8,8.168,M,-37.884,M,4.0,0131*62
$PYRTM,2024,127.667014135475,18.776661545613
$GNHDT,269.091,T*2E
$PYRTM,2024,127.667019866308,18.776667276447
$GNGGA,160030.50,3338.93939355,N,11858.31303334,W,2,14,0.8,8.418,M,-37.884,M,4.4,0131*68
$PYRTM,2024,127.667019866308,18.776667276447
$GNHDT,269.159,T*2B
$PYRTM,2024,127.667025713472,18.776673123611
$GNGGA,160031.00,3338.93935571,N,11858.31338751,W,2,14,0.8,8.621,M,-37.884,M,5.0,0131*62
$PYRTM,2024,127.667025713472,18.776673123611
$GNHDT,269.457,T*20
$PYRTM,2024,127.667031444051,18.776678854190
$GNGGA,160031.50,3338.93936240,N,11858.31376234,W,2,14,0.8,8.690,M,-37.884,M,5.4,0131*63
$PYRTM,2024,127.667031444051,18.776678854190
$GNHDT,269.735,T*27
$PYRTM,2024,127.667037283438,18.776684693576
$GNGGA,160032.00,3338.93940721,N,11858.31415282,W,2,14,0.8,8.663,M,-37.884,M,6.0,0131*62
$PYRTM,2024,127.667037283438,18.776684693576
$GNHDT,269.609,T*29
$PYRTM,2024,127.667043015532,18.776690425671
$GNGGA,160032.50,3338.93946466,N,11858.31454428,W,2,14,0.8,8.523,M,-37.884,M,6.4,0131*61
$PYRTM,2024,127.667043015532,18.776690425671
$GNHDT,269.731,T*23
$PYRTM,2024,127.667048858623,18.776696268762
$GNGGA,160033.00,3338.93950715,N,11858.31492486,W,2,14,0.8,8.339,M,-37.884,M,7.0,0131*63
$PYRTM,2024,127.667048858623,18.776696268762
$GNHDT,269.411,T*22
$PYRTM,2024,127.667054588935,18.776701999074
$GNGGA,160033.50,3338.93950554,N,11858.31528028,W,2,14,0.8,8.232,M,-37.884,M,7.4,0131*6F
$PYRTM,2024,127.667054588935,18.776701999074
$GNHDT,269.083,T*2D
$PYRTM,2024,127.667060429630,18.776707839769
$GNGGA,160034.00,3338.93944880,N,11858.31559936,W,2,14,0.8,8.245,M,-37.884,M,7.0,0131*68
$PYRTM,2024,127.667060429630,18.776707839769
$GNHDT,268.886,T*21
$PYRTM,2024,127.667066160313,18.776713570451
$GNGGA,160034.50,3338.93935091,N,11858.31589830,W,2,14,0.8,8.407,M,-37.884,M,7.4,0131*6D
$PYRTM,2024,127.667066160313,18.776713570451
$GNHDT,269.409,T*2B
$PYRTM,2024,127.667072002674,18.776719412813
$GNGGA,160035.00,3338.93924080,N,11858.31620001,W,2,14,0.8,8.612,M,-37.884,M,7.0,0131*61
$PYRTM,2024,127.667072002674,18.776719412813
$GNHDT,269.629,T*2B
$PYRTM,2024,127.667077737407,18.776725147546
$GNGGA,160035.50,3338.93915338,N,11858.31652231,W,2,14,0.8,8.792,M,-37.884,M,7.4,0131*6F
$PYRTM,2024,127.667077737407,18.776725147546
$GNHDT,269.566,T*23
$PYRTM,2024,127.667083580567,18.776730990718
$GNGGA,160036.00,3338.93911666,N,11858.31687373,W,2,14,0.8,8.880,M,-37.884,M,4.0,0131*67
$PYRTM,2024,127.667083580567,18.776730990718
$GNHDT,269.629,T*2B
$PYRTM,2024,127.667089310498,18.776736720637
$GNGGA,160036.50,3338.93913934,N,11858.31724717,W,2,14,0.8,8.881,M,-37.884,M,4.4,0131*63
$PYRTM,2024,127.667089310498,18.776736720637
$GNHDT,269.614,T*25
$PYRTM,2024,127.667095150880,18.776742561019
$GNGGA,160037.00,3338.93921577,N,11858.31763307,W,2,14,0.8,8.791,M,-37.884,M,5.0,0131*60
$PYRTM,2024,127.667095150880,18.776742561019
$GNHDT,269.908,T*27
$PYRTM,2024,127.667100886296,18.776748296435
$GNGGA,160037.50,3338.93930586,N,11858.31802284,W,2,14,0.8,8.681,M,-37.884,M,5.4,0131*6D
$PYRTM,2024,127.667100886296,18.776748296435
$GNHDT,269.930,T*2C
$PYRTM,2024,127.667106725139,18.776754135289
$GNGGA,160038.00,3338.93938717,N,11858.31840141,W,2,14,0.8,8.589,M,-37.884,M,6.0,0131*65
$PYRTM,2024,127.667106725139,18.776754135289
$GNHDT,269.971,T*29
$PYRTM,2024,127.667112465231,18.776759875370
$GNGGA,160038.50,3338.93943479,N,11858.31877205,W,2,14,0.8,8.540,M,-37.884,M,6.4,0131*61
$PYRTM,2024,127.667112465231,18.776759875370
$GNHDT,269.776,T*20
$PYRTM,2024,127.667118304178,18.776765714317
$GNGGA,160039.00,3338.93943942,N,11858.31913565,W,2,14,0.8,8.566,M,-37.884,M,7.0,0131*63
$PYRTM,2024,127.667118304178,18.776765714317
$GNHDT,269.941,T*2A
$PYRTM,2024,127.667124032569,18.776771442708
$GNGGA,160039.50,3338.93940712,N,11858.31948859,W,2,14,0.8,8.664,M,-37.884,M,7.4,0131*67
$PYRTM,2024,127.667124032569,18.776771442708
$GNHDT,270.021,T*2D
$PYRTM,2024,127.667129874456,18.776777284595
$GNGGA,160040.00,3338.93935394,N,11858.31982939,W,2,14,0.8,8.813,M,-37.884,M,7.0,0131*6F
$PYRTM,2024,127.667129874456,18.776777284595
$GNHDT,270.043,T*29
$PYRTM,2024,127.667135611898,18.776783022037
$GNGGA,160040.50,3338.93930590,N,11858.32016533,W,2,14,0.8,8.982,M,-37.884,M,7.4,0131*61
$PYRTM,2024,127.667135611898,18.776783022037
$GNHDT,270.162,T*2B
$PYRTM,2024,127.667141448854,18.776788858993
$GNGGA,160041.00,3338.93928098,N,11858.32050565,W,2,14,0.8,9.141,M,-37.884,M,7.0,0131*62
$PYRTM,2024,127.667141448854,18.776788858993
$GNHDT,270.108,T*27
$PYRTM,2024,127.667147185567,18.776794595706
$GNGGA,160041.50,3338.93928612,N,11858.32084986,W,2,14,0.8,9.233,M,-37.884,M,7.4,0131*69
$PYRTM,2024,127.667147185567,18.776794595706
$GNHDT,269.642,T*26
$PYRTM,2024,127.667153026933,18.776800437083
$GNGGA,160042.00,3338.93932171,N,11858.32120976,W,2,14,0.8,9.229,M,-37.884,M,4.0,0131*6A
$PYRTM,2024,127.667153026933,18.776800437083
$GNHDT,269.668,T*2E
$PYRTM,2024,127.667158758866,18.776806169005
$GNGGA,160042.50,3338.93937167,N,11858.32157260,W,2,14,0.8,9.140,M,-37.884,M,4.4,0131*69
$PYRTM,2024,127.667158758866,18.776806169005
$GNHDT,269.964,T*2D
$PYRTM,2024,127.667164597072,18.776812007211
$GNGGA,160043.00,3338.93941635,N,11858.32192052,W,2,14,0.8,9.035,M,-37.884,M,5.0,0131*60
$PYRTM,2024,127.667164597072,18.776812007211
$GNHDT,269.868,T*20
$PYRTM,2024,127.667170331620,18.776817741759
$GNGGA,160043.50,3338.93943846,N,11858.32224868,W,2,14,0.8,8.950,M,-37.884,M,5.4,0131*6D
$PYRTM,2024,127.667170331620,18.776817741759
$GNHDT,269.764,T*23
$PYRTM,2024,127.667176172269,18.776823582407
$GNGGA,160044.00,3338.93942587,N,11858.32257280,W,2,14,0.8,8.873,M,-37.884,M,6.0,0131*61
$PYRTM,2024,127.667176172269,18.776823582407
$GNHDT,269.743,T*26
$PYRTM,2024,127.667181903090,18.776829313241
$GNGGA,160044.50,3338.93938096,N,11858.32291251,W,2,14,0.8,8.814,M,-37.884,M,6.4,0131*6F
$PYRTM,2024,127.667181903090,18.776829313241
$GNHDT,269.907,T*28
$PYRTM,2024,127.667187746111,18.776835156250
$GNGGA,160045.00,3338.93932507,N,11858.32327997,W,2,14,0.8,8.726,M,-37.884,M,7.0,0131*6A
$PYRTM,2024,127.667187746111,18.776835156250
$GNHDT,269.985,T*22
$PYRTM,2024,127.667193476713,18.776840886852
$GNGGA,160045.50,3338.93928221,N,11858.32366711,W,2,14,0.8,8.613,M,-37.884,M,7.4,0131*61
$PYRTM,2024,127.667193476713,18.776840886852
$GNHDT,269.954,T*2E
$PYRTM,2024,127.667199317766,18.776846727905
$GNGGA,160046.00,3338.93926335,N,11858.32406636,W,2,14,0.8,8.470,M,-37.884,M,7.0,0131*6B
$PYRTM,2024,127.667199317766,18.776846727905
$GNHDT,270.043,T*29
$PYRTM,2024,127.667205051944,18.776852462083
$GNGGA,160046.50,3338.93927001,N,11858.32447152,W,2,14,0.8,8.363,M,-37.884,M,7.4,0131*6A
$PYRTM,2024,127.667205051944,18.776852462083
$GNHDT,270.339,T*27
$PYRTM,2024,127.667210898241,18.776858308380
$GNGGA,160047.00,3338.93929431,N,11858.32487163,W,2,14,0.8,8.289,M,-37.884,M,7.0,0131*68
$PYRTM,2024,127.667210898241,18.776858308380
$GNHDT,270.290,T*25
$PYRTM,2024,127.667216628681,18.776864038819
$GNGGA,160047.50,3338.93931472,N,11858.32525853,W,2,14,0.8,8.299,M,-37.884,M,7.4,0131*65
$PYRTM,2024,127.667216628681,18.776864038819
$GNHDT,270.201,T*2D
$PYRTM,2024,127.667222467384,18.776869877523
$GNGGA,160048.00,3338.93932489,N,11858.32563285,W,2,14,0.8,8.372,M,-37.884,M,4.0,0131*68
$PYRTM,2024,127.667222467384,18.776869877523
$GNHDT,269.883,T*25
$PYRTM,2024,127.667228198854,18.776875608993
$GNGGA,160048.50,3338.93933191,N,11858.32600224,W,2,14,0.8,8.476,M,-37.884,M,4.4,0131*6A
$PYRTM,2024,127.667228198854,18.776875608993
$GNHDT,269.771,T*27
$PYRTM,2024,127.667234041528,18.776881451667
$GNGGA,160049.00,3338.93934280,N,11858.32636545,W,2,14,0.8,8.590,M,-37.884,M,5.0,0131*63
$PYRTM,2024,127.667234041528,18.776881451667
$GNHDT,269.866,T*2E
$PYRTM,2024,127.667239774433,18.776887184572
$GNGGA,160049.50,3338.93934570,N,11858.32672490,W,2,14,0.8,8.691,M,-37.884,M,5.4,0131*61
$PYRTM,2024,127.667239774433,18.776887184572
$GNHDT,269.869,T*21
$PYRTM,2024,127.667245614259,18.776893024398
$GNGGA,160050.00,3338.93932313,N,11858.32709044,W,2,14,0.8,8.777,M,-37.884,M,6.0,0131*67
$PYRTM,2024,127.667245614259,18.776893024398
$GNHDT,270.183,T*24
$PYRTM,2024,127.667251352650,18.776898762789
$GNGGA,160050.50,3338.93927584,N,11858.32745533,W,2,14,0.8,8.852,M,-37.884,M,6.4,0131*6F
$PYRTM,2024,127.667251352650,18.776898762789
$GNHDT,270.036,T*2B
$PYRTM,2024,127.667257188519,18.776904598657
$GNGGA,160051.00,3338.93922177,N,11858.32782562,W,2,14,0.8,8.884,M,-37.884,M,7.0,0131*67
$PYRTM,2024,127.667257188519,18.776904598657
$GNHDT,269.933,T*2F
$PYRTM,2024,127.667262925116,18.776910335255
$GNGGA,160051.50,3338.93918555,N,11858.32819376,W,2,14,0.8,8.848,M,-37.884,M,7.4,0131*65
$PYRTM,2024,127.667262925116,18.776910335255
$GNHDT,269.944,T*2F
$PYRTM,2024,127.667268762176,18.776916172315
$GNGGA,160052.00,3338.93917662,N,11858.32856216,W,2,14,0.8,8.750,M,-37.884,M,7.0,0131*65
$PYRTM,2024,127.667268762176,18.776916172315
$GNHDT,269.846,T*2C
$PYRTM,2024,127.667274495498,18.776921905637
$GNGGA,160052.50,3338.93919563,N,11858.32894284,W,2,14,0.8,8.609,M,-37.884,M,7.4,0131*60
$PYRTM,2024,127.667274495498,18.776921905637
$GNHDT,269.630,T*23
$PYRTM,2024,127.667280341968,18.776927752118
$GNGGA,160053.00,3338.93923105,N,11858.32932944,W,2,14,0.8,8.457,M,-37.884,M,7.0,0131*6E
$PYRTM,2024,127.667280341968,18.776927752118
$GNHDT,269.713,T*23
$PYRTM,2024,127.667286070799,18.776933480938
$GNGGA,160053.50,3338.93926307,N,11858.32971357,W,2,14,0.8,8.372,M,-37.884,M,7.4,0131*65
$PYRTM,2024,127.667286070799,18.776933480938
$GNHDT,269.849,T*23
$PYRTM,2024,127.667291912419,18.776939322558
$GNGGA,160054.00,3338.93927757,N,11858.33009567,W,2,14,0.8,8.382,M,-37.884,M,4.0,0131*6D
$PYRTM,2024,127.667291912419,18.776939322558
$GNHDT,269.915,T*2B
$PYRTM,2024,127.667297645231,18.776945055370
$GNGGA,160054.50,3338.93925821,N,11858.33048356,W,2,14,0.8,8.460,M,-37.884,M,4.4,0131*6A
$PYRTM,2024,127.667297645231,18.776945055370
$GNHDT,269.928,T*25
$PYRTM,2024,127.667303486123,18.776950896262
$GNGGA,160055.00,3338.93921309,N,11858.33087293,W,2,14,0.8,8.607,M,-37.884,M,5.0,0131*66
$PYRTM,2024,127.667303486123,18.776950896262
$GNHDT,269.908,T*27
$PYRTM,2024,127.667309217049,18.776956627187
$GNGGA,160055.50,3338.93916197,N,11858.33125701,W,2,14,0.8,8.778,M,-37.884,M,5.4,0131*68
$PYRTM,2024,127.667309217049,18.776956627187
$GNHDT,269.929,T*24
$PYRTM,2024,127.667315060833,18.776962470984
$GNGGA,160056.00,3338.93911567,N,11858.33162108,W,2,14,0.8,8.974,M,-37.884,M,6.0,0131*6B
$PYRTM,2024,127.667315060833,18.776962470984
$GNHDT,270.000,T*2E
$PYRTM,2024,127.667320789410,18.776968199549
$GNGGA,160056.50,3338.93908191,N,11858.33196397,W,2,14,0.8,9.148,M,-37.884,M,6.4,0131*66
$PYRTM,2024,127.667320789410,18.776968199549
$GNHDT,269.929,T*24
$PYRTM,2024,127.667326635845,18.776974045984
$GNGGA,160057.00,3338.93906668,N,11858.33229282,W,2,14,0.8,9.269,M,-37.884,M,7.0,0131*6A
$PYRTM,2024,127.667326635845,18.776974045984
$GNHDT,269.950,T*2A
$PYRTM,2024,127.667332371308,18.776979781447
$GNGGA,160057.50,3338.93907037,N,11858.33263368,W,2,14,0.8,9.282,M,-37.884,M,7.4,0131*68
$PYRTM,2024,127.667332371308,18.776979781447
$GNHDT,269.550,T*26
$PYRTM,2024,127.667338209537,18.776985619676
$GNGGA,160058.00,3338.93909191,N,11858.33300421,W,2,14,0.8,9.127,M,-37.884,M,7.0,0131*67
$PYRTM,2024,127.667338209537,18.776985619676
$GNHDT,269.468,T*2C
$PYRTM,2024,127.667343942616,18.776991352766
$GNGGA,160058.50,3338.93912136,N,11858.33339969,W,2,14,0.8,8.869,M,-37.884,M,7.4,0131*68
$PYRTM,2024,127.667343942616,18.776991352766
$GNHDT,269.641,T*25
$PYRTM,2024,127.667349787072,18.776997197222
$GNGGA,160059.00,3338.93913676,N,11858.33379676,W,2,14,0.8,8.613,M,-37.884,M,7.0,0131*6C
$PYRTM,2024,127.667349787072,18.776997197222
$GNHDT,269.725,T*26
$PYRTM,2024,127.667355519803,18.777002929942
$GNGGA,160059.50,3338.93913017,N,11858.33417417,W,2,14,0.8,8.459,M,-37.884,M,7.4,0131*6A
$PYRTM,2024,127.667355519803,18.777002929942
$GNHDT,269.698,T*21
$PYRTM,2024,127.667361360220,18.777008770370
$GNGGA,160100.00,3338.93910004,N,11858.33452544,W,2,14,0.8,8.461,M,-37.884,M,4.0,0131*69
$PYRTM,2024,127.667361360220,18.777008770370
$GNHDT,269.833,T*2E
$PYRTM,2024,127.667367085428,18.777014495567
$GNGGA,160100.50,3338.93905839,N,11858.33486353,W,2,14,0.8,8.590,M,-37.884,M,4.4,0131*6C
$PYRTM,2024,127.667367085428,18.777014495567
$GNHDT,269.323,T*24
$PYRTM,2024,127.667372930938,18.777020341076
$GNGGA,160101.00,3338.93901754,N,11858.33520046,W,2,14,0.8,8.766,M,-37.884,M,5.0,0131*6C
$PYRTM,2024,127.667372930938,18.777020341076
$GNHDT,269.346,T*27
$PYRTM,2024,127.667378659803,18.777026069942
$GNGGA,160101.50,3338.93900241,N,11858.33556463,W,2,14,0.8,8.890,M,-37.884,M,5.4,0131*69
$PYRTM,2024,127.667378659803,18.777026069942
$GNHDT,269.554,T*22
$PYRTM,2024,127.667384507153,18.777031917292
$GNGGA,160102.00,3338.93902369,N,11858.33596951,W,2,14,0.8,8.915,M,-37.884,M,6.0,0131*6D
$PYRTM,2024,127.667384507153,18.777031917292
$GNHDT,269.647,T*23
$PYRTM,2024,127.667390241019,18.777037651157
$GNGGA,160102.50,3338.93906762,N,11858.33640498,W,2,14,0.8,8.868,M,-37.884,M,6.4,0131*6C
$PYRTM,2024,127.667390241019,18.777037651157
$GNHDT,269.321,T*26
$PYRTM,2024,127.667396080787,18.777043490926
$GNGGA,160103.00,3338.93910763,N,11858.33683947,W,2,14,0.8,8.791,M,-37.884,M,7.0,0131*62
$PYRTM,2024,127.667396080787,18.777043490926
$GNHDT,269.258,T*29
$PYRTM,2024,127.667401812882,18.777049223021
$GNGGA,160103.50,3338.93913097,N,11858.33724700,W,2,14,0.8,8.749,M,-37.884,M,7.4,0131*68
$PYRTM,2024,127.667401812882,18.777049223021
$GNHDT,269.341,T*20
$PYRTM,2024,127.667407654815,18.777055064954
$GNGGA,160104.00,3338.93912705,N,11858.33762033,W,2,14,0.8,8.760,M,-37.884,M,7.0,0131*6D
$PYRTM,2024,127.667407654815,18.777055064954
$GNHDT,269.135,T*21
$PYRTM,2024,127.667413391319,18.777060801458
$GNGGA,160104.50,3338.93909498,N,11858.33797413,W,2,14,0.8,8.789,M,-37.884,M,7.4,0131*6A
$PYRTM,2024,127.667413391319,18.777060801458
$GNHDT,269.093,T*2C
$PYRTM,2024,127.667419227407,18.777066637546
$GNGGA,160105.00,3338.93904181,N,11858.33833503,W,2,14,0.8,8.768,M,-37.884,M,7.0,0131*64
$PYRTM,2024,127.667419227407,18.777066637546
$GNHDT,268.888,T*2F
$PYRTM,2024,127.667424959896,18.777072370035
$GNGGA,160105.50,3338.93898724,N,11858.33873213,W,2,14,0.8,8.676,M,-37.884,M,7.4,0131*64
$PYRTM,2024,127.667424959896,18.777072370035
$GNHDT,269.119,T*2F
$PYRTM,2024,127.667430801586,18.777078211725
$GNGGA,160106.00,3338.93893919,N,11858.33915532,W,2,14,0.8,8.500,M,-37.884,M,4.0,0131*69
$PYRTM,2024,127.667430801586,18.777078211725
$GNHDT,269.125,T*20
$PYRTM,2024,127.667436535382,18.777083945521
$GNGGA,160106.50,3338.93891769,N,11858.33958960,W,2,14,0.8,8.327,M,-37.884,M,4.4,0131*62
$PYRTM,2024,127.667436535382,18.777083945521
$GNHDT,268.951,T*2A
$PYRTM,2024,127.667442373148,18.777089783299
$GNGGA,160107.00,3338.93891984,N,11858.34001374,W,2,14,0.8,8.213,M,-37.884,M,5.0,0131*65
$PYRTM,2024,127.667442373148,18.777089783299
$GNHDT,269.034,T*21
$PYRTM,2024,127.667448104873,18.777095515012
$GNGGA,160107.50,3338.93893681,N,11858.34040179,W,2,14,0.8,8.236,M,-37.884,M,5.4,0131*61
$PYRTM,2024,127.667448104873,18.777095515012
$GNHDT,269.185,T*2A
$PYRTM,2024,127.667453953611,18.777101363750
$GNGGA,160108.00,3338.93896474,N,11858.34074706,W,2,14,0.8,8.401,M,-37.884,M,6.0,0131*6A
$PYRTM,2024,127.667453953611,18.777101363750
$GNHDT,269.163,T*22
$PYRTM,2024,127.667459685428,18.777107095567
$GNGGA,160108.50,3338.93899770,N,11858.34107039,W,2,14,0.8,8.644,M,-37.884,M,6.4,0131*6E
$PYRTM,2024,127.667459685428,18.777107095567
$GNHDT,269.096,T*29
$PYRTM,2024,127.667465523519,18.777112933657
$GNGGA,160109.00,3338.93902012,N,11858.34139052,W,2,14,0.8,8.890,M,-37.884,M,7.0,0131*68
$PYRTM,2024,127.667465523519,18.777112933657
$GNHDT,268.904,T*2A
$PYRTM,2024,127.667471253299,18.777118663449
$GNGGA,160109.50,3338.93902101,N,11858.34173464,W,2,14,0.8,9.054,M,-37.884,M,7.4,0131*64
$PYRTM,2024,127.667471253299,18.777118663449
$GNHDT,268.944,T*2E
$PYRTM,2024,127.667477098970,18.777124509109
$GNGGA,160110.00,3338.93898844,N,11858.34209677,W,2,14,0.8,9.087,M,-37.884,M,7.0,0131*67
$PYRTM,2024,127.667477098970,18.777124509109
$GNHDT,269.025,T*21
$PYRTM,2024,127.667482833426,18.777130243565
$GNGGA,160110.50,3338.93892527,N,11858.34247837,W,2,14,0.8,9.028,M,-37.884,M,7.4,0131*61
$PYRTM,2024,127.667482833426,18.777130243565
$GNHDT,268.844,T*2F
$PYRTM,2024,127.667488674398,18.777136084537
$GNGGA,160111.00,3338.93883327,N,11858.34285513,W,2,14,0.8,8.900,M,-37.884,M,7.0,0131*60
$PYRTM,2024,127.667488674398,18.777136084537
$GNHDT,268.615,T*25
$PYRTM,2024,127.667494410069,18.777141820208
$GNGGA,160111.50,3338.93875108,N,11858.34323012,W,2,14,0.8,8.756,M,-37.884,M,7.4,0131*63
$PYRTM,2024,127.667494410069,18.777141820208
$GNHDT,268.845,T*2E
$PYRTM,2024,127.667500243970,18.777147654109
$GNGGA,160112.00,3338.93869780,N,11858.34360146,W,2,14,0.8,8.590,M,-37.884,M,4.0,0131*66
$PYRTM,2024,127.667500243970,18.777147654109
$GNHDT,268.590,T*2B
$PYRTM,2024,127.667505980787,18.777153390926
$GNGGA,160112.50,3338.93868520,N,11858.34397894,W,2,14,0.8,8.420,M,-37.884,M,4.4,0131*6A
$PYRTM,2024,127.667505980787,18.777153390926
$GNHDT,268.546,T*20
$PYRTM,2024,127.667511821146,18.777159231285
$GNGGA,160113.00,3338.93870809,N,11858.34436053,W,2,14,0.8,8.289,M,-37.884,M,5.0,0131*6E
$PYRTM,2024,127.667511821146,18.777159231285
$GNHDT,268.510,T*23
$PYRTM,2024,127.667517549213,18.777164959352
$GNGGA,160113.50,3338.93874053,N,11858.34473877,W,2,14,0.8,8.235,M,-37.884,M,5.4,0131*64
$PYRTM,2024,127.667517549213,18.777164959352
$GNHDT,268.857,T*2D
$PYRTM,2024,127.667523394120,18.777170804259
$GNGGA,160114.00,3338.93878382,N,11858.34511023,W,2,14,0.8,8.313,M,-37.884,M,6.0,0131*6B
$PYRTM,2024,127.667523394120,18.777170804259
$GNHDT,269.140,T*23
$PYRTM,2024,127.667529122685,18.777176532836
$GNGGA,160114.50,3338.93882547,N,11858.34544330,W,2,14,0.8,8.502,M,-37.884,M,6.4,0131*67
$PYRTM,2024,127.667529122685,18.777176532836
$GNHDT,269.098,T*27
$PYRTM,2024,127.667534972488,18.777182382627
$GNGGA,160115.00,3338.93886006,N,11858.34575473,W,2,14,0.8,8.780,M,-37.884,M,7.0,0131*68
$PYRTM,2024,127.667534972488,18.777182382627
$GNHDT,268.984,T*22
$PYRTM,2024,127.667540700035,18.777188110185
$GNGGA,160115.50,3338.93888371,N,11858.34606921,W,2,14,0.8,9.051,M,-37.884,M,7.4,0131*63
$PYRTM,2024,127.667540700035,18.777188110185
$GNHDT,268.980,T*26
$PYRTM,2024,127.667546549120,18.777193959271
$GNGGA,160116.00,3338.93888394,N,11858.34641954,W,2,14,0.8,9.175,M,-37.884,M,7.0,0131*6C
$PYRTM,2024,127.667546549120,18.777193959271
$GNHDT,269.076,T*27
$PYRTM,2024,127.667552280498,18.777199690637
$GNGGA,160116.50,3338.93885881,N,11858.34683236,W,2,14,0.8,9.066,M,-37.884,M,7.4,0131*6D
$PYRTM,2024,127.667552280498,18.777199690637
$GNHDT,269.248,T*28
$PYRTM,2024,127.667558120347,18.777205530486
$GNGGA,160117.00,3338.93881165,N,11858.34728705,W,2,14,0.8,8.785,M,-37.884,M,7.0,0131*64
$PYRTM,2024,127.667558120347,18.777205530486
$GNHDT,269.071,T*20
$PYRTM,2024,127.667563847558,18.777211257697
$GNGGA,160117.50,3338.93875746,N,11858.34773674,W,2,14,0.8,8.461,M,-37.884,M,7.4,0131*69
$PYRTM,2024,127.667563847558,18.777211257697
$GNHDT,269.099,T*26
$PYRTM,2024,127.667569688368,18.777217098519
$GNGGA,160118.00,3338.93869885,N,11858.34813539,W,2,14,0.8,8.246,M,-37.884,M,4.0,0131*69
$PYRTM,2024,127.667569688368,18.777217098519
$GNHDT,269.147,T*24
$PYRTM,2024,127.667575426574,18.777222836713
$GNGGA,160118.50,3338.93865943,N,11858.34846267,W,2,14,0.8,8.256,M,-37.884,M,4.4,0131*62
$PYRTM,2024,127.667575426574,18.777222836713
$GNHDT,268.773,T*24
$PYRTM,2024,127.667581264606,18.777228674757
$GNGGA,160119.00,3338.93865203,N,11858.34871777,W,2,14,0.8,8.488,M,-37.884,M,5.0,0131*69
$PYRTM,2024,127.667581264606,18.777228674757
$GNHDT,268.783,T*2B
$PYRTM,2024,127.667586998519,18.777234408657
$GNGGA,160119.50,3338.93867803,N,11858.34894796,W,2,14,0.8,8.800,M,-37.884,M,5.4,0131*68
$PYRTM,2024,127.667586998519,18.777234408657
$GNHDT,268.881,T*26
$PYRTM,2024,127.667592838113,18.777240248241
$GNGGA,160120.00,3338.93871320,N,11858.34921444,W,2,14,0.8,9.086,M,-37.884,M,6.0,0131*69
$PYRTM,2024,127.667592838113,18.777240248241
$GNHDT,268.576,T*23
$PYRTM,2024,127.667598576296,18.777245986435
$GNGGA,160120.50,3338.93874748,N,11858.34956409,W,2,14,0.8,9.175,M,-37.884,M,6.4,0131*63
$PYRTM,2024,127.667598576296,18.777245986435
$GNHDT,268.876,T*2E
$PYRTM,2024,127.667604413206,18.777251823356
$GNGGA,160121.00,3338.93877299,N,11858.35001302,W,2,14,0.8,9.009,M,-37.884,M,7.0,0131*64
$PYRTM,2024,127.667604413206,18.777251823356
$GNHDT,268.777,T*20
$PYRTM,2024,127.667610146366,18.777257556516
$GNGGA,160121.50,3338.93878821,N,11858.35050347,W,2,14,0.8,8.692,M,-37.884,M,7.4,0131*63
$PYRTM,2024,127.667610146366,18.777257556516
$GNHDT,268.806,T*29
$PYRTM,2024,127.667615988449,18.777263398588
$GNGGA,160122.00,3338.93877361,N,11858.35097941,W,2,14,0.8,8.330,M,-37.884,M,7.0,0131*6B
$PYRTM,2024,127.667615988449,18.777263398588
$GNHDT,269.178,T*28
$PYRTM,2024,127.667621720093,18.777269130231
$GNGGA,160122.50,3338.93872956,N,11858.35140214,W,2,14,0.8,8.097,M,-37.884,M,7.4,0131*6F
$PYRTM,2024,127.667621720093,18.777269130231
$GNHDT,269.071,T*20
$PYRTM,2024,127.667627565475,18.777274975613
$GNGGA,160123.00,3338.93866592,N,11858.35175265,W,2,14,0.8,8.111,M,-37.884,M,7.0,0131*61
$PYRTM,2024,127.667627565475,18.777274975613
$GNHDT,269.211,T*24
$PYRTM,2024,127.667633294931,18.777280705069
$GNGGA,160123.50,3338.93860673,N,11858.35204548,W,2,14,0.8,8.353,M,-37.884,M,7.4,0131*63
$PYRTM,2024,127.667633294931,18.777280705069
$GNHDT,269.504,T*27
$PYRTM,2024,127.667639136493,18.777286546644
$GNGGA,160124.00,3338.93858593,N,11858.35230162,W,2,14,0.8,8.710,M,-37.884,M,4.0,0131*68
$PYRTM,2024,127.667639136493,18.777286546644
$GNHDT,269.360,T*23
$PYRTM,2024,127.667644870822,18.777292280961
$GNGGA,160124.50,3338.93861291,N,11858.35256271,W,2,14,0.8,9.048,M,-37.884,M,4.4,0131*6C
$PYRTM,2024,127.667644870822,18.777292280961
$GNHDT,269.098,T*27
$PYRTM,2024,127.667650710069,18.777298120208
$GNGGA,160125.00,3338.93867320,N,11858.35285996,W,2,14,0.8,9.272,M,-37.884,M,5.0,0131*67
$PYRTM,2024,127.667650710069,18.777298120208
$GNHDT,269.070,T*21
$PYRTM,2024,127.667656438368,18.777303848507
$GNGGA,160125.50,3338.93873037,N,11858.35319449,W,2,14,0.8,9.346,M,-37.884,M,5.4,0131*6B
$PYRTM,2024,127.667656438368,18.777303848507
$GNHDT,268.474,T*20
$PYRTM,2024,127.667662282882,18.777309693021
$GNGGA,160126.00,3338.93874965,N,11858.35354760,W,2,14,0.8,9.247,M,-37.884,M,6.0,0131*62
$PYRTM,2024,127.667662282882,18.777309693021
$GNHDT,268.665,T*22
$PYRTM,2024,127.667668011493,18.777315421632
$GNGGA,160126.50,3338.93873298,N,11858.35391783,W,2,14,0.8,9.011,M,-37.884,M,6.4,0131*68
$PYRTM,2024,127.667668011493,18.777315421632
$GNHDT,268.859,T*23
$PYRTM,2024,127.667673862708,18.777321272847
$GNGGA,160127.00,3338.93868142,N,11858.35428526,W,2,14,0.8,8.643,M,-37.884,M,7.0,0131*6F
$PYRTM,2024,127.667673862708,18.777321272847
$GNHDT,268.958,T*23
$PYRTM,2024,127.667679589954,18.777327000093
$GNGGA,160127.50,3338.93861429,N,11858.35464376,W,2,14,0.8,8.274,M,-37.884,M,7.4,0131*64
$PYRTM,2024,127.667679589954,18.777327000093
$GNHDT,268.881,T*26
$PYRTM,2024,127.667685427743,18.777332837882
$GNGGA,160128.00,3338.93854308,N,11858.35498321,W,2,14,0.8,7.978,M,-37.884,M,7.0,0131*61
$PYRTM,2024,127.667685427743,18.777332837882
$GNHDT,268.985,T*23
$PYRTM,2024,127.667691166192,18.777338576331
$GNGGA,160128.50,3338.93847933,N,11858.35529890,W,2,14,0.8,7.844,M,-37.884,M,7.4,0131*64
$PYRTM,2024,127.667691166192,18.777338576331
$GNHDT,268.721,T*23
$PYRTM,2024,127.667697008484,18.777344418623
$GNGGA,160129.00,3338.93843679,N,11858.35560089,W,2,14,0.8,7.880,M,-37.884,M,7.0,0131*64
$PYRTM,2024,127.667697008484,18.777344418623
$GNHDT,268.647,T*22
$PYRTM,2024,127.667702734410,18.777350144549
$GNGGA,160129.50,3338.93842158,N,11858.35590736,W,2,14,0.8,7.998,M,-37.884,M,7.4,0131*64
$PYRTM,2024,127.667702734410,18.777350144549
$GNHDT,269.085,T*2B
$PYRTM,2024,127.667708581389,18.777355991539
$GNGGA,160130.00,3338.93843630,N,11858.35623553,W,2,14,0.8,8.152,M,-37.884,M,4.0,0131*6D
$PYRTM,2024,127.667708581389,18.777355991539
$GNHDT,269.300,T*25
$PYRTM,2024,127.667714313356,18.777361723507
$GNGGA,160130.50,3338.93847480,N,11858.35659891,W,2,14,0.8,8.284,M,-37.884,M,4.4,0131*67
$PYRTM,2024,127.667714313356,18.777361723507
$GNHDT,268.950,T*2B
$PYRTM,2024,127.667720155428,18.777367565567
$GNGGA,160131.00,3338.93852064,N,11858.35696618,W,2,14,0.8,8.419,M,-37.884,M,5.0,0131*62
$PYRTM,2024,127.667720155428,18.777367565567
$GNHDT,269.032,T*27
$PYRTM,2024,127.667725885486,18.777373295625
$GNGGA,160131.50,3338.93854798,N,11858.35731575,W,2,14,0.8,8.571,M,-37.884,M,5.4,0131*6A
$PYRTM,2024,127.667725885486,18.777373295625
$GNHDT,269.053,T*20
$PYRTM,2024,127.667731728773,18.777379138912
$GNGGA,160132.00,3338.93854145,N,11858.35765248,W,2,14,0.8,8.723,M,-37.884,M,6.0,0131*60
$PYRTM,2024,127.667731728773,18.777379138912
$GNHDT,269.150,T*22
$PYRTM,2024,127.667737461597,18.777384871736
$GNGGA,160132.50,3338.93850702,N,11858.35798690,W,2,14,0.8,8.817,M,-37.884,M,6.4,0131*6B
$PYRTM,2024,127.667737461597,18.777384871736
$GNHDT,268.999,T*2E
$PYRTM,2024,127.667743302616,18.777390712755
$GNGGA,160133.00,3338.93844065,N,11858.35833135,W,2,14,0.8,8.847,M,-37.884,M,7.0,0131*6A
$PYRTM,2024,127.667743302616,18.777390712755
$GNHDT,268.981,T*27
$PYRTM,2024,127.667749038495,18.777396448634
$GNGGA,160133.50,3338.93836998,N,11858.35868082,W,2,14,0.8,8.816,M,-37.884,M,7.4,0131*62
$PYRTM,2024,127.667749038495,18.777396448634
$GNHDT,269.015,T*22
$PYRTM,2024,127.667754878472,18.777402288611
$GNGGA,160134.00,3338.93831790,N,11858.35902490,W,2,14,0.8,8.738,M,-37.884,M,7.0,0131*6C
$PYRTM,2024,127.667754878472,18.777402288611
$GNHDT,269.148,T*2B
$PYRTM,2024,127.667760611447,18.777408021586
$GNGGA,160134.50,3338.93829060,N,11858.35935052,W,2,14,0.8,8.690,M,-37.884,M,7.4,0131*61
$PYRTM,2024,127.667760611447,18.777408021586
$GNHDT,269.119,T*2F
$PYRTM,2024,127.667766452384,18.777413862523
$GNGGA,160135.00,3338.93830424,N,11858.35967399,W,2,14,0.8,8.645,M,-37.884,M,7.0,0131*66
$PYRTM,2024,127.667766452384,18.777413862523
$GNHDT,269.257,T*26
$PYRTM,2024,127.667772179664,18.777419589815
$GNGGA,160135.50,3338.93835249,N,11858.36000860,W,2,14,0.8,8.588,M,-37.884,M,7.4,0131*6B
$PYRTM,2024,127.667772179664,18.777419589815
$GNHDT,268.864,T*2D
$PYRTM,2024,127.667778024282,18.777425434421
$GNGGA,160136.00,3338.93842582,N,11858.36036804,W,2,14,0.8,8.506,M,-37.884,M,4.0,0131*6B
$PYRTM,2024,127.667778024282,18.777425434421
$GNHDT,269.360,T*23
$PYRTM,2024,127.667783753611,18.777431163750
$GNGGA,160136.50,3338.93849442,N,11858.36074321,W,2,14,0.8,8.451,M,-37.884,M,4.4,0131*65
$PYRTM,2024,127.667783753611,18.777431163750
$GNHDT,269.196,T*28
$PYRTM,2024,127.667789597523,18.777437007662
$GNGGA,160137.00,3338.93855195,N,11858.36111114,W,2,14,0.8,8.447,M,-37.884,M,5.0,0131*67
$PYRTM,2024,127.667789597523,18.777437007662
$GNHDT,269.215,T*20
$PYRTM,2024,127.667795331088,18.777442741227
$GNGGA,160137.50,3338.93857257,N,11858.36145638,W,2,14,0.8,8.532,M,-37.884,M,5.4,0131*62
$PYRTM,2024,127.667795331088,18.777442741227
$GNHDT,269.428,T*28
$PYRTM,2024,127.667801171690,18.777448581840
$GNGGA,160138.00,3338.93854927,N,11858.36178521,W,2,14,0.8,8.700,M,-37.884,M,6.0,0131*66
$PYRTM,2024,127.667801171690,18.777448581840
$GNHDT,269.391,T*2D
$PYRTM,2024,127.667806902454,18.777454312593
$GNGGA,160138.50,3338.93848733,N,11858.36210337,W,2,14,0.8,8.880,M,-37.884,M,6.4,0131*6A
$PYRTM,2024,127.667806902454,18.777454312593
$GNHDT,269.267,T*25
$PYRTM,2024,127.667812750278,18.777460160428
$GNGGA,160139.00,3338.93840672,N,11858.36243073,W,2,14,0.8,8.992,M,-37.884,M,7.0,0131*60
$PYRTM,2024,127.667812750278,18.777460160428
$GNHDT,269.184,T*2B
$PYRTM,2024,127.667818478600,18.777465888738
$GNGGA,160139.50,3338.93833776,N,11858.36278432,W,2,14,0.8,8.974,M,-37.884,M,7.4,0131*61
$PYRTM,2024,127.667818478600,18.777465888738
$GNHDT,269.086,T*28
$PYRTM,2024,127.667824324097,18.777471734236
$GNGGA,160140.00,3338.93830058,N,11858.36316516,W,2,14,0.8,8.777,M,-37.884,M,7.0,0131*65
$PYRTM,2024,127.667824324097,18.777471734236
$GNHDT,269.230,T*27
$PYRTM,2024,127.667830050197,18.777477460336
$GNGGA,160140.50,3338.93830195,N,11858.36356174,W,2,14,0.8,8.443,M,-37.884,M,7.4,0131*64
$PYRTM,2024,127.667830050197,18.777477460336
$GNHDT,269.315,T*21
$PYRTM,2024,127.667835892951,18.777483303102
$GNGGA,160141.00,3338.93833660,N,11858.36397515,W,2,14,0.8,8.068,M,-37.884,M,7.0,0131*69
$PYRTM,2024,127.667835892951,18.777483303102
$GNHDT,269.480,T*2A
$PYRTM,2024,127.667841625220,18.777489035359
$GNGGA,160141.50,3338.93838417,N,11858.36436964,W,2,14,0.8,7.802,M,-37.884,M,7.4,0131*6C
$PYRTM,2024,127.667841625220,18.777489035359
$GNHDT,269.466,T*22
$PYRTM,2024,127.667847470185,18.777494880324
$GNGGA,160142.00,3338.93841176,N,11858.36471436,W,2,14,0.8,7.762,M,-37.884,M,4.0,0131*61
$PYRTM,2024,127.667847470185,18.777494880324
$GNHDT,269.350,T*20
$PYRTM,2024,127.667853201667,18.777500611806
$GNGGA,160142.50,3338.93840044,N,11858.36500567,W,2,14,0.8,7.993,M,-37.884,M,4.4,0131*63
$PYRTM,2024,127.667853201667,18.777500611806
$GNHDT,269.412,T*21
$PYRTM,2024,127.667859042975,18.777506453113
$GNGGA,160143.00,3338.93835265,N,11858.36525679,W,2,14,0.8,8.389,M,-37.884,M,5.0,0131*64
$PYRTM,2024,127.667859042975,18.777506453113
$GNHDT,269.365,T*26
$PYRTM,2024,127.667864772697,18.777512182836
$GNGGA,160143.50,3338.93828478,N,11858.36553817,W,2,14,0.8,8.805,M,-37.884,M,5.4,0131*6B
$PYRTM,2024,127.667864772697,18.777512182836
$GNHDT,269.118,T*2E
$PYRTM,2024,127.667870622836,18.777518032975
$GNGGA,160144.00,3338.93821809,N,11858.36586492,W,2,14,0.8,9.071,M,-37.884,M,6.0,0131*6E
$PYRTM,2024,127.667870622836,18.777518032975
$GNHDT,269.050,T*23
$PYRTM,2024,127.667876348345,18.777523758484
$GNGGA,160144.50,3338.93817469,N,11858.36624321,W,2,14,0.8,9.087,M,-37.884,M,6.4,0131*6D
$PYRTM,2024,127.667876348345,18.777523758484
$GNHDT,269.045,T*27
$PYRTM,2024,127.667882187731,18.777529597870
$GNGGA,160145.00,3338.93814559,N,11858.36665000,W,2,14,0.8,8.922,M,-37.884,M,7.0,0131*6F
$PYRTM,2024,127.667882187731,18.777529597870
$GNHDT,269.000,T*26
$PYRTM,2024,127.667887921725,18.777535331863
$GNGGA,160145.50,3338.93813371,N,11858.36704282,W,2,14,0.8,8.649,M,-37.884,M,7.4,0131*69
$PYRTM,2024,127.667887921725,18.777535331863
$GNHDT,268.980,T*26
$PYRTM,2024,127.667893765544,18.777541175683
$GNGGA,160146.00,3338.93814768,N,11858.36740359,W,2,14,0.8,8.370,M,-37.884,M,7.0,0131*68
$PYRTM,2024,127.667893765544,18.777541175683
$GNHDT,269.085,T*2B
$PYRTM,2024,127.667899495961,18.777546906100
$GNGGA,160146.50,3338.93817630,N,11858.36773183,W,2,14,0.8,8.176,M,-37.884,M,7.4,0131*67
$PYRTM,2024,127.667899495961,18.777546906100
$GNHDT,269.422,T*22
$PYRTM,2024,127.667905340984,18.777552751134
$GNGGA,160147.00,3338.93821744,N,11858.36803618,W,2,14,0.8,8.074,M,-37.884,M,7.0,0131*6E
$PYRTM,2024,127.667905340984,18.777552751134
$GNHDT,269.678,T*2F
$PYRTM,2024,127.667911068437,18.777558478576
$GNGGA,160147.50,3338.93824650,N,11858.36833331,W,2,14,0.8,8.078,M,-37.884,M,7.4,0131*6F
$PYRTM,2024,127.667911068437,18.777558478576
$GNHDT,269.303,T*26
$PYRTM,2024,127.667916910544,18.777564320683
$GNGGA,160148.00,3338.93825693,N,11858.36863647,W,2,14,0.8,8.174,M,-37.884,M,4.0,0131*60
$PYRTM,2024,127.667916910544,18.777564320683
$GNHDT,269.406,T*24
$PYRTM,2024,127.667922646539,18.777570056678
$GNGGA,160148.50,3338.93824183,N,11858.36896975,W,2,14,0.8,8.275,M,-37.884,M,4.4,0131*60
$PYRTM,2024,127.667922646539,18.777570056678
$GNHDT,269.294,T*29
$PYRTM,2024,127.667928487234,18.777575897373
$GNGGA,160149.00,3338.93820400,N,11858.36934859,W,2,14,0.8,8.357,M,-37.884,M,5.0,0131*6C
$PYRTM,2024,127.667928487234,18.777575897373
$GNHDT,269.148,T*2B
$PYRTM,2024,127.667934215833,18.777581625972
$GNGGA,160149.50,3338.93816075,N,11858.36976556,W,2,14,0.8,8.395,M,-37.884,M,5.4,0131*64
$PYRTM,2024,127.667934215833,18.777581625972
$GNHDT,269.199,T*27
$PYRTM,2024,127.667940061366,18.777587471505
$GNGGA,160150.00,3338.93812240,N,11858.37018728,W,2,14,0.8,8.423,M,-37.884,M,6.0,0131*6F
$PYRTM,2024,127.667940061366,18.777587471505
$GNHDT,269.171,T*21
$PYRTM,2024,127.667945797789,18.777593207928
$GNGGA,160150.50,3338.93810514,N,11858.37056420,W,2,14,0.8,8.512,M,-37.884,M,6.4,0131*68
$PYRTM,2024,127.667945797789,18.777593207928
$GNHDT,269.393,T*2F
$PYRTM,2024,127.667951634317,18.777599044456
$GNGGA,160151.00,3338.93810513,N,11858.37085764,W,2,14,0.8,8.682,M,-37.884,M,7.0,0131*69
$PYRTM,2024,127.667951634317,18.777599044456
$GNHDT,269.453,T*24
$PYRTM,2024,127.667957366250,18.777604776377
$GNGGA,160151.50,3338.93811257,N,11858.37108045,W,2,14,0.8,8.942,M,-37.884,M,7.4,0131*6D
$PYRTM,2024,127.667957366250,18.777604776377
$GNHDT,269.428,T*28
$PYRTM,2024,127.667963206123,18.777610616262
$GNGGA,160152.00,3338.93812677,N,11858.37126666,W,2,14,0.8,9.206,M,-37.884,M,7.0,0131*6B
$PYRTM,2024,127.667963206123,18.777610616262
$GNHDT,269.509,T*2A
$PYRTM,2024,127.667968944063,18.777616354201
$GNGGA,160152.50,3338.93813440,N,11858.37147685,W,2,14,0.8,9.368,M,-37.884,M,7.4,0131*6E
$PYRTM,2024,127.667968944063,18.777616354201
$GNHDT,269.090,T*2F
$PYRTM,2024,127.667974780104,18.777622190231
$GNGGA,160153.00,3338.93812644,N,11858.37176427,W,2,14,0.8,9.275,M,-37.884,M,7.0,0131*6C
$PYRTM,2024,127.667974780104,18.777622190231
$GNHDT,268.984,T*22
$PYRTM,2024,127.667980512639,18.777627922778
$GNGGA,160153.50,3338.93810089,N,11858.37211348,W,2,14,0.8,8.993,M,-37.884,M,7.4,0131*66
$PYRTM,2024,127.667980512639,18.777627922778
$GNHDT,269.067,T*27
$PYRTM,2024,127.667986356458,18.777633766597
$GNGGA,160154.00,3338.93805996,N,11858.37250380,W,2,14,0.8,8.576,M,-37.884,M,4.0,0131*66
$PYRTM,2024,127.667986356458,18.777633766597
$GNHDT,268.998,T*2F
$PYRTM,2024,127.667992092014,18.777639502153
$GNGGA,160154.50,3338.93800886,N,11858.37289647,W,2,14,0.8,8.167,M,-37.884,M,4.4,0131*6C
$PYRTM,2024,127.667992092014,18.777639502153
$GNHDT,269.033,T*26
$PYRTM,2024,127.667997934387,18.777645344525
$GNGGA,160155.00,3338.93796774,N,11858.37326398,W,2,14,0.8,7.892,M,-37.884,M,5.0,0131*60
$PYRTM,2024,127.667997934387,18.777645344525
$GNHDT,269.262,T*20
$PYRTM,2024,127.668003663889,18.777651074028
$GNGGA,160155.50,3338.93794643,N,11858.37360276,W,2,14,0.8,7.821,M,-37.884,M,5.4,0131*6D
$PYRTM,2024,127.668003663889,18.777651074028
$GNHDT,269.618,T*29
$PYRTM,2024,127.668009510289,18.777656920428
$GNGGA,160156.00,3338.93795920,N,11858.37391639,W,2,14,0.8,7.942,M,-37.884,M,6.0,0131*62
$PYRTM,2024,127.668009510289,18.777656920428
$GNHDT,269.802,T*2C
$PYRTM,2024,127.668015241736,18.777662651875
$GNGGA,160156.50,3338.93799917,N,11858.37422637,W,2,14,0.8,8.157,M,-37.884,M,6.4,0131*69
$PYRTM,2024,127.668015241736,18.777662651875
$GNHDT,269.694,T*2D
$PYRTM,2024,127.668021091968,18.777668502106
$GNGGA,160157.00,3338.93805326,N,11858.37455627,W,2,14,0.8,8.376,M,-37.884,M,7.0,0131*6A
$PYRTM,2024,127.668021091968,18.777668502106
$GNHDT,269.848,T*22
$PYRTM,2024,127.668026808194,18.777674218333
$GNGGA,160157.50,3338.93810836,N,11858.37492639,W,2,14,0.8,8.562,M,-37.884,M,7.4,0131*62
$PYRTM,2024,127.668026808194,18.777674218333
$GNHDT,269.531,T*21
$PYRTM,2024,127.668032650463,18.777680060602
$GNGGA,160158.00,3338.93813650,N,11858.37533312,W,2,14,0.8,8.662,M,-37.884,M,7.0,0131*64
$PYRTM,2024,127.668032650463,18.777680060602
$GNHDT,269.362,T*21
$PYRTM,2024,127.668038384306,18.777685794444
$GNGGA,160158.50,3338.93812684,N,11858.37574596,W,2,14,0.8,8.685,M,-37.884,M,7.4,0131*6D
$PYRTM,2024,127.668038384306,18.777685794444
$GNHDT,269.446,T*20
$PYRTM,2024,127.668044226493,18.777691636632
$GNGGA,160159.00,3338.93807007,N,11858.37614813,W,2,14,0.8,8.671,M,-37.884,M,7.0,0131*6A
$PYRTM,2024,127.668044226493,18.777691636632
$GNHDT,269.466,T*22
$PYRTM,2024,127.668049956169,18.777697366308
$GNGGA,160159.50,3338.93798808,N,11858.37651330,W,2,14,0.8,8.640,M,-37.884,M,7.4,0131*6C
$PYRTM,2024,127.668049956169,18.777697366308
$GNHDT,269.398,T*24
$PYRTM,2024,127.668055800093,18.777703210243
$GNGGA,160200.00,3338.93789970,N,11858.37683679,W,2,14,0.8,8.633,M,-37.884,M,4.0,0131*6C
$PYRTM,2024,127.668055800093,18.777703210243
$GNHDT,269.280,T*2C
$PYRTM,2024,127.668061529687,18.777708939826
$GNGGA,160200.50,3338.93783392,N,11858.37713011,W,2,14,0.8,8.630,M,-37.884,M,4.4,0131*62
$PYRTM,2024,127.668061529687,18.777708939826
$GNHDT,269.544,T*23
$PYRTM,2024,127.668067370394,18.777714780532
$GNGGA,160201.00,3338.93780740,N,11858.37742023,W,2,14,0.8,8.598,M,-37.884,M,5.0,0131*6F
$PYRTM,2024,127.668067370394,18.777714780532
$GNHDT,269.643,T*27
$PYRTM,2024,127.668073107257,18.777720517396
$GNGGA,160201.50,3338.93782750,N,11858.37772678,W,2,14,0.8,8.517,M,-37.884,M,5.4,0131*61
$PYRTM,2024,127.668073107257,18.777720517396
$GNHDT,269.664,T*22
$PYRTM,2024,127.668078947488,18.777726357627
$GNGGA,160202.00,3338.93788951,N,11858.37806161,W,2,14,0.8,8.386,M,-37.884,M,6.0,0131*68
$PYRTM,2024,127.668078947488,18.777726357627
$GNHDT,269.949,T*22
$PYRTM,2024,127.668084679444,18.777732089583
$GNGGA,160202.50,3338.93797521,N,11858.37841662,W,2,14,0.8,8.247,M,-37.884,M,6.4,0131*67
$PYRTM,2024,127.668084679444,18.777732089583
$GNHDT,270.182,T*25
$PYRTM,2024,127.668090521343,18.777737931481
$GNGGA,160203.00,3338.93805214,N,11858.37877732,W,2,14,0.8,8.167,M,-37.884,M,7.0,0131*63
$PYRTM,2024,127.668090521343,18.777737931481
$GNHDT,270.228,T*26
$PYRTM,2024,127.668096257569,18.777743667708
$GNGGA,160203.50,3338.93809052,N,11858.37912908,W,2,14,0.8,8.192,M,-37.884,M,7.4,0131*61
$PYRTM,2024,127.668096257569,18.777743667708
$GNHDT,270.040,T*2A
$PYRTM,2024,127.668102094225,18.777749504363
$GNGGA,160204.00,3338.93807737,N,11858.37945457,W,2,14,0.8,8.352,M,-37.884,M,7.0,0131*66
$PYRTM,2024,127.668102094225,18.777749504363
$GNHDT,270.112,T*2C
$PYRTM,2024,127.668107827199,18.777755237338
$GNGGA,160204.50,3338.93800593,N,11858.37975543,W,2,14,0.8,8.604,M,-37.884,M,7.4,0131*6D
$PYRTM,2024,127.668107827199,18.777755237338
$GNHDT,270.089,T*2F
$PYRTM,2024,127.668113673113,18.777761083252
$GNGGA,160205.00,3338.93790360,N,11858.38005113,W,2,14,0.8,8.869,M,-37.884,M,7.0,0131*64
$PYRTM,2024,127.668113673113,18.777761083252
$GNHDT,269.893,T*24
$PYRTM,2024,127.668119400694,18.777766810833
$GNGGA,160205.50,3338.93781606,N,11858.38036961,W,2,14,0.8,9.026,M,-37.884,M,7.4,0131*6F
$PYRTM,2024,127.668119400694,18.777766810833
$GNHDT,269.627,T*25
$PYRTM,2024,127.668125243947,18.777772654086
$GNGGA,160206.00,3338.93777495,N,11858.38072026,W,2,14,0.8,8.973,M,-37.884,M,4.0,0131*6D
$PYRTM,2024,127.668125243947,18.777772654086
$GNHDT,269.468,T*2C
$PYRTM,2024,127.668130981042,18.777778391181
$GNGGA,160206.50,3338.93777976,N,11858.38108566,W,2,14,0.8,8.790,M,-37.884,M,4.4,0131*62
$PYRTM,2024,127.668130981042,18.777778391181
$GNHDT,269.517,T*25
$PYRTM,2024,127.668136818623,18.777784228762
$GNGGA,160207.00,3338.93783047,N,11858.38143855,W,2,14,0.8,8.504,M,-37.884,M,5.0,0131*6E
$PYRTM,2024,127.668136818623,18.777784228762
$GNHDT,269.758,T*2C
$PYRTM,2024,127.668142550301,18.777789960451
$GNGGA,160207.50,3338.93789775,N,11858.38177083,W,2,14,0.8,8.279,M,-37.884,M,5.4,0131*6A
$PYRTM,2024,127.668142550301,18.777789960451
$GNHDT,270.096,T*21
$PYRTM,2024,127.668148393437,18.777795803576
$GNGGA,160208.00,3338.93796332,N,11858.38208467,W,2,14,0.8,8.186,M,-37.884,M,6.0,0131*68
$PYRTM,2024,127.668148393437,18.777795803576
$GNHDT,270.289,T*2D
$PYRTM,2024,127.668154131713,18.777801541852
$GNGGA,160208.50,3338.93800472,N,11858.38237957,W,2,14,0.8,8.217,M,-37.884,M,6.4,0131*63
$PYRTM,2024,127.668154131713,18.777801541852
$GNHDT,270.344,T*2D
$PYRTM,2024,127.668159966458,18.777807376597
$GNGGA,160209.00,3338.93801541,N,11858.38267234,W,2,14,0.8,8.367,M,-37.884,M,7.0,0131*6F
$PYRTM,2024,127.668159966458,18.777807376597
$GNHDT,270.256,T*2F
$PYRTM,2024,127.668165697963,18.777813108102
$GNGGA,160209.50,3338.93799535,N,11858.38298436,W,2,14,0.8,8.557,M,-37.884,M,7.4,0131*62
$PYRTM,2024,127.668165697963,18.777813108102
$GNHDT,269.930,T*2C
$PYRTM,2024,127.668171538275,18.777818948414
$GNGGA,160210.00,3338.93794596,N,11858.38332424,W,2,14,0.8,8.725,M,-37.884,M,7.0,0131*6A
$PYRTM,2024,127.668171538275,18.777818948414
$GNHDT,269.903,T*2C
$PYRTM,2024,127.668177275347,18.777824685486
$GNGGA,160210.50,3338.93787587,N,11858.38368812,W,2,14,0.8,8.823,M,-37.885,M,7.4,0131*67
$PYRTM,2024,127.668177275347,18.777824685486
$GNHDT,269.760,T*27
$PYRTM,2024,127.668183113368,18.777830523519
$GNGGA,160211.00,3338.93779840,N,11858.38406576,W,2,14,0.8,8.868,M,-37.885,M,7.0,0131*6F
$PYRTM,2024,127.668183113368,18.777830523519
$GNHDT,269.733,T*21
$PYRTM,2024,127.668188845312,18.777836255463
$GNGGA,160211.50,3338.93773294,N,11858.38443468,W,2,14,0.8,8.866,M,-37.885,M,7.4,0131*66
$PYRTM,2024,127.668188845312,18.777836255463
$GNHDT,269.543,T*24
$PYRTM,2024,127.668194686829,18.777842096968
$GNGGA,160212.00,3338.93769952,N,11858.38478893,W,2,14,0.8,8.813,M,-37.885,M,4.0,0131*6F
$PYRTM,2024,127.668194686829,18.777842096968
$GNHDT,269.416,T*25
$PYRTM,2024,127.668200422512,18.777847832650
$GNGGA,160212.50,3338.93770028,N,11858.38514100,W,2,14,0.8,8.715,M,-37.885,M,4.4,0131*63
$PYRTM,2024,127.668200422512,18.777847832650
$GNHDT,269.440,T*26
$PYRTM,2024,127.668206263912,18.777853674051
$GNGGA,160213.00,3338.93773179,N,11858.38549703,W,2,14,0.8,8.535,M,-37.885,M,5.0,0131*69
$PYRTM,2024,127.668206263912,18.777853674051
$GNHDT,269.367,T*24
$PYRTM,2024,127.668211992546,18.777859402685
$GNGGA,160213.50,3338.93777966,N,11858.38585907,W,2,14,0.8,8.336,M,-37.885,M,5.4,0131*65
$PYRTM,2024,127.668211992546,18.777859402685
$GNHDT,269.746,T*23
$PYRTM,2024,127.668217834965,18.777865245104
$GNGGA,160214.00,3338.93781945,N,11858.38621450,W,2,14,0.8,8.180,M,-37.885,M,6.0,0131*65
$PYRTM,2024,127.668217834965,18.777865245104
$GNHDT,269.720,T*23
$PYRTM,2024,127.668223567604,18.777870977743
$GNGGA,160214.50,3338.93783300,N,11858.38656691,W,2,14,0.8,8.109,M,-37.885,M,6.4,0131*63
$PYRTM,2024,127.668223567604,18.777870977743
$GNHDT,269.777,T*21
$PYRTM,2024,127.668229410324,18.777876820475
$GNGGA,160215.00,3338.93781282,N,11858.38691931,W,2,14,0.8,8.125,M,-37.885,M,7.0,0131*6B
$PYRTM,2024,127.668229410324,18.777876820475
$GNHDT,269.792,T*2A
$PYRTM,2024,127.668235141377,18.777882551516
$GNGGA,160215.50,3338.93776971,N,11858.38727727,W,2,14,0.8,8.237,M,-37.885,M,7.4,0131*60
$PYRTM,2024,127.668235141377,18.777882551516
$GNHDT,269.611,T*20
$PYRTM,2024,127.668240984444,18.777888394583
$GNGGA,160216.00,3338.93771006,N,11858.38763637,W,2,14,0.8,8.407,M,-37.885,M,7.0,0131*69
$PYRTM,2024,127.668240984444,18.777888394583
$GNHDT,269.663,T*25
$PYRTM,2024,127.668246715590,18.777894125729
$GNGGA,160216.50,3338.93765636,N,11858.38799183,W,2,14,0.8,8.620,M,-37.885,M,7.4,0131*62
$PYRTM,2024,127.668246715590,18.777894125729
$GNHDT,269.339,T*2F
$PYRTM,2024,127.668252558345,18.777899968495
$GNGGA,160217.00,3338.93762345,N,11858.38834607,W,2,14,0.8,8.814,M,-37.885,M,7.0,0131*6E
$PYRTM,2024,127.668252558345,18.777899968495
$GNHDT,269.181,T*2E
$PYRTM,2024,127.668258292431,18.777905702569
$GNGGA,160217.50,3338.93762206,N,11858.38870805,W,2,14,0.8,8.902,M,-37.885,M,7.4,0131*63
$PYRTM,2024,127.668258292431,18.777905702569
$GNHDT,269.285,T*29
$PYRTM,2024,127.668264136007,18.777911546146
$GNGGA,160218.00,3338.93764546,N,11858.38908820,W,2,14,0.8,8.852,M,-37.885,M,4.0,0131*66
$PYRTM,2024,127.668264136007,18.777911546146
$GNHDT,269.226,T*20
$PYRTM,2024,127.668269863958,18.777917274097
$GNGGA,160218.50,3338.93768058,N,11858.38948846,W,2,14,0.8,8.661,M,-37.885,M,4.4,0131*6B
$PYRTM,2024,127.668269863958,18.777917274097
$GNHDT,269.417,T*24
$PYRTM,2024,127.668275705972,18.777923116111
$GNGGA,160219.00,3338.93771846,N,11858.38990234,W,2,14,0.8,8.397,M,-37.885,M,5.0,0131*63
$PYRTM,2024,127.668275705972,18.777923116111
$GNHDT,269.564,T*21
$PYRTM,2024,127.668281441065,18.777928851204
$GNGGA,160219.50,3338.93774433,N,11858.39030942,W,2,14,0.8,8.173,M,-37.885,M,5.4,0131*69
$PYRTM,2024,127.668281441065,18.777928851204
$GNHDT,269.407,T*25
$PYRTM,2024,127.668287286979,18.777934697118
$GNGGA,160220.00,3338.93776135,N,11858.39068525,W,2,14,0.8,8.081,M,-37.885,M,6.0,0131*6C
$PYRTM,2024,127.668287286979,18.777934697118
$GNHDT,269.359,T*29
$PYRTM,2024,127.668293011771,18.777940421910
$GNGGA,160220.50,3338.93776773,N,11858.39101430,W,2,14,0.8,8.199,M,-37.885,M,6.4,0131*6A
$PYRTM,2024,127.668293011771,18.777940421910
$GNHDT,269.450,T*27
$PYRTM,2024,127.668298855775,18.777946265914
$GNGGA,160221.00,3338.93775461,N,11858.39128898,W,2,14,0.8,8.480,M,-37.885,M,7.0,0131*60
$PYRTM,2024,127.668298855775,18.777946265914
$GNHDT,269.511,T*23
$PYRTM,2024,127.668304588356,18.777951998495
$GNGGA,160221.50,3338.93772213,N,11858.39155710,W,2,14,0.8,8.820,M,-37.885,M,7.4,0131*66
$PYRTM,2024,127.668304588356,18.777951998495
$GNHDT,269.245,T*25
$PYRTM,2024,127.668310434630,18.777957844769
$GNGGA,160222.00,3338.93767131,N,11858.39184983,W,2,14,0.8,9.109,M,-37.885,M,7.0,0131*68
$PYRTM,2024,127.668310434630,18.777957844769
$GNHDT,269.117,T*21
$PYRTM,2024,127.668316167894,18.777963578032
$GNGGA,160222.50,3338.93762886,N,11858.39218493,W,2,14,0.8,9.220,M,-37.885,M,7.4,0131*6B
$PYRTM,2024,127.668316167894,18.777963578032
$GNHDT,269.236,T*21
$PYRTM,2024,127.668322007442,18.777969417581
$GNGGA,160223.00,3338.93760693,N,11858.39257228,W,2,14,0.8,9.066,M,-37.885,M,7.0,0131*6E
$PYRTM,2024,127.668322007442,18.777969417581
$GNHDT,269.110,T*26
$PYRTM,2024,127.668327733206,18.777975143356
$GNGGA,160223.50,3338.93760568,N,11858.39298388,W,2,14,0.8,8.728,M,-37.885,M,7.4,0131*6C
$PYRTM,2024,127.668327733206,18.777975143356
$GNHDT,268.884,T*23
$PYRTM,2024,127.668333576262,18.777980986400
$GNGGA,160224.00,3338.93761971,N,11858.39338018,W,2,14,0.8,8.325,M,-37.885,M,4.0,0131*64
$PYRTM,2024,127.668333576262,18.777980986400
$GNHDT,268.833,T*2F
$PYRTM,2024,127.668339307118,18.777986717269
$GNGGA,160224.50,3338.93763598,N,11858.39373766,W,2,14,0.8,8.034,M,-37.885,M,4.4,0131*6E
$PYRTM,2024,127.668339307118,18.777986717269
$GNHDT,269.265,T*27
$PYRTM,2024,127.668345151829,18.777992561968
$GNGGA,160225.00,3338.93765207,N,11858.39403000,W,2,14,0.8,7.964,M,-37.885,M,5.0,0131*6C
$PYRTM,2024,127.668345151829,18.777992561968
$GNHDT,269.394,T*28
$PYRTM,2024,127.668350883333,18.777998293472
$GNGGA,160225.50,3338.93766475,N,11858.39426547,W,2,14,0.8,8.158,M,-37.885,M,5.4,0131*64
$PYRTM,2024,127.668350883333,18.777998293472
$GNHDT,269.559,T*2F
$PYRTM,2024,127.668356727604,18.778004137743
$GNGGA,160226.00,3338.93767985,N,11858.39446710,W,2,14,0.8,8.498,M,-37.885,M,6.0,0131*69
$PYRTM,2024,127.668356727604,18.778004137743
$GNHDT,269.720,T*23
$PYRTM,2024,127.668362459086,18.778009869236
$GNGGA,160226.50,3338.93769857,N,11858.39471076,W,2,14,0.8,8.791,M,-37.885,M,6.4,0131*61
$PYRTM,2024,127.668362459086,18.778009869236
$GNHDT,269.713,T*23
$PYRTM,2024,127.668368301204,18.778015711343
$GNGGA,160227.00,3338.93770762,N,11858.39504628,W,2,14,0.8,8.885,M,-37.885,M,7.0,0131*65
$PYRTM,2024,127.668368301204,18.778015711343
$GNHDT,269.621,T*23
$PYRTM,2024,127.668374035058,18.778021445197
$GNGGA,160227.50,3338.93770607,N,11858.39545270,W,2,14,0.8,8.769,M,-37.885,M,7.4,0131*67
$PYRTM,2024,127.668374035058,18.778021445197
$GNHDT,269.425,T*25
$PYRTM,2024,127.668379879433,18.778027289572
$GNGGA,160228.00,3338.93767885,N,11858.39589661,W,2,14,0.8,8.520,M,-37.885,M,7.0,0131*60
$PYRTM,2024,127.668379879433,18.778027289572
$GNHDT,269.336,T*20
$PYRTM,2024,127.668385609306,18.778033019456
$GNGGA,160228.50,3338.93763410,N,11858.39631912,W,2,14,0.8,8.258,M,-37.885,M,7.4,0131*66
$PYRTM,2024,127.668385609306,18.778033019456
$GNHDT,269.210,T*25
$PYRTM,2024,127.668391448380,18.778038858519
