$PYRTM,2024,122.000005725891,13.109653136030
$GNGGA,000000.50,3307.40829690,N,11821.10072112,W,2,12,0.9,5.169,M,-37.445,M,5.4,0135*61
$PYRTM,2024,122.000005725891,13.109653136030
$GNHDT,294.925,T*2A
$PYRTM,2024,122.000011565706,13.109658975845
$GNGGA,000001.00,3307.40873843,N,11821.10183771,W,2,12,0.9,5.287,M,-37.445,M,6.0,0135*62
$PYRTM,2024,122.000011565706,13.109658975845
$GNHDT,294.887,T*23
$PYRTM,2024,122.000017309039,13.109664719178
$GNGGA,000001.50,3307.40918545,N,11821.10293901,W,2,12,0.9,5.412,M,-37.445,M,6.4,0135*65
$PYRTM,2024,122.000017309039,13.109664719178
$GNHDT,294.712,T*20
$PYRTM,2024,122.000023141933,13.109670552072
$GNGGA,000002.00,3307.40965992,N,11821.10402399,W,2,12,0.9,5.438,M,-37.445,M,7.0,0135*67
$PYRTM,2024,122.000023141933,13.109670552072
$GNHDT,294.700,T*23
$PYRTM,2024,122.000028878206,13.109676288345
$GNGGA,000002.50,3307.41015807,N,11821.10515141,W,2,12,0.9,5.365,M,-37.445,M,7.4,0135*6B
$PYRTM,2024,122.000028878206,13.109676288345
$GNHDT,294.574,T*22
$PYRTM,2024,122.000034713553,13.109682123692
$GNGGA,000003.00,3307.41067927,N,11821.10630229,W,2,12,0.9,5.164,M,-37.445,M,7.0,0135*67
$PYRTM,2024,122.000034713553,13.109682123692
$GNHDT,294.524,T*27
$PYRTM,2024,122.000040452419,13.109687862558
$GNGGA,000003.50,3307.41120092,N,11821.10745565,W,2,12,0.9,4.950,M,-37.445,M,7.4,0135*61
$PYRTM,2024,122.000040452419,13.109687862558
$GNHDT,294.420,T*22
$PYRTM,2024,122.000046286551,13.109693696690
$GNGGA,000004.00,3307.41171071,N,11821.10857847,W,2,12,0.9,4.840,M,-37.445,M,7.0,0135*6F
$PYRTM,2024,122.000046286551,13.109693696690
$GNHDT,294.347,T*24
$PYRTM,2024,122.000052031759,13.109699441898
$GNGGA,000004.50,3307.41219514,N,11821.10966787,W,2,12,0.9,4.895,M,-37.445,M,7.4,0135*6D
$PYRTM,2024,122.000052031759,13.109699441898
$GNHDT,294.143,T*22
$PYRTM,2024,122.000057864132,13.109705274271
$GNGGA,000005.00,3307.41265273,N,11821.11075790,W,2,12,0.9,5.073,M,-37.445,M,4.0,0135*6E
$PYRTM,2024,122.000057864132,13.109705274271
$GNHDT,294.066,T*24
$PYRTM,2024,122.000063599988,13.109711010127
$GNGGA,000005.50,3307.41311132,N,11821.11186701,W,2,12,0.9,5.304,M,-37.445,M,4.4,0135*6D
$PYRTM,2024,122.000063599988,13.109711010127
$GNHDT,294.471,T*26
$PYRTM,2024,122.000069435417,13.109716845556
$GNGGA,000006.00,3307.41359017,N,11821.11302528,W,2,12,0.9,5.443,M,-37.446,M,5.0,0135*64
$PYRTM,2024,122.000069435417,13.109716845556
$GNHDT,294.391,T*2F
$PYRTM,2024,122.000075173356,13.109722583495
$GNGGA,000006.50,3307.41408782,N,11821.11423143,W,2,12,0.9,5.451,M,-37.446,M,5.4,0135*63
$PYRTM,2024,122.000075173356,13.109722583495
$GNHDT,294.344,T*27
$PYRTM,2024,122.000081009456,13.109728419595
$GNGGA,000007.00,3307.41459018,N,11821.11546248,W,2,12,0.9,5.351,M,-37.446,M,6.0,0135*6D
$PYRTM,2024,122.000081009456,13.109728419595
$GNHDT,294.519,T*29
$PYRTM,2024,122.000086745382,13.109734155521
$GNGGA,000007.50,3307.41509561,N,11821.11662622,W,2,12,0.9,5.269,M,-37.446,M,6.4,0135*64
$PYRTM,2024,122.000086745382,13.109734155521
$GNHDT,294.535,T*27
$PYRTM,2024,122.000092584213,13.109739994352
$GNGGA,000008.00,3307.41559280,N,11821.11772951,W,2,12,0.9,5.297,M,-37.446,M,7.0,0135*6C
$PYRTM,2024,122.000092584213,13.109739994352
$GNHDT,294.807,T*2B
$PYRTM,2024,122.000098317593,13.109745727720
$GNGGA,000008.50,3307.41607859,N,11821.11878550,W,2,12,0.9,5.446,M,-37.446,M,7.4,0135*69
$PYRTM,2024,122.000098317593,13.109745727720
$GNHDT,294.601,T*23
$PYRTM,2024,122.000104159618,13.109751569757
$GNGGA,000009.00,3307.41656009,N,11821.11983117,W,2,12,0.9,5.679,M,-37.446,M,7.0,0135*6C
$PYRTM,2024,122.000104159618,13.109751569757
$GNHDT,294.572,T*24
$PYRTM,2024,122.000109892153,13.109757302292
$GNGGA,000009.50,3307.41704746,N,11821.12090515,W,2,12,0.9,5.839,M,-37.446,M,7.4,0135*63
$PYRTM,2024,122.000109892153,13.109757302292
$GNHDT,294.397,T*29
$PYRTM,2024,122.000115735613,13.109763145752
$GNGGA,000010.00,3307.41753318,N,11821.12204134,W,2,12,0.9,5.790,M,-37.446,M,7.0,0135*63
$PYRTM,2024,122.000115735613,13.109763145752
$GNHDT,294.360,T*21
$PYRTM,2024,122.000121466736,13.109768876875
$GNGGA,000010.50,3307.41801218,N,11821.12321668,W,2,12,0.9,5.593,M,-37.446,M,7.4,0135*62
$PYRTM,2024,122.000121466736,13.109768876875
$GNHDT,294.187,T*2A
$PYRTM,2024,122.000127308704,13.109774718843
$GNGGA,000011.00,3307.41847353,N,11821.12439405,W,2,12,0.9,5.280,M,-37.446,M,4.0,0135*6F
$PYRTM,2024,122.000127308704,13.109774718843
$GNHDT,294.189,T*24
$PYRTM,2024,122.000133047650,13.109780457789
$GNGGA,000011.50,3307.41892309,N,11821.12556323,W,2,12,0.9,4.947,M,-37.446,M,4.4,0135*63
$PYRTM,2024,122.000133047650,13.109780457789
$GNHDT,294.044,T*24
$PYRTM,2024,122.000138877789,13.109786287928
$GNGGA,000012.00,3307.41937878,N,11821.12669316,W,2,12,0.9,4.710,M,-37.446,M,5.0,0135*66
$PYRTM,2024,122.000138877789,13.109786287928
$GNHDT,294.162,T*21
$PYRTM,2024,122.000144614826,13.109792024954
$GNGGA,000012.50,3307.41985565,N,11821.12778987,W,2,12,0.9,4.589,M,-37.446,M,5.4,0135*6E
$PYRTM,2024,122.000144614826,13.109792024954
$GNHDT,294.485,T*2D
$PYRTM,2024,122.000150454086,13.109797864236
$GNGGA,000013.00,3307.42036911,N,11821.12888751,W,2,12,0.9,4.581,M,-37.446,M,6.0,0135*6D
$PYRTM,2024,122.000150454086,13.109797864236
$GNHDT,294.569,T*2E
$PYRTM,2024,122.000156199294,13.109803609444
$GNGGA,000013.50,3307.42090301,N,11821.13001980,W,2,12,0.9,4.606,M,-37.446,M,6.4,0135*6D
$PYRTM,2024,122.000156199294,13.109803609444
$GNHDT,294.540,T*25
$PYRTM,2024,122.000162030231,13.109809440382
$GNGGA,000014.00,3307.42142904,N,11821.13116222,W,2,12,0.9,4.680,M,-37.446,M,7.0,0135*61
$PYRTM,2024,122.000162030231,13.109809440382
$GNHDT,294.381,T*2E
$PYRTM,2024,122.000167763958,13.109815174097
$GNGGA,000014.50,3307.42193405,N,11821.13227201,W,2,12,0.9,4.879,M,-37.446,M,7.4,0135*68
$PYRTM,2024,122.000167763958,13.109815174097
$GNHDT,294.514,T*24
$PYRTM,2024,122.000173605243,13.109821015382
$GNGGA,000015.00,3307.42240295,N,11821.13334060,W,2,12,0.9,5.184,M,-37.446,M,7.0,0135*66
$PYRTM,2024,122.000173605243,13.109821015382
$GNHDT,294.853,T*2A
$PYRTM,2024,122.000179337431,13.109826747581
$GNGGA,000015.50,3307.42285461,N,11821.13440898,W,2,12,0.9,5.501,M,-37.446,M,7.4,0135*61
$PYRTM,2024,122.000179337431,13.109826747581
$GNHDT,295.013,T*27
$PYRTM,2024,122.000185174271,13.109832584410
$GNGGA,000016.00,3307.42330500,N,11821.13554488,W,2,12,0.9,5.694,M,-37.446,M,7.0,0135*6C
$PYRTM,2024,122.000185174271,13.109832584410
$GNHDT,295.000,T*25
$PYRTM,2024,122.000190920891,13.109838331030
$GNGGA,000016.50,3307.42377142,N,11821.13677267,W,2,12,0.9,5.637,M,-37.446,M,7.4,0135*60
$PYRTM,2024,122.000190920891,13.109838331030
$GNHDT,294.687,T*2D
$PYRTM,2024,122.000196750926,13.109844161065
$GNGGA,000017.00,3307.42424601,N,11821.13801462,W,2,12,0.9,5.428,M,-37.446,M,4.0,0135*62
$PYRTM,2024,122.000196750926,13.109844161065
$GNHDT,294.641,T*27
$PYRTM,2024,122.000202488484,13.109849898623
$GNGGA,000017.50,3307.42472088,N,11821.13919307,W,2,12,0.9,5.190,M,-37.446,M,4.4,0135*6D
$PYRTM,2024,122.000202488484,13.109849898623
$GNHDT,294.461,T*27
$PYRTM,2024,122.000208326551,13.109855736690
$GNGGA,000018.00,3307.42518651,N,11821.14029107,W,2,12,0.9,5.094,M,-37.446,M,5.0,0135*67
$PYRTM,2024,122.000208326551,13.109855736690
$GNHDT,294.433,T*20
$PYRTM,2024,122.000214062465,13.109861472604
$GNGGA,000018.50,3307.42565829,N,11821.14132888,W,2,12,0.9,5.165,M,-37.446,M,5.4,0135*67
$PYRTM,2024,122.000214062465,13.109861472604
$GNHDT,294.747,T*20
$PYRTM,2024,122.000219903403,13.109867313542
$GNGGA,000019.00,3307.42614873,N,11821.14235351,W,2,12,0.9,5.323,M,-37.446,M,6.0,0135*65
$PYRTM,2024,122.000219903403,13.109867313542
$GNHDT,294.512,T*22
$PYRTM,2024,122.000225636262,13.109873046400
$GNGGA,000019.50,3307.42666316,N,11821.14342257,W,2,12,0.9,5.454,M,-37.446,M,6.4,0135*68
$PYRTM,2024,122.000225636262,13.109873046400
$GNHDT,294.492,T*2B
$PYRTM,2024,122.000231477639,13.109878887789
$GNGGA,000020.00,3307.42719098,N,11821.14457158,W,2,12,0.9,5.450,M,-37.446,M,7.0,0135*65
$PYRTM,2024,122.000231477639,13.109878887789
$GNHDT,294.501,T*20
$PYRTM,2024,122.000237209086,13.109884619225
$GNGGA,000020.50,3307.42771539,N,11821.14576734,W,2,12,0.9,5.338,M,-37.446,M,7.4,0135*63
$PYRTM,2024,122.000237209086,13.109884619225
$GNHDT,294.183,T*2E
$PYRTM,2024,122.000243047384,13.109890457523
$GNGGA,000021.00,3307.42821208,N,11821.14698291,W,2,12,0.9,5.129,M,-37.446,M,7.0,0135*67
$PYRTM,2024,122.000243047384,13.109890457523
$GNHDT,294.102,T*27
$PYRTM,2024,122.000248783507,13.109896193646
$GNGGA,000021.50,3307.42868345,N,11821.14818495,W,2,12,0.9,4.957,M,-37.446,M,7.4,0135*67
$PYRTM,2024,122.000248783507,13.109896193646
$GNHDT,294.255,T*26
$PYRTM,2024,122.000254617627,13.109902027766
$GNGGA,000022.00,3307.42914565,N,11821.14932847,W,2,12,0.9,4.892,M,-37.446,M,7.0,0135*69
$PYRTM,2024,122.000254617627,13.109902027766
$GNHDT,294.304,T*23
$PYRTM,2024,122.000260357870,13.109907768009
$GNGGA,000022.50,3307.42961469,N,11821.15043233,W,2,12,0.9,4.972,M,-37.446,M,7.4,0135*6F
$PYRTM,2024,122.000260357870,13.109907768009
$GNHDT,294.340,T*23
$PYRTM,2024,122.000266197951,13.109913608090
$GNGGA,000023.00,3307.43009941,N,11821.15149832,W,2,12,0.9,5.166,M,-37.446,M,4.0,0135*61
$PYRTM,2024,122.000266197951,13.109913608090
$GNHDT,294.443,T*27
$PYRTM,2024,122.000271937697,13.109919347836
$GNGGA,000023.50,3307.43061435,N,11821.15256399,W,2,12,0.9,5.364,M,-37.446,M,4.4,0135*67
$PYRTM,2024,122.000271937697,13.109919347836
$GNHDT,294.471,T*26
$PYRTM,2024,122.000277766887,13.109925177025
$GNGGA,000024.00,3307.43114528,N,11821.15363230,W,2,12,0.9,5.542,M,-37.446,M,5.0,0135*69
$PYRTM,2024,122.000277766887,13.109925177025
$GNHDT,294.484,T*2C
$PYRTM,2024,122.000283504213,13.109930914352
$GNGGA,000024.50,3307.43166783,N,11821.15468859,W,2,12,0.9,5.683,M,-37.446,M,5.4,0135*69
$PYRTM,2024,122.000283504213,13.109930914352
$GNHDT,294.536,T*24
$PYRTM,2024,122.000289343252,13.109936753391
$GNGGA,000025.00,3307.43216608,N,11821.15575020,W,2,12,0.9,5.768,M,-37.446,M,6.0,0135*63
$PYRTM,2024,122.000289343252,13.109936753391
$GNHDT,294.694,T*2F
$PYRTM,2024,122.000295077176,13.109942487315
$GNGGA,000025.50,3307.43264604,N,11821.15684022,W,2,12,0.9,5.730,M,-37.446,M,6.4,0135*69
$PYRTM,2024,122.000295077176,13.109942487315
$GNHDT,294.836,T*29
$PYRTM,2024,122.000300918507,13.109948328646
$GNGGA,000026.00,3307.43311236,N,11821.15801966,W,2,12,0.9,5.494,M,-37.446,M,7.0,0135*6B
$PYRTM,2024,122.000300918507,13.109948328646
$GNHDT,294.846,T*2E
$PYRTM,2024,122.000306659815,13.109954069954
$GNGGA,000026.50,3307.43357964,N,11821.15923849,W,2,12,0.9,5.109,M,-37.446,M,7.4,0135*68
$PYRTM,2024,122.000306659815,13.109954069954
$GNHDT,294.868,T*22
$PYRTM,2024,122.000312495347,13.109959905486
$GNGGA,000027.00,3307.43404679,N,11821.16045425,W,2,12,0.9,4.705,M,-37.446,M,7.0,0135*6D
$PYRTM,2024,122.000312495347,13.109959905486
$GNHDT,294.567,T*20
$PYRTM,2024,122.000318235185,13.109965645324
$GNGGA,000027.50,3307.43450462,N,11821.16162982,W,2,12,0.9,4.438,M,-37.446,M,7.4,0135*6C
$PYRTM,2024,122.000318235185,13.109965645324
$GNHDT,295.026,T*21
$PYRTM,2024,122.000324064606,13.109971474757
$GNGGA,000028.00,3307.43495994,N,11821.16274129,W,2,12,0.9,4.409,M,-37.446,M,7.0,0135*60
$PYRTM,2024,122.000324064606,13.109971474757
$GNHDT,295.152,T*23
$PYRTM,2024,122.000329807662,13.109977217801
$GNGGA,000028.50,3307.43542784,N,11821.16380878,W,2,12,0.9,4.594,M,-37.446,M,7.4,0135*67
$PYRTM,2024,122.000329807662,13.109977217801
$GNHDT,295.106,T*22
$PYRTM,2024,122.000335642894,13.109983053032
$GNGGA,000029.00,3307.43590885,N,11821.16487069,W,2,12,0.9,4.893,M,-37.446,M,4.0,0135*67
$PYRTM,2024,122.000335642894,13.109983053032
$GNHDT,294.774,T*20
$PYRTM,2024,122.000341382373,13.109988792523
$GNGGA,000029.50,3307.43642392,N,11821.16592332,W,2,12,0.9,5.257,M,-37.446,M,4.4,0135*6C
$PYRTM,2024,122.000341382373,13.109988792523
$GNHDT,294.591,T*29
$PYRTM,2024,122.000347213843,13.109994623981
$GNGGA,000030.00,3307.43694677,N,11821.16698970,W,2,12,0.9,5.533,M,-37.446,M,5.0,0135*61
$PYRTM,2024,122.000347213843,13.109994623981
$GNHDT,294.526,T*25
$PYRTM,2024,122.000352950694,13.110000360833
$GNGGA,000030.50,3307.43745880,N,11821.16811231,W,2,12,0.9,5.639,M,-37.446,M,5.4,0135*63
$PYRTM,2024,122.000352950694,13.110000360833
$GNHDT,294.824,T*2A
$PYRTM,2024,122.000358790046,13.110006200185
$GNGGA,000031.00,3307.43795022,N,11821.16928743,W,2,12,0.9,5.510,M,-37.446,M,6.0,0135*6E
$PYRTM,2024,122.000358790046,13.110006200185
$GNHDT,294.619,T*2A
$PYRTM,2024,122.000364524213,13.110011934352
$GNGGA,000031.50,3307.43842390,N,11821.17049747,W,2,12,0.9,5.264,M,-37.446,M,6.4,0135*6F
$PYRTM,2024,122.000364524213,13.110011934352
$GNHDT,294.578,T*2E
$PYRTM,2024,122.000370362384,13.110017772523
$GNGGA,000032.00,3307.43888508,N,11821.17166949,W,2,12,0.9,5.010,M,-37.446,M,7.0,0135*60
$PYRTM,2024,122.000370362384,13.110017772523
$GNHDT,294.842,T*2A
$PYRTM,2024,122.000376099306,13.110023509444
$GNGGA,000032.50,3307.43933337,N,11821.17278041,W,2,12,0.9,4.887,M,-37.446,M,7.4,0135*60
$PYRTM,2024,122.000376099306,13.110023509444
$GNHDT,294.607,T*25
$PYRTM,2024,122.000381939190,13.110029349329
$GNGGA,000033.00,3307.43976934,N,11821.17385340,W,2,12,0.9,4.934,M,-37.446,M,7.0,0135*60
$PYRTM,2024,122.000381939190,13.110029349329
$GNHDT,294.448,T*2C
$PYRTM,2024,122.000387676273,13.110035086412
$GNGGA,000033.50,3307.44021897,N,11821.17492552,W,2,12,0.9,5.059,M,-37.446,M,7.4,0135*62
$PYRTM,2024,122.000387676273,13.110035086412
$GNHDT,294.338,T*2C
$PYRTM,2024,122.000393507801,13.110040917940
$GNGGA,000034.00,3307.44069752,N,11821.17603873,W,2,12,0.9,5.163,M,-37.446,M,7.0,0135*62
$PYRTM,2024,122.000393507801,13.110040917940
$GNHDT,294.446,T*22
$PYRTM,2024,122.000399244502,13.110046654641
$GNGGA,000034.50,3307.44120397,N,11821.17717848,W,2,12,0.9,5.213,M,-37.446,M,7.4,0135*6A
$PYRTM,2024,122.000399244502,13.110046654641
$GNHDT,294.221,T*25
$PYRTM,2024,122.000405084456,13.110052494606
$GNGGA,000035.00,3307.44171884,N,11821.17830338,W,2,12,0.9,5.222,M,-37.446,M,4.0,0135*60
$PYRTM,2024,122.000405084456,13.110052494606
$GNHDT,294.167,T*24
$PYRTM,2024,122.000410821806,13.110058231944
$GNGGA,000035.50,3307.44223537,N,11821.17941664,W,2,12,0.9,5.265,M,-37.446,M,4.4,0135*68
$PYRTM,2024,122.000410821806,13.110058231944
$GNHDT,294.329,T*2C
$PYRTM,2024,122.000416657859,13.110064067998
$GNGGA,000036.00,3307.44274269,N,11821.18052309,W,2,12,0.9,5.336,M,-37.446,M,5.0,0135*68
$PYRTM,2024,122.000416657859,13.110064067998
$GNHDT,294.477,T*20
$PYRTM,2024,122.000422397604,13.110069807755
$GNGGA,000036.50,3307.44325240,N,11821.18161352,W,2,12,0.9,5.413,M,-37.446,M,5.4,0135*68
$PYRTM,2024,122.000422397604,13.110069807755
$GNHDT,294.670,T*25
$PYRTM,2024,122.000428233287,13.110075643426
$GNGGA,000037.00,3307.44374876,N,11821.18271850,W,2,12,0.9,5.469,M,-37.446,M,6.0,0135*66
$PYRTM,2024,122.000428233287,13.110075643426
$GNHDT,294.818,T*25
$PYRTM,2024,122.000433966620,13.110081376759
$GNGGA,000037.50,3307.44422433,N,11821.18387286,W,2,12,0.9,5.452,M,-37.446,M,6.4,0135*6F
$PYRTM,2024,122.000433966620,13.110081376759
$GNHDT,294.681,T*2B
$PYRTM,2024,122.000439806285,13.110087216424
$GNGGA,000038.00,3307.44465873,N,11821.18508380,W,2,12,0.9,5.340,M,-37.446,M,7.0,0135*69
$PYRTM,2024,122.000439806285,13.110087216424
$GNHDT,294.511,T*21
$PYRTM,2024,122.000445546748,13.110092956887
$GNGGA,000038.50,3307.44508105,N,11821.18629169,W,2,12,0.9,5.167,M,-37.446,M,7.4,0135*68
$PYRTM,2024,122.000445546748,13.110092956887
$GNHDT,294.215,T*22
$PYRTM,2024,122.000451380475,13.110098790613
$GNGGA,000039.00,3307.44551159,N,11821.18746524,W,2,12,0.9,4.996,M,-37.446,M,7.0,0135*6F
$PYRTM,2024,122.000451380475,13.110098790613
$GNHDT,294.312,T*24
$PYRTM,2024,122.000457116551,13.110104526701
$GNGGA,000039.50,3307.44596972,N,11821.18860000,W,2,12,0.9,4.879,M,-37.446,M,7.4,0135*6C
$PYRTM,2024,122.000457116551,13.110104526701
$GNHDT,294.395,T*2B
$PYRTM,2024,122.000462955995,13.110110366134
$GNGGA,000040.00,3307.44646716,N,11821.18971516,W,2,12,0.9,4.805,M,-37.447,M,7.0,0135*68
$PYRTM,2024,122.000462955995,13.110110366134
$GNHDT,294.408,T*28
$PYRTM,2024,122.000468691100,13.110116101238
$GNGGA,000040.50,3307.44700761,N,11821.19084559,W,2,12,0.9,4.729,M,-37.447,M,7.4,0135*62
$PYRTM,2024,122.000468691100,13.110116101238
$GNHDT,294.088,T*24
$PYRTM,2024,122.000474532639,13.110121942789
$GNGGA,000041.00,3307.44756793,N,11821.19200575,W,2,12,0.9,4.635,M,-37.447,M,4.0,0135*63
$PYRTM,2024,122.000474532639,13.110121942789
$GNHDT,293.556,T*25
$PYRTM,2024,122.000480271539,13.110127681678
$GNGGA,000041.50,3307.44811117,N,11821.19318590,W,2,12,0.9,4.582,M,-37.447,M,4.4,0135*68
$PYRTM,2024,122.000480271539,13.110127681678
$GNHDT,293.941,T*2F
$PYRTM,2024,122.000486103438,13.110133513576
$GNGGA,000042.00,3307.44860799,N,11821.19433166,W,2,12,0.9,4.688,M,-37.447,M,5.0,0135*67
$PYRTM,2024,122.000486103438,13.110133513576
$GNHDT,294.017,T*22
$PYRTM,2024,122.000491841065,13.110139251204
$GNGGA,000042.50,3307.44905922,N,11821.19542143,W,2,12,0.9,5.000,M,-37.447,M,5.4,0135*6D
$PYRTM,2024,122.000491841065,13.110139251204
$GNHDT,294.151,T*21
$PYRTM,2024,122.000497675069,13.110145085208
$GNGGA,000043.00,3307.44947654,N,11821.19648841,W,2,12,0.9,5.399,M,-37.447,M,6.0,0135*67
$PYRTM,2024,122.000497675069,13.110145085208
$GNHDT,294.446,T*22
$PYRTM,2024,122.000503415174,13.110150825313
$GNGGA,000043.50,3307.44989798,N,11821.19758709,W,2,12,0.9,5.713,M,-37.447,M,6.4,0135*60
$PYRTM,2024,122.000503415174,13.110150825313
$GNHDT,294.520,T*23
$PYRTM,2024,122.000509253738,13.110156663877
$GNGGA,000044.00,3307.45035276,N,11821.19874540,W,2,12,0.9,5.791,M,-37.447,M,7.0,0135*69
$PYRTM,2024,122.000509253738,13.110156663877
$GNHDT,294.800,T*2C
$PYRTM,2024,122.000514987095,13.110162397234
$GNGGA,000044.50,3307.45083784,N,11821.19990789,W,2,12,0.9,5.694,M,-37.447,M,7.4,0135*65
$PYRTM,2024,122.000514987095,13.110162397234
$GNHDT,294.787,T*2C
$PYRTM,2024,122.000520823391,13.110168233530
$GNGGA,000045.00,3307.45132991,N,11821.20101828,W,2,12,0.9,5.514,M,-37.447,M,7.0,0135*61
$PYRTM,2024,122.000520823391,13.110168233530
$GNHDT,294.961,T*2A
$PYRTM,2024,122.000526560880,13.110173971019
$GNGGA,000045.50,3307.45181569,N,11821.20206068,W,2,12,0.9,5.365,M,-37.447,M,7.4,0135*6B
$PYRTM,2024,122.000526560880,13.110173971019
$GNHDT,294.988,T*2D
$PYRTM,2024,122.000532395706,13.110179805845
$GNGGA,000046.00,3307.45229527,N,11821.20306339,W,2,12,0.9,5.290,M,-37.447,M,7.0,0135*6F
$PYRTM,2024,122.000532395706,13.110179805845
$GNHDT,295.077,T*25
$PYRTM,2024,122.000538141597,13.110185551748
$GNGGA,000046.50,3307.45276895,N,11821.20411162,W,2,12,0.9,5.233,M,-37.447,M,7.4,0135*64
$PYRTM,2024,122.000538141597,13.110185551748
$GNHDT,295.008,T*2D
$PYRTM,2024,122.000543974676,13.110191384815
$GNGGA,000047.00,3307.45324430,N,11821.20522775,W,2,12,0.9,5.138,M,-37.447,M,4.0,0135*6B
$PYRTM,2024,122.000543974676,13.110191384815
$GNHDT,294.745,T*22
$PYRTM,2024,122.000549707095,13.110197117234
$GNGGA,000047.50,3307.45372284,N,11821.20639535,W,2,12,0.9,4.987,M,-37.447,M,4.4,0135*62
$PYRTM,2024,122.000549707095,13.110197117234
$GNHDT,294.557,T*23
$PYRTM,2024,122.000555549248,13.110202959387
$GNGGA,000048.00,3307.45419178,N,11821.20759174,W,2,12,0.9,4.829,M,-37.447,M,5.0,0135*64
$PYRTM,2024,122.000555549248,13.110202959387
$GNHDT,294.610,T*23
$PYRTM,2024,122.000561283646,13.110208693796
$GNGGA,000048.50,3307.45465987,N,11821.20877961,W,2,12,0.9,4.712,M,-37.447,M,5.4,0135*6E
$PYRTM,2024,122.000561283646,13.110208693796
$GNHDT,294.664,T*20
$PYRTM,2024,122.000567118519,13.110214528657
$GNGGA,000049.00,3307.45513348,N,11821.20995023,W,2,12,0.9,4.656,M,-37.447,M,6.0,0135*67
$PYRTM,2024,122.000567118519,13.110214528657
$GNHDT,294.762,T*27
$PYRTM,2024,122.000572865729,13.110220275868
$GNGGA,000049.50,3307.45563027,N,11821.21110368,W,2,12,0.9,4.688,M,-37.447,M,6.4,0135*60
$PYRTM,2024,122.000572865729,13.110220275868
$GNHDT,294.860,T*2A
$PYRTM,2024,122.000578697361,13.110226107512
$GNGGA,000050.00,3307.45614457,N,11821.21224201,W,2,12,0.9,4.788,M,-37.447,M,7.0,0135*63
$PYRTM,2024,122.000578697361,13.110226107512
$GNHDT,294.781,T*2A
$PYRTM,2024,122.000584429329,13.110231839468
$GNGGA,000050.50,3307.45666909,N,11821.21337882,W,2,12,0.9,4.915,M,-37.447,M,7.4,0135*69
$PYRTM,2024,122.000584429329,13.110231839468
$GNHDT,294.622,T*22
$PYRTM,2024,122.000590270637,13.110237680775
$GNGGA,000051.00,3307.45718789,N,11821.21454981,W,2,12,0.9,5.014,M,-37.447,M,7.0,0135*6E
$PYRTM,2024,122.000590270637,13.110237680775
$GNHDT,294.462,T*24
$PYRTM,2024,122.000596008137,13.110243418287
$GNGGA,000051.50,3307.45769315,N,11821.21575632,W,2,12,0.9,5.061,M,-37.447,M,7.4,0135*6F
$PYRTM,2024,122.000596008137,13.110243418287
$GNHDT,294.216,T*21
$PYRTM,2024,122.000601840185,13.110249250324
$GNGGA,000052.00,3307.45817704,N,11821.21693923,W,2,12,0.9,5.104,M,-37.447,M,7.0,0135*69
$PYRTM,2024,122.000601840185,13.110249250324
$GNHDT,293.991,T*22
$PYRTM,2024,122.000607576620,13.110254986759
$GNGGA,000052.50,3307.45863666,N,11821.21807474,W,2,12,0.9,5.239,M,-37.447,M,7.4,0135*6F
$PYRTM,2024,122.000607576620,13.110254986759
$GNHDT,294.334,T*20
$PYRTM,2024,122.000613430394,13.110260840532
$GNGGA,000053.00,3307.45908009,N,11821.21915698,W,2,12,0.9,5.465,M,-37.447,M,4.0,0135*62
$PYRTM,2024,122.000613430394,13.110260840532
$GNHDT,294.507,T*26
$PYRTM,2024,122.000619152442,13.110266562581
$GNGGA,000053.50,3307.45953534,N,11821.22021505,W,2,12,0.9,5.736,M,-37.447,M,4.4,0135*69
$PYRTM,2024,122.000619152442,13.110266562581
$GNHDT,294.299,T*26
$PYRTM,2024,122.000624995012,13.110272405150
$GNGGA,000054.00,3307.46002482,N,11821.22126144,W,2,12,0.9,5.926,M,-37.447,M,5.0,0135*64
$PYRTM,2024,122.000624995012,13.110272405150
$GNHDT,294.312,T*24
$PYRTM,2024,122.000630726319,13.110278136470
$GNGGA,000054.50,3307.46055370,N,11821.22233686,W,2,12,0.9,5.931,M,-37.447,M,5.4,0135*65
$PYRTM,2024,122.000630726319,13.110278136470
$GNHDT,294.094,T*29
$PYRTM,2024,122.000636566308,13.110283976447
$GNGGA,000055.00,3307.46109710,N,11821.22345733,W,2,12,0.9,5.751,M,-37.447,M,6.0,0135*6B
$PYRTM,2024,122.000636566308,13.110283976447
$GNHDT,294.464,T*22
$PYRTM,2024,122.000642299190,13.110289709329
$GNGGA,000055.50,3307.46163258,N,11821.22462231,W,2,12,0.9,5.384,M,-37.447,M,6.4,0135*66
$PYRTM,2024,122.000642299190,13.110289709329
$GNHDT,294.454,T*21
$PYRTM,2024,122.000648138831,13.110295548970
$GNGGA,000056.00,3307.46213363,N,11821.22581310,W,2,12,0.9,4.944,M,-37.447,M,7.0,0135*61
$PYRTM,2024,122.000648138831,13.110295548970
$GNHDT,294.509,T*28
$PYRTM,2024,122.000653874572,13.110301284711
$GNGGA,000056.50,3307.46259587,N,11821.22696532,W,2,12,0.9,4.635,M,-37.447,M,7.4,0135*68
$PYRTM,2024,122.000653874572,13.110301284711
$GNHDT,294.105,T*20
$PYRTM,2024,122.000659715405,13.110307125544
$GNGGA,000057.00,3307.46301963,N,11821.22807764,W,2,12,0.9,4.579,M,-37.447,M,7.0,0135*6E
$PYRTM,2024,122.000659715405,13.110307125544
$GNHDT,293.983,T*21
$PYRTM,2024,122.000665452442,13.110312862581
$GNGGA,000057.50,3307.46343192,N,11821.22917811,W,2,12,0.9,4.722,M,-37.447,M,7.4,0135*6E
$PYRTM,2024,122.000665452442,13.110312862581
$GNHDT,294.366,T*27
$PYRTM,2024,122.000671288715,13.110318698866
$GNGGA,000058.00,3307.46386140,N,11821.23025481,W,2,12,0.9,4.980,M,-37.447,M,7.0,0135*6C
$PYRTM,2024,122.000671288715,13.110318698866
$GNHDT,294.383,T*2C
$PYRTM,2024,122.000677023044,13.110324433183
$GNGGA,000058.50,3307.46434832,N,11821.23137029,W,2,12,0.9,5.180,M,-37.447,M,7.4,0135*62
$PYRTM,2024,122.000677023044,13.110324433183
$GNHDT,294.237,T*22
$PYRTM,2024,122.000682862685,13.110330272824
$GNGGA,000059.00,3307.46489475,N,11821.23252886,W,2,12,0.9,5.235,M,-37.447,M,4.0,0135*68
$PYRTM,2024,122.000682862685,13.110330272824
$GNHDT,294.108,T*2D
$PYRTM,2024,122.000688595509,13.110336005648
$GNGGA,000059.50,3307.46546517,N,11821.23370507,W,2,12,0.9,5.148,M,-37.447,M,4.4,0135*62
$PYRTM,2024,122.000688595509,13.110336005648
$GNHDT,294.305,T*22
$PYRTM,2024,122.000694435174,13.110341845312
$GNGGA,000100.00,3307.46600568,N,11821.23488640,W,2,12,0.9,5.018,M,-37.447,M,5.0,0135*62
$PYRTM,2024,122.000694435174,13.110341845312
$GNHDT,294.226,T*22
$PYRTM,2024,122.000700169954,13.110347580093
$GNGGA,000100.50,3307.46650643,N,11821.23602009,W,2,12,0.9,4.973,M,-37.447,M,5.4,0135*62
$PYRTM,2024,122.000700169954,13.110347580093
$GNHDT,294.339,T*2D
$PYRTM,2024,122.000706010579,13.110353420718
$GNGGA,000101.00,3307.46696202,N,11821.23713242,W,2,12,0.9,5.031,M,-37.447,M,6.0,0135*68
$PYRTM,2024,122.000706010579,13.110353420718
$GNHDT,294.468,T*2E
$PYRTM,2024,122.000711751111,13.110359161250
$GNGGA,000101.50,3307.46738963,N,11821.23824285,W,2,12,0.9,5.192,M,-37.447,M,6.4,0135*68
$PYRTM,2024,122.000711751111,13.110359161250
$GNHDT,294.324,T*21
$PYRTM,2024,122.000717585035,13.110364995174
$GNGGA,000102.00,3307.46779574,N,11821.23937033,W,2,12,0.9,5.366,M,-37.447,M,7.0,0135*61
$PYRTM,2024,122.000717585035,13.110364995174
$GNHDT,294.143,T*22
$PYRTM,2024,122.000723325150,13.110370735289
$GNGGA,000102.50,3307.46821006,N,11821.24048638,W,2,12,0.9,5.549,M,-37.447,M,7.4,0135*62
$PYRTM,2024,122.000723325150,13.110370735289
$GNHDT,294.429,T*2B
$PYRTM,2024,122.000729167315,13.110376577454
$GNGGA,000103.00,3307.46863685,N,11821.24157064,W,2,12,0.9,5.689,M,-37.447,M,7.0,0135*66
$PYRTM,2024,122.000729167315,13.110376577454
$GNHDT,294.438,T*2B
$PYRTM,2024,122.000734893194,13.110382303333
$GNGGA,000103.50,3307.46908547,N,11821.24265242,W,2,12,0.9,5.738,M,-37.447,M,7.4,0135*69
$PYRTM,2024,122.000734893194,13.110382303333
$GNHDT,294.575,T*23
$PYRTM,2024,122.000740739514,13.110388149653
$GNGGA,000104.00,3307.46957200,N,11821.24376033,W,2,12,0.9,5.601,M,-37.447,M,7.0,0135*6D
$PYRTM,2024,122.000740739514,13.110388149653
$GNHDT,294.624,T*24
$PYRTM,2024,122.000746465741,13.110393875880
$GNGGA,000104.50,3307.47009199,N,11821.24492939,W,2,12,0.9,5.266,M,-37.447,M,7.4,0135*67
$PYRTM,2024,122.000746465741,13.110393875880
$GNHDT,294.426,T*24
$PYRTM,2024,122.000752307326,13.110399717465
$GNGGA,000105.00,3307.47063939,N,11821.24612985,W,2,12,0.9,4.799,M,-37.447,M,4.0,0135*63
$PYRTM,2024,122.000752307326,13.110399717465
$GNHDT,294.216,T*21
$PYRTM,2024,122.000758039838,13.110405449977
$GNGGA,000105.50,3307.47117635,N,11821.24732300,W,2,12,0.9,4.375,M,-37.447,M,4.4,0135*61
$PYRTM,2024,122.000758039838,13.110405449977
$GNHDT,294.155,T*25
$PYRTM,2024,122.000763876065,13.110411286204
$GNGGA,000106.00,3307.47166719,N,11821.24847862,W,2,12,0.9,4.247,M,-37.447,M,5.0,0135*69
$PYRTM,2024,122.000763876065,13.110411286204
$GNHDT,294.322,T*27
$PYRTM,2024,122.000769615394,13.110417025544
$GNGGA,000106.50,3307.47210671,N,11821.24957615,W,2,12,0.9,4.452,M,-37.447,M,5.4,0135*69
$PYRTM,2024,122.000769615394,13.110417025544
$GNHDT,294.261,T*21
$PYRTM,2024,122.000775458484,13.110422868623
$GNGGA,000107.00,3307.47251704,N,11821.25062986,W,2,12,0.9,4.929,M,-37.447,M,6.0,0135*66
$PYRTM,2024,122.000775458484,13.110422868623
$GNHDT,294.185,T*28
$PYRTM,2024,122.000781192431,13.110428602569
$GNGGA,000107.50,3307.47294327,N,11821.25168675,W,2,12,0.9,5.504,M,-37.447,M,6.4,0135*61
$PYRTM,2024,122.000781192431,13.110428602569
$GNHDT,294.656,T*21
$PYRTM,2024,122.000787027604,13.110434437743
$GNGGA,000108.00,3307.47340496,N,11821.25280875,W,2,12,0.9,5.909,M,-37.447,M,7.0,0135*61
$PYRTM,2024,122.000787027604,13.110434437743
$GNHDT,294.713,T*21
$PYRTM,2024,122.000792766944,13.110440177083
$GNGGA,000108.50,3307.47391521,N,11821.25400290,W,2,12,0.9,5.958,M,-37.447,M,7.4,0135*6A
$PYRTM,2024,122.000792766944,13.110440177083
$GNHDT,294.448,T*2C
$PYRTM,2024,122.000798604537,13.110446014676
$GNGGA,000109.00,3307.47445820,N,11821.25524408,W,2,12,0.9,5.683,M,-37.447,M,7.0,0135*61
$PYRTM,2024,122.000798604537,13.110446014676
$GNHDT,294.753,T*25
$PYRTM,2024,122.000804340440,13.110451750579
$GNGGA,000109.50,3307.47497975,N,11821.25644864,W,2,12,0.9,5.308,M,-37.447,M,7.4,0135*6B
$PYRTM,2024,122.000804340440,13.110451750579
$GNHDT,294.371,T*21
$PYRTM,2024,122.000810175382,13.110457585521
$GNGGA,000110.00,3307.47548640,N,11821.25758147,W,2,12,0.9,4.984,M,-37.447,M,7.0,0135*63
$PYRTM,2024,122.000810175382,13.110457585521
$GNHDT,294.425,T*27
$PYRTM,2024,122.000815913507,13.110463323646
$GNGGA,000110.50,3307.47595775,N,11821.25865983,W,2,12,0.9,4.851,M,-37.447,M,7.4,0135*6D
$PYRTM,2024,122.000815913507,13.110463323646
$GNHDT,294.709,T*2A
$PYRTM,2024,122.000821753079,13.110469163218
$GNGGA,000111.00,3307.47640447,N,11821.25969962,W,2,12,0.9,4.971,M,-37.448,M,4.0,0135*69
$PYRTM,2024,122.000821753079,13.110469163218
$GNHDT,294.866,T*2C
$PYRTM,2024,122.000827492882,13.110474903021
$GNGGA,000111.50,3307.47685139,N,11821.26072516,W,2,12,0.9,5.225,M,-37.448,M,4.4,0135*69
$PYRTM,2024,122.000827492882,13.110474903021
$GNHDT,294.668,T*2C
$PYRTM,2024,122.000833327419,13.110480737558
$GNGGA,000112.00,3307.47732752,N,11821.26174372,W,2,12,0.9,5.507,M,-37.448,M,5.0,0135*68
$PYRTM,2024,122.000833327419,13.110480737558
$GNHDT,294.725,T*24
$PYRTM,2024,122.000839062141,13.110486472280
$GNGGA,000112.50,3307.47783516,N,11821.26281862,W,2,12,0.9,5.656,M,-37.448,M,5.4,0135*65
$PYRTM,2024,122.000839062141,13.110486472280
$GNHDT,294.960,T*2B
$PYRTM,2024,122.000844894722,13.110492304861
$GNGGA,000113.00,3307.47836128,N,11821.26394970,W,2,12,0.9,5.631,M,-37.448,M,6.0,0135*68
$PYRTM,2024,122.000844894722,13.110492304861
$GNHDT,294.886,T*22
$PYRTM,2024,122.000850636296,13.110498046435
$GNGGA,000113.50,3307.47887798,N,11821.26509202,W,2,12,0.9,5.498,M,-37.448,M,6.4,0135*63
$PYRTM,2024,122.000850636296,13.110498046435
$GNHDT,294.799,T*23
$PYRTM,2024,122.000856474259,13.110503884398
$GNGGA,000114.00,3307.47936263,N,11821.26625260,W,2,12,0.9,5.310,M,-37.448,M,7.0,0135*60
$PYRTM,2024,122.000856474259,13.110503884398
$GNHDT,295.052,T*22
$PYRTM,2024,122.000862208437,13.110509618576
$GNGGA,000114.50,3307.47982650,N,11821.26739760,W,2,12,0.9,5.126,M,-37.448,M,7.4,0135*64
$PYRTM,2024,122.000862208437,13.110509618576
$GNHDT,294.807,T*2B
$PYRTM,2024,122.000868050394,13.110515460532
$GNGGA,000115.00,3307.48027364,N,11821.26856419,W,2,12,0.9,4.952,M,-37.448,M,7.0,0135*6E
$PYRTM,2024,122.000868050394,13.110515460532
$GNHDT,294.747,T*20
$PYRTM,2024,122.000873785127,13.110521195266
$GNGGA,000115.50,3307.48073313,N,11821.26971875,W,2,12,0.9,4.842,M,-37.448,M,7.4,0135*6C
$PYRTM,2024,122.000873785127,13.110521195266
$GNHDT,294.728,T*29
$PYRTM,2024,122.000879627257,13.110527037396
$GNGGA,000116.00,3307.48119650,N,11821.27085156,W,2,12,0.9,4.789,M,-37.448,M,7.0,0135*62
$PYRTM,2024,122.000879627257,13.110527037396
$GNHDT,294.470,T*27
$PYRTM,2024,122.000885361667,13.110532771806
$GNGGA,000116.50,3307.48166780,N,11821.27194774,W,2,12,0.9,4.837,M,-37.448,M,7.4,0135*6A
$PYRTM,2024,122.000885361667,13.110532771806
$GNHDT,294.577,T*21
$PYRTM,2024,122.000891196366,13.110538606516
$GNGGA,000117.00,3307.48213786,N,11821.27302812,W,2,12,0.9,4.937,M,-37.448,M,4.0,0135*6D
$PYRTM,2024,122.000891196366,13.110538606516
$GNHDT,294.525,T*26
$PYRTM,2024,122.000896931389,13.110544341528
$GNGGA,000117.50,3307.48262497,N,11821.27411455,W,2,12,0.9,5.038,M,-37.448,M,4.4,0135*64
$PYRTM,2024,122.000896931389,13.110544341528
$GNHDT,294.783,T*28
$PYRTM,2024,122.000902769745,13.110550179884
$GNGGA,000118.00,3307.48311973,N,11821.27524018,W,2,12,0.9,5.066,M,-37.448,M,5.0,0135*68
$PYRTM,2024,122.000902769745,13.110550179884
$GNHDT,294.899,T*2C
$PYRTM,2024,122.000908503993,13.110555914132
$GNGGA,000118.50,3307.48361717,N,11821.27638451,W,2,12,0.9,5.069,M,-37.448,M,5.4,0135*6A
$PYRTM,2024,122.000908503993,13.110555914132
$GNHDT,294.671,T*24
$PYRTM,2024,122.000914345590,13.110561755729
$GNGGA,000119.00,3307.48410224,N,11821.27751255,W,2,12,0.9,5.046,M,-37.448,M,6.0,0135*6C
$PYRTM,2024,122.000914345590,13.110561755729
$GNHDT,294.769,T*2C
$PYRTM,2024,122.000920084213,13.110567494352
$GNGGA,000119.50,3307.48457050,N,11821.27862610,W,2,12,0.9,5.056,M,-37.448,M,6.4,0135*64
$PYRTM,2024,122.000920084213,13.110567494352
$GNHDT,295.054,T*24
$PYRTM,2024,122.000925919398,13.110573329537
$GNGGA,000120.00,3307.48502644,N,11821.27974083,W,2,12,0.9,5.065,M,-37.448,M,7.0,0135*66
$PYRTM,2024,122.000925919398,13.110573329537
$GNHDT,295.165,T*27
$PYRTM,2024,122.000931660197,13.110579070336
$GNGGA,000120.50,3307.48548076,N,11821.28087390,W,2,12,0.9,5.052,M,-37.448,M,7.4,0135*61
$PYRTM,2024,122.000931660197,13.110579070336
$GNHDT,294.845,T*2D
$PYRTM,2024,122.000937491956,13.110584902095
$GNGGA,000121.00,3307.48594011,N,11821.28204359,W,2,12,0.9,4.983,M,-37.448,M,7.0,0135*69
$PYRTM,2024,122.000937491956,13.110584902095
$GNHDT,294.773,T*27
$PYRTM,2024,122.000943229444,13.110590639583
$GNGGA,000121.50,3307.48640933,N,11821.28322942,W,2,12,0.9,4.881,M,-37.448,M,7.4,0135*6D
$PYRTM,2024,122.000943229444,13.110590639583
$GNHDT,294.562,T*25
$PYRTM,2024,122.000949068669,13.110596478808
$GNGGA,000122.00,3307.48688622,N,11821.28441390,W,2,12,0.9,4.777,M,-37.448,M,7.0,0135*65
$PYRTM,2024,122.000949068669,13.110596478808
$GNHDT,294.361,T*20
$PYRTM,2024,122.000954804294,13.110602214444
$GNGGA,000122.50,3307.48736629,N,11821.28556830,W,2,12,0.9,4.743,M,-37.448,M,7.4,0135*6A
$PYRTM,2024,122.000954804294,13.110602214444
$GNHDT,294.667,T*23
$PYRTM,2024,122.000960639780,13.110608049919
$GNGGA,000123.00,3307.48785186,N,11821.28667506,W,2,12,0.9,4.842,M,-37.448,M,4.0,0135*64
$PYRTM,2024,122.000960639780,13.110608049919
$GNHDT,294.507,T*26
$PYRTM,2024,122.000966372789,13.110613782940
$GNGGA,000123.50,3307.48834405,N,11821.28773885,W,2,12,0.9,5.047,M,-37.448,M,4.4,0135*60
$PYRTM,2024,122.000966372789,13.110613782940
$GNHDT,294.423,T*21
$PYRTM,2024,122.000972213877,13.110619624016
$GNGGA,000124.00,3307.48886185,N,11821.28878211,W,2,12,0.9,5.286,M,-37.448,M,5.0,0135*6F
$PYRTM,2024,122.000972213877,13.110619624016
$GNHDT,294.639,T*28
$PYRTM,2024,122.000977948588,13.110625358727
$GNGGA,000124.50,3307.48940340,N,11821.28985995,W,2,12,0.9,5.447,M,-37.448,M,5.4,0135*61
$PYRTM,2024,122.000977948588,13.110625358727
$GNHDT,294.694,T*2F
$PYRTM,2024,122.000983788102,13.110631198241
$GNGGA,000125.00,3307.48994844,N,11821.29099999,W,2,12,0.9,5.415,M,-37.448,M,6.0,0135*6A
$PYRTM,2024,122.000983788102,13.110631198241
$GNHDT,294.781,T*2A
$PYRTM,2024,122.000989523495,13.110636933634
$GNGGA,000125.50,3307.49047039,N,11821.29217417,W,2,12,0.9,5.278,M,-37.448,M,6.4,0135*6D
$PYRTM,2024,122.000989523495,13.110636933634
$GNHDT,294.666,T*22
$PYRTM,2024,122.000995361377,13.110642771528
$GNGGA,000126.00,3307.49095075,N,11821.29336020,W,2,12,0.9,5.098,M,-37.448,M,7.0,0135*67
$PYRTM,2024,122.000995361377,13.110642771528
$GNHDT,294.764,T*21
$PYRTM,2024,122.001001100139,13.110648510278
$GNGGA,000126.50,3307.49139214,N,11821.29451385,W,2,12,0.9,4.971,M,-37.448,M,7.4,0135*61
$PYRTM,2024,122.001001100139,13.110648510278
$GNHDT,294.633,T*22
$PYRTM,2024,122.001006931875,13.110654342025
$GNGGA,000127.00,3307.49181869,N,11821.29564086,W,2,12,0.9,4.931,M,-37.448,M,7.0,0135*61
$PYRTM,2024,122.001006931875,13.110654342025
$GNHDT,294.732,T*22
$PYRTM,2024,122.001012678032,13.110660088206
$GNGGA,000127.50,3307.49226662,N,11821.29677010,W,2,12,0.9,4.929,M,-37.448,M,7.4,0135*6C
$PYRTM,2024,122.001012678032,13.110660088206
$GNHDT,295.017,T*23
$PYRTM,2024,122.001018507847,13.110665917986
$GNGGA,000128.00,3307.49275052,N,11821.29789914,W,2,12,0.9,4.919,M,-37.448,M,7.0,0135*6F
$PYRTM,2024,122.001018507847,13.110665917986
$GNHDT,295.183,T*2F
$PYRTM,2024,122.001024243380,13.110671653519
$GNGGA,000128.50,3307.49327195,N,11821.29903708,W,2,12,0.9,4.890,M,-37.448,M,7.4,0135*6D
$PYRTM,2024,122.001024243380,13.110671653519
$GNHDT,294.977,T*2D
$PYRTM,2024,122.001030086412,13.110677496551
$GNGGA,000129.00,3307.49381716,N,11821.30018693,W,2,12,0.9,4.810,M,-37.448,M,4.0,0135*6F
$PYRTM,2024,122.001030086412,13.110677496551
$GNHDT,295.022,T*25
$PYRTM,2024,122.001035819271,13.110683229410
$GNGGA,000129.50,3307.49435923,N,11821.30133476,W,2,12,0.9,4.703,M,-37.448,M,4.4,0135*62
$PYRTM,2024,122.001035819271,13.110683229410
$GNHDT,294.736,T*26
$PYRTM,2024,122.001041659792,13.110689069931
$GNGGA,000130.00,3307.49488144,N,11821.30247643,W,2,12,0.9,4.619,M,-37.448,M,5.0,0135*6B
$PYRTM,2024,122.001041659792,13.110689069931
$GNHDT,294.512,T*22
$PYRTM,2024,122.001047397998,13.110694808137
$GNGGA,000130.50,3307.49536472,N,11821.30363304,W,2,12,0.9,4.631,M,-37.448,M,5.4,0135*65
$PYRTM,2024,122.001047397998,13.110694808137
$GNHDT,294.738,T*28
$PYRTM,2024,122.001053233252,13.110700643391
$GNGGA,000131.00,3307.49580513,N,11821.30479018,W,2,12,0.9,4.709,M,-37.448,M,6.0,0135*65
$PYRTM,2024,122.001053233252,13.110700643391
$GNHDT,294.686,T*2C
$PYRTM,2024,122.001058968843,13.110706378981
$GNGGA,000131.50,3307.49623111,N,11821.30594540,W,2,12,0.9,4.847,M,-37.448,M,6.4,0135*67
$PYRTM,2024,122.001058968843,13.110706378981
$GNHDT,294.842,T*2A
$PYRTM,2024,122.001064810127,13.110712220266
$GNGGA,000132.00,3307.49666439,N,11821.30707370,W,2,12,0.9,5.007,M,-37.448,M,7.0,0135*6A
$PYRTM,2024,122.001064810127,13.110712220266
$GNHDT,295.188,T*24
$PYRTM,2024,122.001070548519,13.110717958669
$GNGGA,000132.50,3307.49713558,N,11821.30815134,W,2,12,0.9,5.148,M,-37.448,M,7.4,0135*6A
$PYRTM,2024,122.001070548519,13.110717958669
$GNHDT,295.450,T*24
$PYRTM,2024,122.001076377222,13.110723787361
$GNGGA,000133.00,3307.49765175,N,11821.30919865,W,2,12,0.9,5.226,M,-37.448,M,7.0,0135*6B
$PYRTM,2024,122.001076377222,13.110723787361
$GNHDT,295.451,T*25
$PYRTM,2024,122.001082118137,13.110729528275
$GNGGA,000133.50,3307.49819872,N,11821.31025893,W,2,12,0.9,5.162,M,-37.448,M,7.4,0135*6D
$PYRTM,2024,122.001082118137,13.110729528275
$GNHDT,295.482,T*2B
$PYRTM,2024,122.001087954572,13.110735364711
$GNGGA,000134.00,3307.49874487,N,11821.31138877,W,2,12,0.9,4.954,M,-37.448,M,7.0,0135*6D
$PYRTM,2024,122.001087954572,13.110735364711
$GNHDT,295.212,T*24
$PYRTM,2024,122.001093687280,13.110741097419
$GNGGA,000134.50,3307.49925724,N,11821.31260403,W,2,12,0.9,4.599,M,-37.448,M,7.4,0135*6F
$PYRTM,2024,122.001093687280,13.110741097419
$GNHDT,294.914,T*28
$PYRTM,2024,122.001099528623,13.110746938762
$GNGGA,000135.00,3307.49971416,N,11821.31385475,W,2,12,0.9,4.254,M,-37.448,M,4.0,0135*62
$PYRTM,2024,122.001099528623,13.110746938762
$GNHDT,294.603,T*21
$PYRTM,2024,122.001105268206,13.110752678345
$GNGGA,000135.50,3307.50013818,N,11821.31505299,W,2,12,0.9,4.106,M,-37.448,M,4.4,0135*6A
$PYRTM,2024,122.001105268206,13.110752678345
$GNHDT,294.509,T*28
$PYRTM,2024,122.001111104363,13.110758514502
$GNGGA,000136.00,3307.50055840,N,11821.31617505,W,2,12,0.9,4.215,M,-37.448,M,5.0,0135*65
$PYRTM,2024,122.001111104363,13.110758514502
$GNHDT,294.780,T*2B
$PYRTM,2024,122.001116847141,13.110764257292
$GNGGA,000136.50,3307.50102389,N,11821.31723149,W,2,12,0.9,4.510,M,-37.448,M,5.4,0135*61
$PYRTM,2024,122.001116847141,13.110764257292
$GNHDT,295.399,T*26
$PYRTM,2024,122.001122675926,13.110770086065
$GNGGA,000137.00,3307.50155716,N,11821.31826079,W,2,12,0.9,4.852,M,-37.448,M,6.0,0135*61
$PYRTM,2024,122.001122675926,13.110770086065
$GNHDT,295.360,T*20
$PYRTM,2024,122.001128414190,13.110775824329
$GNGGA,000137.50,3307.50214805,N,11821.31933559,W,2,12,0.9,5.083,M,-37.448,M,6.4,0135*6C
$PYRTM,2024,122.001128414190,13.110775824329
$GNHDT,295.632,T*22
$PYRTM,2024,122.001134248715,13.110781658854
$GNGGA,000138.00,3307.50275555,N,11821.32047411,W,2,12,0.9,5.141,M,-37.448,M,7.0,0135*67
$PYRTM,2024,122.001134248715,13.110781658854
$GNHDT,295.305,T*23
$PYRTM,2024,122.001139993275,13.110787403414
$GNGGA,000138.50,3307.50332577,N,11821.32165509,W,2,12,0.9,5.064,M,-37.448,M,7.4,0135*6B
$PYRTM,2024,122.001139993275,13.110787403414
$GNHDT,295.222,T*27
$PYRTM,2024,122.001145826516,13.110793236655
$GNGGA,000139.00,3307.50383326,N,11821.32282237,W,2,12,0.9,4.978,M,-37.448,M,7.0,0135*66
$PYRTM,2024,122.001145826516,13.110793236655
$GNHDT,295.201,T*26
$PYRTM,2024,122.001151561852,13.110798972002
$GNGGA,000139.50,3307.50428474,N,11821.32394919,W,2,12,0.9,4.993,M,-37.448,M,7.4,0135*65
$PYRTM,2024,122.001151561852,13.110798972002
$GNHDT,295.259,T*2B
$PYRTM,2024,122.001157396319,13.110804806470
$GNGGA,000140.00,3307.50470797,N,11821.32503920,W,2,12,0.9,5.132,M,-37.448,M,7.0,0135*69
$PYRTM,2024,122.001157396319,13.110804806470
$GNHDT,295.331,T*24
$PYRTM,2024,122.001163138171,13.110810548310
$GNGGA,000140.50,3307.50513715,N,11821.32611885,W,2,12,0.9,5.339,M,-37.448,M,7.4,0135*61
$PYRTM,2024,122.001163138171,13.110810548310
$GNHDT,295.349,T*2B
$PYRTM,2024,122.001168969363,13.110816379514
$GNGGA,000141.00,3307.50559576,N,11821.32721449,W,2,12,0.9,5.463,M,-37.448,M,4.0,0135*6D
$PYRTM,2024,122.001168969363,13.110816379514
$GNHDT,295.120,T*26
$PYRTM,2024,122.001174710972,13.110822121111
$GNGGA,000141.50,3307.50609984,N,11821.32832955,W,2,12,0.9,5.434,M,-37.448,M,4.4,0135*64
$PYRTM,2024,122.001174710972,13.110822121111
$GNHDT,294.994,T*20
$PYRTM,2024,122.001180553681,13.110827963819
$GNGGA,000142.00,3307.50663906,N,11821.32946447,W,2,12,0.9,5.232,M,-37.448,M,5.0,0135*6D
$PYRTM,2024,122.001180553681,13.110827963819
$GNHDT,294.789,T*22
$PYRTM,2024,122.001186280521,13.110833690660
$GNGGA,000142.50,3307.50719134,N,11821.33061560,W,2,12,0.9,4.900,M,-37.448,M,5.4,0135*6B
$PYRTM,2024,122.001186280521,13.110833690660
$GNHDT,294.744,T*23
$PYRTM,2024,122.001192121933,13.110839532072
$GNGGA,000143.00,3307.50774139,N,11821.33179541,W,2,12,0.9,4.498,M,-37.448,M,6.0,0135*69
$PYRTM,2024,122.001192121933,13.110839532072
$GNHDT,294.595,T*2D
$PYRTM,2024,122.001197859340,13.110845269479
$GNGGA,000143.50,3307.50827062,N,11821.33299372,W,2,12,0.9,4.149,M,-37.448,M,6.4,0135*6C
$PYRTM,2024,122.001197859340,13.110845269479
$GNHDT,294.494,T*2D
$PYRTM,2024,122.001203699340,13.110851109479
$GNGGA,000144.00,3307.50876237,N,11821.33420671,W,2,12,0.9,3.952,M,-37.448,M,7.0,0135*6A
$PYRTM,2024,122.001203699340,13.110851109479
$GNHDT,294.271,T*20
$PYRTM,2024,122.001209438021,13.110856848160
$GNGGA,000144.50,3307.50921378,N,11821.33538376,W,2,12,0.9,4.010,M,-37.449,M,7.4,0135*61
$PYRTM,2024,122.001209438021,13.110856848160
$GNHDT,294.423,T*21
$PYRTM,2024,122.001215273079,13.110862683218
$GNGGA,000145.00,3307.50964197,N,11821.33651693,W,2,12,0.9,4.313,M,-37.449,M,7.0,0135*61
$PYRTM,2024,122.001215273079,13.110862683218
$GNHDT,294.263,T*23
$PYRTM,2024,122.001221009387,13.110868419525
$GNGGA,000145.50,3307.51007787,N,11821.33759514,W,2,12,0.9,4.794,M,-37.449,M,7.4,0135*64
$PYRTM,2024,122.001221009387,13.110868419525
$GNHDT,294.271,T*20
$PYRTM,2024,122.001226847407,13.110874257546
$GNGGA,000146.00,3307.51054251,N,11821.33866375,W,2,12,0.9,5.292,M,-37.449,M,7.0,0135*6E
$PYRTM,2024,122.001226847407,13.110874257546
$GNHDT,294.376,T*26
$PYRTM,2024,122.001232584074,13.110879994213
$GNGGA,000146.50,3307.51104965,N,11821.33974255,W,2,12,0.9,5.625,M,-37.449,M,7.4,0135*6E
$PYRTM,2024,122.001232584074,13.110879994213
$GNHDT,294.312,T*24
$PYRTM,2024,122.001238420660,13.110885830799
$GNGGA,000147.00,3307.51158721,N,11821.34087430,W,2,12,0.9,5.654,M,-37.449,M,4.0,0135*6B
$PYRTM,2024,122.001238420660,13.110885830799
$GNHDT,294.228,T*2C
$PYRTM,2024,122.001244152072,13.110891562222
$GNGGA,000147.50,3307.51213043,N,11821.34206159,W,2,12,0.9,5.415,M,-37.449,M,4.4,0135*63
$PYRTM,2024,122.001244152072,13.110891562222
$GNHDT,294.062,T*20
$PYRTM,2024,122.001249996088,13.110897406227
$GNGGA,000148.00,3307.51264624,N,11821.34327710,W,2,12,0.9,4.974,M,-37.449,M,5.0,0135*69
$PYRTM,2024,122.001249996088,13.110897406227
$GNHDT,294.133,T*25
$PYRTM,2024,122.001255728090,13.110903138229
$GNGGA,000148.50,3307.51312746,N,11821.34444780,W,2,12,0.9,4.552,M,-37.449,M,5.4,0135*6E
$PYRTM,2024,122.001255728090,13.110903138229
$GNHDT,294.050,T*21
$PYRTM,2024,122.001261565116,13.110908975255
$GNGGA,000149.00,3307.51356413,N,11821.34556166,W,2,12,0.9,4.353,M,-37.449,M,6.0,0135*65
$PYRTM,2024,122.001261565116,13.110908975255
$GNHDT,294.026,T*20
$PYRTM,2024,122.001267305243,13.110914715382
$GNGGA,000149.50,3307.51398283,N,11821.34663457,W,2,12,0.9,4.422,M,-37.449,M,6.4,0135*6A
$PYRTM,2024,122.001267305243,13.110914715382
$GNHDT,294.457,T*22
$PYRTM,2024,122.001273137361,13.110920547512
$GNGGA,000150.00,3307.51441317,N,11821.34768507,W,2,12,0.9,4.667,M,-37.449,M,7.0,0135*60
$PYRTM,2024,122.001273137361,13.110920547512
$GNHDT,294.535,T*27
$PYRTM,2024,122.001278887523,13.110926297662
$GNGGA,000150.50,3307.51487416,N,11821.34876611,W,2,12,0.9,4.893,M,-37.449,M,7.4,0135*6C
$PYRTM,2024,122.001278887523,13.110926297662
$GNHDT,294.293,T*2C
$PYRTM,2024,122.001284712454,13.110932122593
$GNGGA,000151.00,3307.51537054,N,11821.34990318,W,2,12,0.9,5.021,M,-37.449,M,7.0,0135*61
$PYRTM,2024,122.001284712454,13.110932122593
$GNHDT,294.265,T*25
$PYRTM,2024,122.001290450440,13.110937860579
$GNGGA,000151.50,3307.51588236,N,11821.35108278,W,2,12,0.9,5.039,M,-37.449,M,7.4,0135*64
$PYRTM,2024,122.001290450440,13.110937860579
$GNHDT,294.135,T*23
$PYRTM,2024,122.001296289167,13.110943699306
$GNGGA,000152.00,3307.51638194,N,11821.35225099,W,2,12,0.9,4.998,M,-37.449,M,7.0,0135*67
$PYRTM,2024,122.001296289167,13.110943699306
$GNHDT,294.139,T*2F
$PYRTM,2024,122.001302025359,13.110949435498
$GNGGA,000152.50,3307.51686212,N,11821.35336656,W,2,12,0.9,4.994,M,-37.449,M,7.4,0135*64
$PYRTM,2024,122.001302025359,13.110949435498
$GNHDT,294.337,T*23
$PYRTM,2024,122.001307861493,13.110955271632
$GNGGA,000153.00,3307.51732136,N,11821.35444368,W,2,12,0.9,5.050,M,-37.449,M,4.0,0135*66
$PYRTM,2024,122.001307861493,13.110955271632
$GNHDT,294.429,T*2B
$PYRTM,2024,122.001313601505,13.110961011655
$GNGGA,000153.50,3307.51778138,N,11821.35553058,W,2,12,0.9,5.077,M,-37.449,M,4.4,0135*65
$PYRTM,2024,122.001313601505,13.110961011655
$GNHDT,294.658,T*2F
$PYRTM,2024,122.001319435046,13.110966845185
$GNGGA,000154.00,3307.51824666,N,11821.35667731,W,2,12,0.9,5.005,M,-37.449,M,5.0,0135*61
$PYRTM,2024,122.001319435046,13.110966845185
$GNHDT,294.767,T*22
$PYRTM,2024,122.001325171262,13.110972581400
$GNGGA,000154.50,3307.51872667,N,11821.35786315,W,2,12,0.9,4.822,M,-37.449,M,5.4,0135*62
$PYRTM,2024,122.001325171262,13.110972581400
$GNHDT,294.678,T*2D
$PYRTM,2024,122.001331008229,13.110978418368
$GNGGA,000155.00,3307.51920212,N,11821.35905725,W,2,12,0.9,4.593,M,-37.449,M,6.0,0135*64
$PYRTM,2024,122.001331008229,13.110978418368
$GNHDT,294.735,T*25
$PYRTM,2024,122.001336746111,13.110984156250
$GNGGA,000155.50,3307.51967063,N,11821.36022561,W,2,12,0.9,4.421,M,-37.449,M,6.4,0135*67
$PYRTM,2024,122.001336746111,13.110984156250
$GNHDT,294.761,T*24
$PYRTM,2024,122.001342581007,13.110989991146
$GNGGA,000156.00,3307.52013482,N,11821.36138615,W,2,12,0.9,4.373,M,-37.449,M,7.0,0135*6C
$PYRTM,2024,122.001342581007,13.110989991146
$GNHDT,294.586,T*2F
$PYRTM,2024,122.001348323657,13.110995733808
$GNGGA,000156.50,3307.52060399,N,11821.36254252,W,2,12,0.9,4.449,M,-37.449,M,7.4,0135*64
$PYRTM,2024,122.001348323657,13.110995733808
$GNHDT,294.329,T*2C
$PYRTM,2024,122.001354157859,13.111001568009
$GNGGA,000157.00,3307.52108178,N,11821.36368055,W,2,12,0.9,4.658,M,-37.449,M,7.0,0135*6F
$PYRTM,2024,122.001354157859,13.111001568009
$GNHDT,294.164,T*27
$PYRTM,2024,122.001359891748,13.111007301887
$GNGGA,000157.50,3307.52156619,N,11821.36478550,W,2,12,0.9,4.964,M,-37.449,M,7.4,0135*63
$PYRTM,2024,122.001359891748,13.111007301887
$GNHDT,294.385,T*2A
$PYRTM,2024,122.001365735069,13.111013145208
$GNGGA,000158.00,3307.52206247,N,11821.36587373,W,2,12,0.9,5.307,M,-37.449,M,7.0,0135*6C
$PYRTM,2024,122.001365735069,13.111013145208
$GNHDT,294.459,T*2C
$PYRTM,2024,122.001371470012,13.111018880150
$GNGGA,000158.50,3307.52257667,N,11821.36696877,W,2,12,0.9,5.571,M,-37.449,M,7.4,0135*64
$PYRTM,2024,122.001371470012,13.111018880150
$GNHDT,294.344,T*27
$PYRTM,2024,122.001377304711,13.111024714861
$GNGGA,000159.00,3307.52310075,N,11821.36808058,W,2,12,0.9,5.666,M,-37.449,M,4.0,0135*69
$PYRTM,2024,122.001377304711,13.111024714861
$GNHDT,294.510,T*20
$PYRTM,2024,122.001383046852,13.111030457002
$GNGGA,000159.50,3307.52363268,N,11821.36921654,W,2,12,0.9,5.613,M,-37.449,M,4.4,0135*60
$PYRTM,2024,122.001383046852,13.111030457002
$GNHDT,294.426,T*24
$PYRTM,2024,122.001388885521,13.111036295660
$GNGGA,000200.00,3307.52415280,N,11821.37034873,W,2,12,0.9,5.455,M,-37.449,M,5.0,0135*68
$PYRTM,2024,122.001388885521,13.111036295660
$GNHDT,294.727,T*26
$PYRTM,2024,122.001394614826,13.111042024965
$GNGGA,000200.50,3307.52464872,N,11821.37146975,W,2,12,0.9,5.291,M,-37.449,M,5.4,0135*65
$PYRTM,2024,122.001394614826,13.111042024965
$GNHDT,294.917,T*2B
$PYRTM,2024,122.001400458102,13.111047868241
$GNGGA,000201.00,3307.52510918,N,11821.37260115,W,2,12,0.9,5.135,M,-37.449,M,6.0,0135*6D
$PYRTM,2024,122.001400458102,13.111047868241
$GNHDT,294.855,T*2C
$PYRTM,2024,122.001406187894,13.111053598032
$GNGGA,000201.50,3307.52555533,N,11821.37373929,W,2,12,0.9,5.029,M,-37.449,M,6.4,0135*60
$PYRTM,2024,122.001406187894,13.111053598032
$GNHDT,294.755,T*23
$PYRTM,2024,122.001412027616,13.111059437755
$GNGGA,000202.00,3307.52598851,N,11821.37489338,W,2,12,0.9,4.938,M,-37.449,M,7.0,0135*6B
$PYRTM,2024,122.001412027616,13.111059437755
$GNHDT,294.569,T*2E
$PYRTM,2024,122.001417765093,13.111065175243
$GNGGA,000202.50,3307.52642822,N,11821.37605081,W,2,12,0.9,4.878,M,-37.449,M,7.4,0135*68
$PYRTM,2024,122.001417765093,13.111065175243
$GNHDT,294.549,T*2C
$PYRTM,2024,122.001423599491,13.111071009630
$GNGGA,000203.00,3307.52688571,N,11821.37719467,W,2,12,0.9,4.859,M,-37.449,M,7.0,0135*66
$PYRTM,2024,122.001423599491,13.111071009630
$GNHDT,294.529,T*2A
$PYRTM,2024,122.001429336991,13.111076747130
$GNGGA,000203.50,3307.52737603,N,11821.37833141,W,2,12,0.9,4.840,M,-37.449,M,7.4,0135*6A
$PYRTM,2024,122.001429336991,13.111076747130
$GNHDT,294.764,T*21
$PYRTM,2024,122.001435181377,13.111082591516
$GNGGA,000204.00,3307.52790070,N,11821.37947824,W,2,12,0.9,4.792,M,-37.449,M,7.0,0135*6B
$PYRTM,2024,122.001435181377,13.111082591516
$GNHDT,294.673,T*26
$PYRTM,2024,122.001440916910,13.111088327049
$GNGGA,000204.50,3307.52845404,N,11821.38063485,W,2,12,0.9,4.676,M,-37.449,M,7.4,0135*66
$PYRTM,2024,122.001440916910,13.111088327049
$GNHDT,294.521,T*22
$PYRTM,2024,122.001446747639,13.111094157778
$GNGGA,000205.00,3307.52900983,N,11821.38182154,W,2,12,0.9,4.535,M,-37.449,M,4.0,0135*64
$PYRTM,2024,122.001446747639,13.111094157778
$GNHDT,294.419,T*28
$PYRTM,2024,122.001452490926,13.111099901065
$GNGGA,000205.50,3307.52952832,N,11821.38301492,W,2,12,0.9,4.467,M,-37.449,M,4.4,0135*69
$PYRTM,2024,122.001452490926,13.111099901065
$GNHDT,294.506,T*27
$PYRTM,2024,122.001458328194,13.111105738333
$GNGGA,000206.00,3307.52996894,N,11821.38417174,W,2,12,0.9,4.595,M,-37.449,M,5.0,0135*6F
$PYRTM,2024,122.001458328194,13.111105738333
$GNHDT,294.461,T*27
$PYRTM,2024,122.001464059086,13.111111469225
$GNGGA,000206.50,3307.53035687,N,11821.38528423,W,2,12,0.9,4.911,M,-37.449,M,5.4,0135*69
$PYRTM,2024,122.001464059086,13.111111469225
$GNHDT,294.513,T*23
$PYRTM,2024,122.001469899907,13.111117310058
$GNGGA,000207.00,3307.53071335,N,11821.38636942,W,2,12,0.9,5.350,M,-37.449,M,6.0,0135*6E
$PYRTM,2024,122.001469899907,13.111117310058
$GNHDT,294.425,T*27
$PYRTM,2024,122.001475637396,13.111123047535
$GNGGA,000207.50,3307.53109292,N,11821.38747599,W,2,12,0.9,5.708,M,-37.449,M,6.4,0135*69
$PYRTM,2024,122.001475637396,13.111123047535
$GNHDT,294.576,T*20
$PYRTM,2024,122.001481472477,13.111128882616
$GNGGA,000208.00,3307.53154370,N,11821.38862214,W,2,12,0.9,5.839,M,-37.449,M,7.0,0135*64
$PYRTM,2024,122.001481472477,13.111128882616
$GNHDT,294.507,T*26
$PYRTM,2024,122.001487216169,13.111134626308
$GNGGA,000208.50,3307.53205425,N,11821.38979687,W,2,12,0.9,5.681,M,-37.449,M,7.4,0135*6D
$PYRTM,2024,122.001487216169,13.111134626308
$GNHDT,294.419,T*28
$PYRTM,2024,122.001493047280,13.111140457419
$GNGGA,000209.00,3307.53259116,N,11821.39098554,W,2,12,0.9,5.324,M,-37.449,M,7.0,0135*61
$PYRTM,2024,122.001493047280,13.111140457419
$GNHDT,294.180,T*2D
$PYRTM,2024,122.001498781782,13.111146191921
$GNGGA,000209.50,3307.53313245,N,11821.39216088,W,2,12,0.9,4.849,M,-37.449,M,7.4,0135*6B
$PYRTM,2024,122.001498781782,13.111146191921
$GNHDT,293.915,T*2E
$PYRTM,2024,122.001504620139,13.111152030289
$GNGGA,000210.00,3307.53364610,N,11821.39331588,W,2,12,0.9,4.473,M,-37.449,M,7.0,0135*62
$PYRTM,2024,122.001504620139,13.111152030289
$GNHDT,293.792,T*2F
$PYRTM,2024,122.001510359734,13.111157769873
$GNGGA,000210.50,3307.53411321,N,11821.39443338,W,2,12,0.9,4.411,M,-37.449,M,7.4,0135*6A
$PYRTM,2024,122.001510359734,13.111157769873
$GNHDT,293.794,T*29
$PYRTM,2024,122.001516196620,13.111163606759
$GNGGA,000211.00,3307.53454897,N,11821.39552864,W,2,12,0.9,4.576,M,-37.449,M,4.0,0135*6D
$PYRTM,2024,122.001516196620,13.111163606759
$GNHDT,293.894,T*26
$PYRTM,2024,122.001521930451,13.111169340590
$GNGGA,000211.50,3307.53497207,N,11821.39661719,W,2,12,0.9,4.892,M,-37.449,M,4.4,0135*61
$PYRTM,2024,122.001521930451,13.111169340590
$GNHDT,293.650,T*20
$PYRTM,2024,122.001527771574,13.111175181713
$GNGGA,000212.00,3307.53540555,N,11821.39774155,W,2,12,0.9,5.229,M,-37.449,M,5.0,0135*69
$PYRTM,2024,122.001527771574,13.111175181713
$GNHDT,293.752,T*23
$PYRTM,2024,122.001533504942,13.111180915081
$GNGGA,000212.50,3307.53587107,N,11821.39892187,W,2,12,0.9,5.408,M,-37.449,M,5.4,0135*6D
$PYRTM,2024,122.001533504942,13.111180915081
$GNHDT,293.822,T*2B
$PYRTM,2024,122.001539343194,13.111186753333
$GNGGA,000213.00,3307.53636362,N,11821.40013563,W,2,12,0.9,5.405,M,-37.449,M,6.0,0135*6A
$PYRTM,2024,122.001539343194,13.111186753333
$GNHDT,294.019,T*2C
$PYRTM,2024,122.001545077454,13.111192487593
$GNGGA,000213.50,3307.53687739,N,11821.40133383,W,2,12,0.9,5.269,M,-37.449,M,6.4,0135*6C
$PYRTM,2024,122.001545077454,13.111192487593
$GNHDT,293.912,T*29
$PYRTM,2024,122.001550917234,13.111198327384
$GNGGA,000214.00,3307.53738764,N,11821.40251617,W,2,12,0.9,5.102,M,-37.449,M,7.0,0135*67
$PYRTM,2024,122.001550917234,13.111198327384
$GNHDT,294.091,T*2C
$PYRTM,2024,122.001556652060,13.111204062199
$GNGGA,000214.50,3307.53789202,N,11821.40366539,W,2,12,0.9,4.964,M,-37.449,M,7.4,0135*6A
$PYRTM,2024,122.001556652060,13.111204062199
$GNHDT,294.154,T*24
$PYRTM,2024,122.001562491597,13.111209901736
$GNGGA,000215.00,3307.53837984,N,11821.40480727,W,2,12,0.9,4.918,M,-37.449,M,7.0,0135*6C
$PYRTM,2024,122.001562491597,13.111209901736
$GNHDT,294.014,T*21
$PYRTM,2024,122.001568226007,13.111215636146
$GNGGA,000215.50,3307.53884831,N,11821.40596466,W,2,12,0.9,4.928,M,-37.449,M,7.4,0135*69
$PYRTM,2024,122.001568226007,13.111215636146
$GNHDT,293.809,T*22
$PYRTM,2024,122.001574070313,13.111221480451
$GNGGA,000216.00,3307.53930008,N,11821.40713779,W,2,12,0.9,5.012,M,-37.449,M,7.0,0135*64
$PYRTM,2024,122.001574070313,13.111221480451
$GNHDT,293.890,T*22
$PYRTM,2024,122.001579806887,13.111227217025
$GNGGA,000216.50,3307.53974786,N,11821.40829518,W,2,12,0.9,5.137,M,-37.449,M,7.4,0135*61
$PYRTM,2024,122.001579806887,13.111227217025
$GNHDT,293.885,T*26
$PYRTM,2024,122.001585640868,13.111233051007
$GNGGA,000217.00,3307.54020297,N,11821.40943879,W,2,12,0.9,5.271,M,-37.449,M,4.0,0135*6E
$PYRTM,2024,122.001585640868,13.111233051007
$GNHDT,293.961,T*2D
$PYRTM,2024,122.001591379560,13.111238789699
$GNGGA,000217.50,3307.54066511,N,11821.41057610,W,2,12,0.9,5.395,M,-37.449,M,4.4,0135*63
$PYRTM,2024,122.001591379560,13.111238789699
$GNHDT,293.960,T*2C
$PYRTM,2024,122.001597210671,13.111244620810
$GNGGA,000218.00,3307.54113212,N,11821.41172076,W,2,12,0.9,5.462,M,-37.450,M,5.0,0135*6C
$PYRTM,2024,122.001597210671,13.111244620810
$GNHDT,294.050,T*21
$PYRTM,2024,122.001602947060,13.111250357211
$GNGGA,000218.50,3307.54160527,N,11821.41287753,W,2,12,0.9,5.464,M,-37.450,M,5.4,0135*67
$PYRTM,2024,122.001602947060,13.111250357211
$GNHDT,294.062,T*20
$PYRTM,2024,122.001608791655,13.111256201794
$GNGGA,000219.00,3307.54207344,N,11821.41403213,W,2,12,0.9,5.396,M,-37.450,M,6.0,0135*64
$PYRTM,2024,122.001608791655,13.111256201794
$GNHDT,294.143,T*22
$PYRTM,2024,122.001614521424,13.111261931563
$GNGGA,000219.50,3307.54253183,N,11821.41516935,W,2,12,0.9,5.306,M,-37.450,M,6.4,0135*6E
$PYRTM,2024,122.001614521424,13.111261931563
$GNHDT,294.069,T*2B
$PYRTM,2024,122.001620361632,13.111267771771
$GNGGA,000220.00,3307.54297847,N,11821.41628220,W,2,12,0.9,5.224,M,-37.450,M,7.0,0135*6D
$PYRTM,2024,122.001620361632,13.111267771771
$GNHDT,294.224,T*20
$PYRTM,2024,122.001626102477,13.111273512616
$GNGGA,000220.50,3307.54342711,N,11821.41736917,W,2,12,0.9,5.169,M,-37.450,M,7.4,0135*62
$PYRTM,2024,122.001626102477,13.111273512616
$GNHDT,294.664,T*20
$PYRTM,2024,122.001631932245,13.111279342384
$GNGGA,000221.00,3307.54388662,N,11821.41845899,W,2,12,0.9,5.098,M,-37.450,M,7.0,0135*62
$PYRTM,2024,122.001631932245,13.111279342384
$GNHDT,294.774,T*20
$PYRTM,2024,122.001637668981,13.111285079120
$GNGGA,000221.50,3307.54437097,N,11821.41957308,W,2,12,0.9,4.952,M,-37.450,M,7.4,0135*63
$PYRTM,2024,122.001637668981,13.111285079120
$GNHDT,294.972,T*28
$PYRTM,2024,122.001643510567,13.111290920706
$GNGGA,000222.00,3307.54486391,N,11821.42074907,W,2,12,0.9,4.718,M,-37.450,M,7.0,0135*60
$PYRTM,2024,122.001643510567,13.111290920706
$GNHDT,294.806,T*2A
$PYRTM,2024,122.001649251192,13.111296661331
$GNGGA,000222.50,3307.54534687,N,11821.42197282,W,2,12,0.9,4.435,M,-37.450,M,7.4,0135*6D
$PYRTM,2024,122.001649251192,13.111296661331
$GNHDT,294.710,T*22
$PYRTM,2024,122.001655082650,13.111302492789
$GNGGA,000223.00,3307.54580962,N,11821.42322201,W,2,12,0.9,4.207,M,-37.450,M,4.0,0135*65
$PYRTM,2024,122.001655082650,13.111302492789
$GNHDT,294.426,T*24
$PYRTM,2024,122.001660829398,13.111308239537
$GNGGA,000223.50,3307.54626342,N,11821.42442269,W,2,12,0.9,4.159,M,-37.450,M,4.4,0135*64
$PYRTM,2024,122.001660829398,13.111308239537
$GNHDT,294.772,T*26
$PYRTM,2024,122.001666654653,13.111314064803
$GNGGA,000224.00,3307.54670500,N,11821.42556747,W,2,12,0.9,4.376,M,-37.450,M,5.0,0135*62
$PYRTM,2024,122.001666654653,13.111314064803
$GNHDT,294.897,T*22
$PYRTM,2024,122.001672394861,13.111319805000
$GNGGA,000224.50,3307.54716149,N,11821.42666129,W,2,12,0.9,4.767,M,-37.450,M,5.4,0135*61
$PYRTM,2024,122.001672394861,13.111319805000
$GNHDT,294.758,T*2E
$PYRTM,2024,122.001678240694,13.111325650845
$GNGGA,000225.00,3307.54764695,N,11821.42773594,W,2,12,0.9,5.218,M,-37.450,M,6.0,0135*6A
$PYRTM,2024,122.001678240694,13.111325650845
$GNHDT,294.756,T*20
$PYRTM,2024,122.001683969421,13.111331379560
$GNGGA,000225.50,3307.54816325,N,11821.42886767,W,2,12,0.9,5.535,M,-37.450,M,6.4,0135*6C
$PYRTM,2024,122.001683969421,13.111331379560
$GNHDT,294.905,T*28
$PYRTM,2024,122.001689811435,13.111337221574
$GNGGA,000226.00,3307.54868884,N,11821.43004848,W,2,12,0.9,5.622,M,-37.450,M,7.0,0135*62
$PYRTM,2024,122.001689811435,13.111337221574
$GNHDT,294.635,T*24
$PYRTM,2024,122.001695554201,13.111342964352
$GNGGA,000226.50,3307.54920341,N,11821.43125889,W,2,12,0.9,5.560,M,-37.450,M,7.4,0135*66
$PYRTM,2024,122.001695554201,13.111342964352
$GNHDT,294.492,T*2B
$PYRTM,2024,122.001701380648,13.111348790787
$GNGGA,000227.00,3307.54969869,N,11821.43245544,W,2,12,0.9,5.429,M,-37.450,M,7.0,0135*6F
$PYRTM,2024,122.001701380648,13.111348790787
$GNHDT,294.949,T*20
$PYRTM,2024,122.001707113380,13.111354523519
$GNGGA,000227.50,3307.55017396,N,11821.43360254,W,2,12,0.9,5.368,M,-37.450,M,7.4,0135*66
$PYRTM,2024,122.001707113380,13.111354523519
$GNHDT,295.081,T*2C
$PYRTM,2024,122.001712955486,13.111360365625
$GNGGA,000228.00,3307.55062856,N,11821.43467243,W,2,12,0.9,5.453,M,-37.450,M,7.0,0135*64
$PYRTM,2024,122.001712955486,13.111360365625
$GNHDT,295.166,T*24
$PYRTM,2024,122.001718692338,13.111366102477
$GNGGA,000228.50,3307.55108115,N,11821.43569678,W,2,12,0.9,5.673,M,-37.450,M,7.4,0135*65
$PYRTM,2024,122.001718692338,13.111366102477
$GNHDT,295.208,T*2F
$PYRTM,2024,122.001724530243,13.111371940382
$GNGGA,000229.00,3307.55153955,N,11821.43671425,W,2,12,0.9,5.888,M,-37.450,M,4.0,0135*6E
$PYRTM,2024,122.001724530243,13.111371940382
$GNHDT,295.041,T*20
$PYRTM,2024,122.001730268067,13.111377678206
