$PYRTM,2024,126.250000188090,17.359647598229
$GNGGA,060000.00,3419.78810393,N,12049.44379084,W,2,11,0.9,7.722,M,-37.635,M,4.0,0131*63
$PYRTM,2024,126.250000188090,17.359647598229
$GNHDT,102.947,T*22
$PYRTM,2024,126.250005921389,17.359653331528
$GNGGA,060000.50,3419.78758982,N,12049.44258678,W,2,11,0.9,7.599,M,-37.635,M,4.4,0131*6E
$PYRTM,2024,126.250005921389,17.359653331528
$GNHDT,102.493,T*26
$PYRTM,2024,126.250011754201,17.359659164340
$GNGGA,060001.00,3419.78714713,N,12049.44137220,W,2,11,0.9,7.533,M,-37.635,M,5.0,0131*62
$PYRTM,2024,126.250011754201,17.359659164340
$GNHDT,102.573,T*29
$PYRTM,2024,126.250017491620,17.359664901759
$GNGGA,060001.50,3419.78678660,N,12049.44011645,W,2,11,0.9,7.538,M,-37.635,M,5.4,0131*64
$PYRTM,2024,126.250017491620,17.359664901759
$GNHDT,102.846,T*22
$PYRTM,2024,126.250023329514,17.359670739653
$GNGGA,060002.00,3419.78649409,N,12049.43880937,W,2,11,0.9,7.651,M,-37.635,M,6.0,0131*6B
$PYRTM,2024,126.250023329514,17.359670739653
$GNHDT,102.203,T*29
$PYRTM,2024,126.250029069664,17.359676479803
$GNGGA,060002.50,3419.78622156,N,12049.43746910,W,2,11,0.9,7.837,M,-37.635,M,6.4,0131*66
$PYRTM,2024,126.250029069664,17.359676479803
$GNHDT,101.988,T*22
$PYRTM,2024,126.250034906250,17.359682316389
$GNGGA,060003.00,3419.78593408,N,12049.43610175,W,2,11,0.9,8.060,M,-37.635,M,7.0,0131*6C
$PYRTM,2024,126.250034906250,17.359682316389
$GNHDT,101.515,T*2A
$PYRTM,2024,126.250040641227,17.359688051366
$GNGGA,060003.50,3419.78559671,N,12049.43473187,W,2,11,0.9,8.258,M,-37.635,M,7.4,0131*64
$PYRTM,2024,126.250040641227,17.359688051366
$GNHDT,101.458,T*22
$PYRTM,2024,126.250046481400,17.359693891539
$GNGGA,060004.00,3419.78518392,N,12049.43335789,W,2,11,0.9,8.377,M,-37.635,M,7.0,0131*6E
$PYRTM,2024,126.250046481400,17.359693891539
$GNHDT,101.513,T*2C
$PYRTM,2024,126.250052211539,17.359699621678
$GNGGA,060004.50,3419.78470560,N,12049.43198261,W,2,11,0.9,8.416,M,-37.635,M,7.4,0131*6D
$PYRTM,2024,126.250052211539,17.359699621678
$GNHDT,101.488,T*2F
$PYRTM,2024,126.250058052812,17.359705462963
$GNGGA,060005.00,3419.78419451,N,12049.43061394,W,2,11,0.9,8.376,M,-37.635,M,7.0,0131*6C
$PYRTM,2024,126.250058052812,17.359705462963
$GNHDT,101.700,T*2C
$PYRTM,2024,126.250063787269,17.359711197407
$GNGGA,060005.50,3419.78367325,N,12049.42925253,W,2,11,0.9,8.267,M,-37.635,M,7.4,0131*64
$PYRTM,2024,126.250063787269,17.359711197407
$GNHDT,101.946,T*20
$PYRTM,2024,126.250069629468,17.359717039606
$GNGGA,060006.00,3419.78315241,N,12049.42789824,W,2,11,0.9,8.196,M,-37.635,M,4.0,0131*6C
$PYRTM,2024,126.250069629468,17.359717039606
$GNHDT,102.416,T*2B
$PYRTM,2024,126.250075359757,17.359722769896
$GNGGA,060006.50,3419.78266942,N,12049.42655249,W,2,11,0.9,8.170,M,-37.635,M,4.4,0131*69
$PYRTM,2024,126.250075359757,17.359722769896
$GNHDT,102.599,T*2D
$PYRTM,2024,126.250081203090,17.359728613229
$GNGGA,060007.00,3419.78223503,N,12049.42518629,W,2,11,0.9,8.196,M,-37.635,M,5.0,0131*60
$PYRTM,2024,126.250081203090,17.359728613229
$GNHDT,102.994,T*2C
$PYRTM,2024,126.250086935741,17.359734345891
$GNGGA,060007.50,3419.78184953,N,12049.42378338,W,2,11,0.9,8.244,M,-37.635,M,5.4,0131*6F
$PYRTM,2024,126.250086935741,17.359734345891
$GNHDT,103.063,T*2C
$PYRTM,2024,126.250092774988,17.359740185127
$GNGGA,060008.00,3419.78148663,N,12049.42235112,W,2,11,0.9,8.277,M,-37.635,M,6.0,0131*6C
$PYRTM,2024,126.250092774988,17.359740185127
$GNHDT,103.115,T*2C
$PYRTM,2024,126.250098512234,17.359745922373
$GNGGA,060008.50,3419.78110920,N,12049.42092973,W,2,11,0.9,8.346,M,-37.634,M,6.4,0131*6A
$PYRTM,2024,126.250098512234,17.359745922373
$GNHDT,103.676,T*2E
$PYRTM,2024,126.250104348044,17.359751758183
$GNGGA,060009.00,3419.78069308,N,12049.41955134,W,2,11,0.9,8.458,M,-37.634,M,7.0,0131*66
$PYRTM,2024,126.250104348044,17.359751758183
$GNHDT,103.715,T*2A
$PYRTM,2024,126.250110080775,17.359757490914
$GNGGA,060009.50,3419.78024502,N,12049.41821141,W,2,11,0.9,8.576,M,-37.634,M,7.4,0131*6F
$PYRTM,2024,126.250110080775,17.359757490914
$GNHDT,103.387,T*25
$PYRTM,2024,126.250115924618,17.359763334757
$GNGGA,060010.00,3419.77977393,N,12049.41689344,W,2,11,0.9,8.672,M,-37.634,M,7.0,0131*64
$PYRTM,2024,126.250115924618,17.359763334757
$GNHDT,103.335,T*2C
$PYRTM,2024,126.250121654502,17.359769064641
$GNGGA,060010.50,3419.77931114,N,12049.41558064,W,2,11,0.9,8.704,M,-37.634,M,7.4,0131*64
$PYRTM,2024,126.250121654502,17.359769064641
$GNHDT,103.114,T*2D
$PYRTM,2024,126.250127498044,17.359774908183
$GNGGA,060011.00,3419.77886871,N,12049.41427107,W,2,11,0.9,8.631,M,-37.634,M,7.0,0131*69
$PYRTM,2024,126.250127498044,17.359774908183
$GNHDT,103.303,T*29
$PYRTM,2024,126.250133229479,17.359780639618
$GNGGA,060011.50,3419.77846316,N,12049.41295972,W,2,11,0.9,8.462,M,-37.634,M,7.4,0131*6F
$PYRTM,2024,126.250133229479,17.359780639618
$GNHDT,103.681,T*26
$PYRTM,2024,126.250139068183,17.359786478322
$GNGGA,060012.00,3419.77808443,N,12049.41163907,W,2,11,0.9,8.214,M,-37.634,M,4.0,0131*6C
$PYRTM,2024,126.250139068183,17.359786478322
$GNHDT,104.100,T*2F
$PYRTM,2024,126.250144802951,17.359792213090
$GNGGA,060012.50,3419.77770682,N,12049.41031229,W,2,11,0.9,7.951,M,-37.634,M,4.4,0131*66
$PYRTM,2024,126.250144802951,17.359792213090
$GNHDT,104.125,T*28
$PYRTM,2024,126.250150643657,17.359798053796
$GNGGA,060013.00,3419.77731209,N,12049.40898632,W,2,11,0.9,7.721,M,-37.634,M,5.0,0131*68
$PYRTM,2024,126.250150643657,17.359798053796
$GNHDT,104.202,T*2E
$PYRTM,2024,126.250156375637,17.359803785775
$GNGGA,060013.50,3419.77688479,N,12049.40765480,W,2,11,0.9,7.593,M,-37.634,M,5.4,0131*66
$PYRTM,2024,126.250156375637,17.359803785775
$GNHDT,104.190,T*26
$PYRTM,2024,126.250162219769,17.359809629907
$GNGGA,060014.00,3419.77642756,N,12049.40632176,W,2,11,0.9,7.568,M,-37.634,M,6.0,0131*60
$PYRTM,2024,126.250162219769,17.359809629907
$GNHDT,103.910,T*21
$PYRTM,2024,126.250167959248,17.359815369387
$GNGGA,060014.50,3419.77595620,N,12049.40497694,W,2,11,0.9,7.649,M,-37.634,M,6.4,0131*6E
$PYRTM,2024,126.250167959248,17.359815369387
$GNHDT,103.253,T*2D
$PYRTM,2024,126.250173792801,17.359821202940
$GNGGA,060015.00,3419.77547758,N,12049.40362896,W,2,11,0.9,7.855,M,-37.634,M,7.0,0131*6C
$PYRTM,2024,126.250173792801,17.359821202940
$GNHDT,102.830,T*23
$PYRTM,2024,126.250179530093,17.359826940231
$GNGGA,060015.50,3419.77499604,N,12049.40229528,W,2,11,0.9,8.115,M,-37.634,M,7.4,0131*63
$PYRTM,2024,126.250179530093,17.359826940231
$GNHDT,102.528,T*27
$PYRTM,2024,126.250185368021,17.359832778160
$GNGGA,060016.00,3419.77452149,N,12049.40097318,W,2,11,0.9,8.372,M,-37.634,M,7.0,0131*69
$PYRTM,2024,126.250185368021,17.359832778160
$GNHDT,102.336,T*2E
$PYRTM,2024,126.250191102789,17.359838512928
$GNGGA,060016.50,3419.77407298,N,12049.39964965,W,2,11,0.9,8.557,M,-37.634,M,7.4,0131*6D
$PYRTM,2024,126.250191102789,17.359838512928
$GNHDT,102.627,T*2B
$PYRTM,2024,126.250196944988,17.359844355127
$GNGGA,060017.00,3419.77366527,N,12049.39832703,W,2,11,0.9,8.616,M,-37.634,M,7.0,0131*64
$PYRTM,2024,126.250196944988,17.359844355127
$GNHDT,103.111,T*28
$PYRTM,2024,126.250202672674,17.359850082812
$GNGGA,060017.50,3419.77329256,N,12049.39701126,W,2,11,0.9,8.546,M,-37.634,M,7.4,0131*67
$PYRTM,2024,126.250202672674,17.359850082812
$GNHDT,103.062,T*2D
$PYRTM,2024,126.250208513484,17.359855923623
$GNGGA,060018.00,3419.77291489,N,12049.39572267,W,2,11,0.9,8.287,M,-37.634,M,4.0,0131*66
$PYRTM,2024,126.250208513484,17.359855923623
$GNHDT,103.640,T*2B
$PYRTM,2024,126.250214248009,17.359861658148
$GNGGA,060018.50,3419.77248474,N,12049.39445105,W,2,11,0.9,7.972,M,-37.634,M,4.4,0131*6D
$PYRTM,2024,126.250214248009,17.359861658148
$GNHDT,104.377,T*2D
$PYRTM,2024,126.250220085463,17.359867495602
$GNGGA,060019.00,3419.77198937,N,12049.39319467,W,2,11,0.9,7.652,M,-37.634,M,5.0,0131*6A
$PYRTM,2024,126.250220085463,17.359867495602
$GNHDT,104.679,T*26
$PYRTM,2024,126.250225823958,17.359873234097
$GNGGA,060019.50,3419.77145618,N,12049.39194483,W,2,11,0.9,7.373,M,-37.634,M,5.4,0131*62
$PYRTM,2024,126.250225823958,17.359873234097
$GNHDT,104.910,T*26
$PYRTM,2024,126.250231668356,17.359879078507
$GNGGA,060020.00,3419.77092377,N,12049.39069204,W,2,11,0.9,7.200,M,-37.634,M,6.0,0131*62
$PYRTM,2024,126.250231668356,17.359879078507
$GNHDT,105.083,T*24
$PYRTM,2024,126.250237396111,17.359884806250
$GNGGA,060020.50,3419.77042872,N,12049.38940972,W,2,11,0.9,7.167,M,-37.634,M,6.4,0131*6B
$PYRTM,2024,126.250237396111,17.359884806250
$GNHDT,104.766,T*29
$PYRTM,2024,126.250243239977,17.359890650116
$GNGGA,060021.00,3419.77000280,N,12049.38807318,W,2,11,0.9,7.291,M,-37.634,M,7.0,0131*65
$PYRTM,2024,126.250243239977,17.359890650116
$GNHDT,104.372,T*28
$PYRTM,2024,126.250248969850,17.359896379988
$GNGGA,060021.50,3419.76963576,N,12049.38666696,W,2,11,0.9,7.516,M,-37.634,M,7.4,0131*65
$PYRTM,2024,126.250248969850,17.359896379988
$GNHDT,103.784,T*22
$PYRTM,2024,126.250254809537,17.359902219676
$GNGGA,060022.00,3419.76928038,N,12049.38521743,W,2,11,0.9,7.850,M,-37.633,M,7.0,0131*66
$PYRTM,2024,126.250254809537,17.359902219676
$GNHDT,103.015,T*2D
$PYRTM,2024,126.250260544977,17.359907955116
$GNGGA,060022.50,3419.76888399,N,12049.38377429,W,2,11,0.9,8.263,M,-37.633,M,7.4,0131*6B
$PYRTM,2024,126.250260544977,17.359907955116
$GNHDT,102.341,T*2E
$PYRTM,2024,126.250266386400,17.359913796539
$GNGGA,060023.00,3419.76842838,N,12049.38235552,W,2,11,0.9,8.682,M,-37.633,M,7.0,0131*6C
$PYRTM,2024,126.250266386400,17.359913796539
$GNHDT,101.825,T*24
$PYRTM,2024,126.250272116921,17.359919527060
$GNGGA,060023.50,3419.76793308,N,12049.38095161,W,2,11,0.9,9.026,M,-37.633,M,7.4,0131*63
$PYRTM,2024,126.250272116921,17.359919527060
$GNHDT,101.908,T*2A
$PYRTM,2024,126.250277960382,17.359925370521
$GNGGA,060024.00,3419.76743274,N,12049.37956709,W,2,11,0.9,9.256,M,-37.633,M,4.0,0131*65
$PYRTM,2024,126.250277960382,17.359925370521
$GNHDT,101.824,T*25
$PYRTM,2024,126.250283691794,17.359931101933
$GNGGA,060024.50,3419.76695610,N,12049.37820085,W,2,11,0.9,9.294,M,-37.633,M,4.4,0131*65
$PYRTM,2024,126.250283691794,17.359931101933
$GNHDT,102.042,T*2E
$PYRTM,2024,126.250289532801,17.359936942940
$GNGGA,060025.00,3419.76649651,N,12049.37685581,W,2,11,0.9,9.175,M,-37.633,M,5.0,0131*6C
$PYRTM,2024,126.250289532801,17.359936942940
$GNHDT,102.521,T*2E
$PYRTM,2024,126.250295267731,17.359942677870
$GNGGA,060025.50,3419.76603395,N,12049.37552967,W,2,11,0.9,8.917,M,-37.633,M,5.4,0131*6E
$PYRTM,2024,126.250295267731,17.359942677870
$GNHDT,102.812,T*23
$PYRTM,2024,126.250301108519,17.359948518657
$GNGGA,060026.00,3419.76555212,N,12049.37423027,W,2,11,0.9,8.586,M,-37.633,M,6.0,0131*6F
$PYRTM,2024,126.250301108519,17.359948518657
$GNHDT,103.490,T*24
$PYRTM,2024,126.250306843426,17.359954253565
$GNGGA,060026.50,3419.76506100,N,12049.37296468,W,2,11,0.9,8.270,M,-37.633,M,6.4,0131*61
$PYRTM,2024,126.250306843426,17.359954253565
$GNHDT,104.254,T*2D
$PYRTM,2024,126.250312681968,17.359960092106
$GNGGA,060027.00,3419.76457483,N,12049.37172077,W,2,11,0.9,8.018,M,-37.633,M,7.0,0131*64
$PYRTM,2024,126.250312681968,17.359960092106
$GNHDT,104.502,T*29
$PYRTM,2024,126.250318416921,17.359965827060
$GNGGA,060027.50,3419.76411507,N,12049.37046978,W,2,11,0.9,7.857,M,-37.633,M,7.4,0131*66
$PYRTM,2024,126.250318416921,17.359965827060
$GNHDT,104.814,T*23
$PYRTM,2024,126.250324256551,17.359971666690
$GNGGA,060028.00,3419.76369786,N,12049.36917079,W,2,11,0.9,7.746,M,-37.633,M,7.0,0131*60
$PYRTM,2024,126.250324256551,17.359971666690
$GNHDT,104.868,T*28
$PYRTM,2024,126.250329989225,17.359977399363
$GNGGA,060028.50,3419.76333004,N,12049.36782238,W,2,11,0.9,7.728,M,-37.633,M,7.4,0131*6E
$PYRTM,2024,126.250329989225,17.359977399363
$GNHDT,104.343,T*2A
$PYRTM,2024,126.250335829907,17.359983240046
$GNGGA,060029.00,3419.76300082,N,12049.36643538,W,2,11,0.9,7.798,M,-37.633,M,7.0,0131*60
$PYRTM,2024,126.250335829907,17.359983240046
$GNHDT,103.601,T*2E
$PYRTM,2024,126.250341566725,17.359988976875
$GNGGA,060029.50,3419.76269597,N,12049.36501940,W,2,11,0.9,7.971,M,-37.633,M,7.4,0131*61
$PYRTM,2024,126.250341566725,17.359988976875
$GNHDT,103.085,T*24
$PYRTM,2024,126.250347402292,17.359994812431
$GNGGA,060030.00,3419.76239684,N,12049.36359399,W,2,11,0.9,8.221,M,-37.633,M,4.0,0131*6B
$PYRTM,2024,126.250347402292,17.359994812431
$GNHDT,102.298,T*2B
$PYRTM,2024,126.250353140150,17.360000550301
$GNGGA,060030.50,3419.76204361,N,12049.36218683,W,2,11,0.9,8.485,M,-37.633,M,4.4,0131*68
$PYRTM,2024,126.250353140150,17.360000550301
$GNHDT,101.743,T*2B
$PYRTM,2024,126.250358977940,17.360006388079
$GNGGA,060031.00,3419.76158464,N,12049.36083754,W,2,11,0.9,8.701,M,-37.633,M,5.0,0131*65
$PYRTM,2024,126.250358977940,17.360006388079
$GNHDT,101.457,T*2D
$PYRTM,2024,126.250364712685,17.360012122824
$GNGGA,060031.50,3419.76100735,N,12049.35953177,W,2,11,0.9,8.851,M,-37.633,M,5.4,0131*64
$PYRTM,2024,126.250364712685,17.360012122824
$GNHDT,101.637,T*29
$PYRTM,2024,126.250370555150,17.360017965289
$GNGGA,060032.00,3419.76034220,N,12049.35824541,W,2,11,0.9,8.834,M,-37.633,M,6.0,0131*61
$PYRTM,2024,126.250370555150,17.360017965289
$GNHDT,102.159,T*25
$PYRTM,2024,126.250376284398,17.360023694537
$GNGGA,060032.50,3419.75968449,N,12049.35694854,W,2,11,0.9,8.677,M,-37.633,M,6.4,0131*6F
$PYRTM,2024,126.250376284398,17.360023694537
$GNHDT,102.383,T*20
$PYRTM,2024,126.250382124109,17.360029534248
$GNGGA,060033.00,3419.75910561,N,12049.35565685,W,2,11,0.9,8.439,M,-37.633,M,7.0,0131*6D
$PYRTM,2024,126.250382124109,17.360029534248
$GNHDT,103.017,T*2F
$PYRTM,2024,126.250387859375,17.360035269514
$GNGGA,060033.50,3419.75862907,N,12049.35436049,W,2,11,0.9,8.173,M,-37.633,M,7.4,0131*6E
$PYRTM,2024,126.250387859375,17.360035269514
$GNHDT,103.001,T*28
$PYRTM,2024,126.250393699213,17.360041109352
$GNGGA,060034.00,3419.75823711,N,12049.35307827,W,2,11,0.9,7.988,M,-37.633,M,7.0,0131*62
$PYRTM,2024,126.250393699213,17.360041109352
$GNHDT,103.583,T*27
$PYRTM,2024,126.250399434271,17.360046844410
$GNGGA,060034.50,3419.75789481,N,12049.35182134,W,2,11,0.9,7.904,M,-37.633,M,7.4,0131*66
$PYRTM,2024,126.250399434271,17.360046844410
$GNHDT,104.380,T*25
$PYRTM,2024,126.250405274502,17.360052684641
$GNGGA,060035.00,3419.75757233,N,12049.35057855,W,2,11,0.9,7.897,M,-37.632,M,7.0,0131*67
$PYRTM,2024,126.250405274502,17.360052684641
$GNHDT,104.747,T*2A
$PYRTM,2024,126.250411010648,17.360058420799
$GNGGA,060035.50,3419.75723368,N,12049.34930726,W,2,11,0.9,7.906,M,-37.632,M,7.4,0131*61
$PYRTM,2024,126.250411010648,17.360058420799
$GNHDT,104.961,T*20
$PYRTM,2024,126.250416849734,17.360064259873
$GNGGA,060036.00,3419.75685856,N,12049.34802155,W,2,11,0.9,7.877,M,-37.632,M,4.0,0131*6E
$PYRTM,2024,126.250416849734,17.360064259873
$GNHDT,105.176,T*2F
$PYRTM,2024,126.250422584074,17.360069994213
$GNGGA,060036.50,3419.75644159,N,12049.34673460,W,2,11,0.9,7.790,M,-37.632,M,4.4,0131*69
$PYRTM,2024,126.250422584074,17.360069994213
$GNHDT,105.229,T*26
$PYRTM,2024,126.250428426065,17.360075836204
$GNGGA,060037.00,3419.75599187,N,12049.34544577,W,2,11,0.9,7.649,M,-37.632,M,5.0,0131*6D
$PYRTM,2024,126.250428426065,17.360075836204
$GNHDT,104.782,T*23
$PYRTM,2024,126.250434155938,17.360081566076
$GNGGA,060037.50,3419.75552539,N,12049.34413624,W,2,11,0.9,7.494,M,-37.632,M,5.4,0131*6E
$PYRTM,2024,126.250434155938,17.360081566076
$GNHDT,104.946,T*25
$PYRTM,2024,126.250439994514,17.360087404653
$GNGGA,060038.00,3419.75505931,N,12049.34279188,W,2,11,0.9,7.394,M,-37.632,M,6.0,0131*69
$PYRTM,2024,126.250439994514,17.360087404653
$GNHDT,104.536,T*2E
$PYRTM,2024,126.250445737859,17.360093147998
$GNGGA,060038.50,3419.75459434,N,12049.34143953,W,2,11,0.9,7.437,M,-37.632,M,6.4,0131*62
$PYRTM,2024,126.250445737859,17.360093147998
$GNHDT,104.124,T*29
$PYRTM,2024,126.250451569306,17.360098979444
$GNGGA,060039.00,3419.75412454,N,12049.34009122,W,2,11,0.9,7.625,M,-37.632,M,7.0,0131*6A
$PYRTM,2024,126.250451569306,17.360098979444
$GNHDT,103.916,T*27
$PYRTM,2024,126.250457306435,17.360104716574
$GNGGA,060039.50,3419.75366975,N,12049.33876467,W,2,11,0.9,7.906,M,-37.632,M,7.4,0131*6C
$PYRTM,2024,126.250457306435,17.360104716574
$GNHDT,103.859,T*2D
$PYRTM,2024,126.250463146701,17.360110556840
$GNGGA,060040.00,3419.75324248,N,12049.33744549,W,2,11,0.9,8.228,M,-37.632,M,7.0,0131*6B
$PYRTM,2024,126.250463146701,17.360110556840
$GNHDT,103.887,T*2E
$PYRTM,2024,126.250468878681,17.360116288819
$GNGGA,060040.50,3419.75284456,N,12049.33613379,W,2,11,0.9,8.473,M,-37.632,M,7.4,0131*66
$PYRTM,2024,126.250468878681,17.360116288819
$GNHDT,104.322,T*2D
$PYRTM,2024,126.250474721204,17.360122131343
$GNGGA,060041.00,3419.75244383,N,12049.33483728,W,2,11,0.9,8.599,M,-37.632,M,7.0,0131*6B
$PYRTM,2024,126.250474721204,17.360122131343
$GNHDT,104.780,T*21
$PYRTM,2024,126.250480453669,17.360127863808
$GNGGA,060041.50,3419.75200988,N,12049.33355111,W,2,11,0.9,8.553,M,-37.632,M,7.4,0131*6D
$PYRTM,2024,126.250480453669,17.360127863808
$GNHDT,105.159,T*22
$PYRTM,2024,126.250486292488,17.360133702639
$GNGGA,060042.00,3419.75153459,N,12049.33227089,W,2,11,0.9,8.387,M,-37.632,M,4.0,0131*63
$PYRTM,2024,126.250486292488,17.360133702639
$GNHDT,105.430,T*28
$PYRTM,2024,126.250492025822,17.360139435961
$GNGGA,060042.50,3419.75101780,N,12049.33099379,W,2,11,0.9,8.158,M,-37.632,M,4.4,0131*69
$PYRTM,2024,126.250492025822,17.360139435961
$GNHDT,105.852,T*20
$PYRTM,2024,126.250497869028,17.360145279167
$GNGGA,060043.00,3419.75048560,N,12049.32971977,W,2,11,0.9,7.948,M,-37.632,M,5.0,0131*64
$PYRTM,2024,126.250497869028,17.360145279167
$GNHDT,105.359,T*20
$PYRTM,2024,126.250503602743,17.360151012882
$GNGGA,060043.50,3419.74993756,N,12049.32842335,W,2,11,0.9,7.833,M,-37.632,M,5.4,0131*6C
$PYRTM,2024,126.250503602743,17.360151012882
$GNHDT,105.385,T*21
$PYRTM,2024,126.250509441088,17.360156851227
$GNGGA,060044.00,3419.74940779,N,12049.32710335,W,2,11,0.9,7.868,M,-37.632,M,6.0,0131*6C
$PYRTM,2024,126.250509441088,17.360156851227
$GNHDT,104.965,T*24
$PYRTM,2024,126.250515181262,17.360162591400
$GNGGA,060044.50,3419.74890307,N,12049.32575023,W,2,11,0.9,8.070,M,-37.632,M,6.4,0131*67
$PYRTM,2024,126.250515181262,17.360162591400
$GNHDT,103.628,T*25
$PYRTM,2024,126.250521017523,17.360168427662
$GNGGA,060045.00,3419.74843775,N,12049.32436437,W,2,11,0.9,8.354,M,-37.632,M,7.0,0131*6B
$PYRTM,2024,126.250521017523,17.360168427662
$GNHDT,102.829,T*2B
$PYRTM,2024,126.250526750683,17.360174160822
$GNGGA,060045.50,3419.74802121,N,12049.32295907,W,2,11,0.9,8.657,M,-37.632,M,7.4,0131*6F
$PYRTM,2024,126.250526750683,17.360174160822
$GNHDT,102.432,T*2D
$PYRTM,2024,126.250532590880,17.360180001030
$GNGGA,060046.00,3419.74764754,N,12049.32154459,W,2,11,0.9,8.887,M,-37.632,M,7.0,0131*6D
$PYRTM,2024,126.250532590880,17.360180001030
$GNHDT,102.043,T*2F
$PYRTM,2024,126.250538324491,17.360185734630
$GNGGA,060046.50,3419.74730056,N,12049.32013441,W,2,11,0.9,8.978,M,-37.631,M,7.4,0131*61
$PYRTM,2024,126.250538324491,17.360185734630
$GNHDT,102.066,T*28
$PYRTM,2024,126.250544169502,17.360191579641
$GNGGA,060047.00,3419.74696162,N,12049.31874184,W,2,11,0.9,8.854,M,-37.631,M,7.0,0131*63
$PYRTM,2024,126.250544169502,17.360191579641
$GNHDT,102.317,T*2D
$PYRTM,2024,126.250549898021,17.360197308160
$GNGGA,060047.50,3419.74656764,N,12049.31739631,W,2,11,0.9,8.637,M,-37.631,M,7.4,0131*6A
$PYRTM,2024,126.250549898021,17.360197308160
$GNHDT,102.747,T*2C
$PYRTM,2024,126.250555736505,17.360203146644
$GNGGA,060048.00,3419.74608943,N,12049.31611719,W,2,11,0.9,8.358,M,-37.631,M,4.0,0131*6B
$PYRTM,2024,126.250555736505,17.360203146644
$GNHDT,103.216,T*2C
$PYRTM,2024,126.250561472986,17.360208883125
$GNGGA,060048.50,3419.74552942,N,12049.31487543,W,2,11,0.9,8.067,M,-37.631,M,4.4,0131*68
$PYRTM,2024,126.250561472986,17.360208883125
$GNHDT,103.907,T*27
$PYRTM,2024,126.250567315972,17.360214726111
$GNGGA,060049.00,3419.74495847,N,12049.31364931,W,2,11,0.9,7.796,M,-37.631,M,5.0,0131*62
$PYRTM,2024,126.250567315972,17.360214726111
$GNHDT,104.142,T*29
$PYRTM,2024,126.250573043808,17.360220453947
$GNGGA,060049.50,3419.74443580,N,12049.31240458,W,2,11,0.9,7.539,M,-37.631,M,5.4,0131*6C
$PYRTM,2024,126.250573043808,17.360220453947
$GNHDT,104.154,T*2E
$PYRTM,2024,126.250578886609,17.360226296748
$GNGGA,060050.00,3419.74400615,N,12049.31113732,W,2,11,0.9,7.366,M,-37.631,M,6.0,0131*68
$PYRTM,2024,126.250578886609,17.360226296748
$GNHDT,104.137,T*2B
$PYRTM,2024,126.250584617454,17.360232027604
$GNGGA,060050.50,3419.74367401,N,12049.30982401,W,2,11,0.9,7.297,M,-37.631,M,6.4,0131*65
$PYRTM,2024,126.250584617454,17.360232027604
$GNHDT,103.935,T*26
$PYRTM,2024,126.250590460822,17.360237870961
$GNGGA,060051.00,3419.74339012,N,12049.30848083,W,2,11,0.9,7.310,M,-37.631,M,7.0,0131*6E
$PYRTM,2024,126.250590460822,17.360237870961
$GNHDT,103.619,T*27
$PYRTM,2024,126.250596199144,17.360243609282
$GNGGA,060051.50,3419.74306819,N,12049.30714680,W,2,11,0.9,7.453,M,-37.631,M,7.4,0131*63
$PYRTM,2024,126.250596199144,17.360243609282
$GNHDT,103.045,T*28
$PYRTM,2024,126.250602036759,17.360249446898
$GNGGA,060052.00,3419.74267040,N,12049.30584480,W,2,11,0.9,7.721,M,-37.631,M,7.0,0131*6C
$PYRTM,2024,126.250602036759,17.360249446898
$GNHDT,102.231,T*28
$PYRTM,2024,126.250607773565,17.360255183704
$GNGGA,060052.50,3419.74219681,N,12049.30454355,W,2,11,0.9,8.052,M,-37.631,M,7.4,0131*60
$PYRTM,2024,126.250607773565,17.360255183704
$GNHDT,101.860,T*25
$PYRTM,2024,126.250613609225,17.360261019363
$GNGGA,060053.00,3419.74168923,N,12049.30322693,W,2,11,0.9,8.334,M,-37.631,M,7.0,0131*68
$PYRTM,2024,126.250613609225,17.360261019363
$GNHDT,101.123,T*2B
$PYRTM,2024,126.250619340313,17.360266750451
$GNGGA,060053.50,3419.74119063,N,12049.30190663,W,2,11,0.9,8.539,M,-37.631,M,7.4,0131*6D
$PYRTM,2024,126.250619340313,17.360266750451
$GNHDT,100.555,T*2F
$PYRTM,2024,126.250625185463,17.360272595602
$GNGGA,060054.00,3419.74073081,N,12049.30059567,W,2,11,0.9,8.679,M,-37.631,M,4.0,0131*6D
$PYRTM,2024,126.250625185463,17.360272595602
$GNHDT,100.419,T*26
$PYRTM,2024,126.250630917801,17.360278327951
$GNGGA,060054.50,3419.74031195,N,12049.29927442,W,2,11,0.9,8.696,M,-37.631,M,4.4,0131*61
$PYRTM,2024,126.250630917801,17.360278327951
$GNHDT,100.581,T*26
$PYRTM,2024,126.250636754132,17.360284164282
$GNGGA,060055.00,3419.73990430,N,12049.29796008,W,2,11,0.9,8.650,M,-37.631,M,5.0,0131*6B
$PYRTM,2024,126.250636754132,17.360284164282
$GNHDT,100.854,T*23
$PYRTM,2024,126.250642486551,17.360289896690
$GNGGA,060055.50,3419.73948569,N,12049.29665107,W,2,11,0.9,8.559,M,-37.631,M,5.4,0131*6B
$PYRTM,2024,126.250642486551,17.360289896690
$GNHDT,101.095,T*27
$PYRTM,2024,126.250648331632,17.360295741771
$GNGGA,060056.00,3419.73904698,N,12049.29533668,W,2,11,0.9,8.455,M,-37.631,M,6.0,0131*6C
$PYRTM,2024,126.250648331632,17.360295741771
$GNHDT,101.151,T*2E
$PYRTM,2024,126.250654060127,17.360301470266
$GNGGA,060056.50,3419.73859726,N,12049.29401550,W,2,11,0.9,8.379,M,-37.631,M,6.4,0131*61
$PYRTM,2024,126.250654060127,17.360301470266
$GNHDT,100.812,T*21
$PYRTM,2024,126.250659904410,17.360307314549
$GNGGA,060057.00,3419.73815439,N,12049.29268633,W,2,11,0.9,8.341,M,-37.631,M,7.0,0131*61
$PYRTM,2024,126.250659904410,17.360307314549
$GNHDT,100.704,T*29
$PYRTM,2024,126.250665635000,17.360313045139
$GNGGA,060057.50,3419.73775079,N,12049.29135688,W,2,11,0.9,8.337,M,-37.631,M,7.4,0131*63
$PYRTM,2024,126.250665635000,17.360313045139
$GNHDT,100.583,T*24
$PYRTM,2024,126.250671477060,17.360318887199
$GNGGA,060058.00,3419.73741389,N,12049.29001794,W,2,11,0.9,8.397,M,-37.631,M,7.0,0131*66
$PYRTM,2024,126.250671477060,17.360318887199
$GNHDT,100.700,T*2D
$PYRTM,2024,126.250677215556,17.360324625694
$GNGGA,060058.50,3419.73713288,N,12049.28867445,W,2,11,0.9,8.489,M,-37.631,M,7.4,0131*6E
$PYRTM,2024,126.250677215556,17.360324625694
$GNHDT,100.515,T*2B
$PYRTM,2024,126.250683054005,17.360330464144
$GNGGA,060059.00,3419.73685516,N,12049.28733746,W,2,11,0.9,8.585,M,-37.631,M,7.0,0131*63
$PYRTM,2024,126.250683054005,17.360330464144
$GNHDT,100.803,T*21
$PYRTM,2024,126.250688786019,17.360336196157
$GNGGA,060059.50,3419.73654012,N,12049.28600332,W,2,11,0.9,8.668,M,-37.630,M,7.4,0131*68
$PYRTM,2024,126.250688786019,17.360336196157
$GNHDT,101.024,T*2D
$PYRTM,2024,126.250694630417,17.360342040556
$GNGGA,060100.00,3419.73615719,N,12049.28466706,W,2,11,0.9,8.684,M,-37.630,M,4.0,0131*6D
$PYRTM,2024,126.250694630417,17.360342040556
$GNHDT,101.384,T*24
$PYRTM,2024,126.250700362824,17.360347772975
$GNGGA,060100.50,3419.73572263,N,12049.28331936,W,2,11,0.9,8.606,M,-37.630,M,4.4,0131*64
$PYRTM,2024,126.250700362824,17.360347772975
$GNHDT,101.398,T*29
$PYRTM,2024,126.250706200590,17.360353610729
$GNGGA,060101.00,3419.73525132,N,12049.28197154,W,2,11,0.9,8.444,M,-37.630,M,5.0,0131*66
$PYRTM,2024,126.250706200590,17.360353610729
$GNHDT,101.307,T*2F
$PYRTM,2024,126.250711932801,17.360359342940
$GNGGA,060101.50,3419.73478411,N,12049.28063230,W,2,11,0.9,8.271,M,-37.630,M,5.4,0131*61
$PYRTM,2024,126.250711932801,17.360359342940
$GNHDT,101.627,T*28
$PYRTM,2024,126.250717773866,17.360365184005
$GNGGA,060102.00,3419.73433822,N,12049.27932271,W,2,11,0.9,8.137,M,-37.630,M,6.0,0131*65
$PYRTM,2024,126.250717773866,17.360365184005
$GNHDT,101.661,T*2A
$PYRTM,2024,126.250723515127,17.360370925266
$GNGGA,060102.50,3419.73393031,N,12049.27803307,W,2,11,0.9,8.115,M,-37.630,M,6.4,0131*60
$PYRTM,2024,126.250723515127,17.360370925266
$GNHDT,101.961,T*25
$PYRTM,2024,126.250729350081,17.360376760220
$GNGGA,060103.00,3419.73356036,N,12049.27674661,W,2,11,0.9,8.163,M,-37.630,M,7.0,0131*65
$PYRTM,2024,126.250729350081,17.360376760220
$GNHDT,102.029,T*23
$PYRTM,2024,126.250735085197,17.360382495336
$GNGGA,060103.50,3419.73321955,N,12049.27544980,W,2,11,0.9,8.221,M,-37.630,M,7.4,0131*6D
$PYRTM,2024,126.250735085197,17.360382495336
$GNHDT,101.877,T*23
$PYRTM,2024,126.250740923125,17.360388333275
$GNGGA,060104.00,3419.73288672,N,12049.27416960,W,2,11,0.9,8.282,M,-37.630,M,7.0,0131*62
$PYRTM,2024,126.250740923125,17.360388333275
$GNHDT,101.836,T*26
$PYRTM,2024,126.250746654861,17.360394065000
$GNGGA,060104.50,3419.73252357,N,12049.27291731,W,2,11,0.9,8.332,M,-37.630,M,7.4,0131*6F
$PYRTM,2024,126.250746654861,17.360394065000
$GNHDT,102.147,T*2A
$PYRTM,2024,126.250752496470,17.360399906609
$GNGGA,060105.00,3419.73212278,N,12049.27168347,W,2,11,0.9,8.328,M,-37.630,M,7.0,0131*6C
$PYRTM,2024,126.250752496470,17.360399906609
$GNHDT,102.479,T*22
$PYRTM,2024,126.250758233657,17.360405643796
$GNGGA,060105.50,3419.73168741,N,12049.27043012,W,2,11,0.9,8.223,M,-37.630,M,7.4,0131*6D
$PYRTM,2024,126.250758233657,17.360405643796
$GNHDT,102.633,T*2E
$PYRTM,2024,126.250764073287,17.360411483426
$GNGGA,060106.00,3419.73124444,N,12049.26913396,W,2,11,0.9,8.049,M,-37.630,M,4.0,0131*6E
$PYRTM,2024,126.250764073287,17.360411483426
$GNHDT,102.509,T*24
$PYRTM,2024,126.250769805914,17.360417216053
$GNGGA,060106.50,3419.73080998,N,12049.26781051,W,2,11,0.9,7.883,M,-37.630,M,4.4,0131*60
$PYRTM,2024,126.250769805914,17.360417216053
$GNHDT,102.255,T*2A
$PYRTM,2024,126.250775648623,17.360423058762
$GNGGA,060107.00,3419.73038187,N,12049.26648553,W,2,11,0.9,7.828,M,-37.630,M,5.0,0131*66
$PYRTM,2024,126.250775648623,17.360423058762
$GNHDT,102.173,T*2D
$PYRTM,2024,126.250781382025,17.360428792164
$GNGGA,060107.50,3419.72994330,N,12049.26515998,W,2,11,0.9,7.934,M,-37.630,M,5.4,0131*6B
$PYRTM,2024,126.250781382025,17.360428792164
$GNHDT,101.187,T*25
$PYRTM,2024,126.250787221782,17.360434631921
$GNGGA,060108.00,3419.72948836,N,12049.26383517,W,2,11,0.9,8.217,M,-37.630,M,6.0,0131*6D
$PYRTM,2024,126.250787221782,17.360434631921
$GNHDT,101.034,T*2C
$PYRTM,2024,126.250792952778,17.360440362917
$GNGGA,060108.50,3419.72902220,N,12049.26250237,W,2,11,0.9,8.603,M,-37.630,M,6.4,0131*64
$PYRTM,2024,126.250792952778,17.360440362917
$GNHDT,101.290,T*20
$PYRTM,2024,126.250798794931,17.360446205069
$GNGGA,060109.00,3419.72855428,N,12049.26115728,W,2,11,0.9,8.985,M,-37.630,M,7.0,0131*60
$PYRTM,2024,126.250798794931,17.360446205069
$GNHDT,101.403,T*2C
$PYRTM,2024,126.250804534236,17.360451944375
$GNGGA,060109.50,3419.72810769,N,12049.25979186,W,2,11,0.9,9.284,M,-37.630,M,7.4,0131*6E
$PYRTM,2024,126.250804534236,17.360451944375
$GNHDT,101.733,T*2C
$PYRTM,2024,126.250810371667,17.360457781806
$GNGGA,060110.00,3419.72769172,N,12049.25842181,W,2,11,0.9,9.438,M,-37.630,M,7.0,0131*65
$PYRTM,2024,126.250810371667,17.360457781806
$GNHDT,102.601,T*2F
$PYRTM,2024,126.250816103924,17.360463514063
$GNGGA,060110.50,3419.72729482,N,12049.25704518,W,2,11,0.9,9.463,M,-37.630,M,7.4,0131*6D
$PYRTM,2024,126.250816103924,17.360463514063
$GNHDT,103.131,T*2A
$PYRTM,2024,126.250821942743,17.360469352882
$GNGGA,060111.00,3419.72687690,N,12049.25568000,W,2,11,0.9,9.365,M,-37.630,M,7.0,0131*6C
$PYRTM,2024,126.250821942743,17.360469352882
$GNHDT,103.626,T*2B
$PYRTM,2024,126.250827673275,17.360475083426
$GNGGA,060111.50,3419.72643137,N,12049.25432474,W,2,11,0.9,9.190,M,-37.630,M,7.4,0131*6E
$PYRTM,2024,126.250827673275,17.360475083426
$GNHDT,103.933,T*20
$PYRTM,2024,126.250833514062,17.360480924201
$GNGGA,060112.00,3419.72596660,N,12049.25298884,W,2,11,0.9,8.997,M,-37.630,M,4.0,0131*6A
$PYRTM,2024,126.250833514062,17.360480924201
$GNHDT,104.263,T*29
$PYRTM,2024,126.250839248762,17.360486658900
$GNGGA,060112.50,3419.72551432,N,12049.25166222,W,2,11,0.9,8.842,M,-37.630,M,4.4,0131*68
$PYRTM,2024,126.250839248762,17.360486658900
$GNHDT,104.449,T*27
$PYRTM,2024,126.250845093275,17.360492503414
$GNGGA,060113.00,3419.72510808,N,12049.25034258,W,2,11,0.9,8.678,M,-37.629,M,5.0,0131*6D
$PYRTM,2024,126.250845093275,17.360492503414
$GNHDT,104.645,T*29
$PYRTM,2024,126.250850821910,17.360498232049
$GNGGA,060113.50,3419.72476640,N,12049.24898247,W,2,11,0.9,8.543,M,-37.629,M,5.4,0131*65
$PYRTM,2024,126.250850821910,17.360498232049
$GNHDT,104.425,T*2D
$PYRTM,2024,126.250856664225,17.360504074375
$GNGGA,060114.00,3419.72445139,N,12049.24761337,W,2,11,0.9,8.433,M,-37.629,M,6.0,0131*60
$PYRTM,2024,126.250856664225,17.360504074375
$GNHDT,104.042,T*28
$PYRTM,2024,126.250862398727,17.360509808866
$GNGGA,060114.50,3419.72411356,N,12049.24626530,W,2,11,0.9,8.400,M,-37.629,M,6.4,0131*68
$PYRTM,2024,126.250862398727,17.360509808866
$GNHDT,103.827,T*24
$PYRTM,2024,126.250868238299,17.360515648438
$GNGGA,060115.00,3419.72373409,N,12049.24494615,W,2,11,0.9,8.445,M,-37.629,M,7.0,0131*69
$PYRTM,2024,126.250868238299,17.360515648438
$GNHDT,103.525,T*2B
$PYRTM,2024,126.250873975382,17.360521385521
$GNGGA,060115.50,3419.72331478,N,12049.24365492,W,2,11,0.9,8.542,M,-37.629,M,7.4,0131*6A
$PYRTM,2024,126.250873975382,17.360521385521
$GNHDT,103.346,T*28
$PYRTM,2024,126.250879808935,17.360527219086
$GNGGA,060116.00,3419.72287139,N,12049.24237100,W,2,11,0.9,8.655,M,-37.629,M,7.0,0131*69
$PYRTM,2024,126.250879808935,17.360527219086
$GNHDT,103.455,T*2D
$PYRTM,2024,126.250885544896,17.360532955035
$GNGGA,060116.50,3419.72242513,N,12049.24109505,W,2,11,0.9,8.740,M,-37.629,M,7.4,0131*67
$PYRTM,2024,126.250885544896,17.360532955035
$GNHDT,103.332,T*2B
$PYRTM,2024,126.250891385787,17.360538795926
$GNGGA,060117.00,3419.72200139,N,12049.23983915,W,2,11,0.9,8.738,M,-37.629,M,7.0,0131*62
$PYRTM,2024,126.250891385787,17.360538795926
$GNHDT,103.594,T*21
$PYRTM,2024,126.250897127407,17.360544537546
$GNGGA,060117.50,3419.72160856,N,12049.23858287,W,2,11,0.9,8.638,M,-37.629,M,7.4,0131*60
$PYRTM,2024,126.250897127407,17.360544537546
$GNHDT,104.111,T*2F
$PYRTM,2024,126.250902968333,17.360550378472
$GNGGA,060118.00,3419.72123040,N,12049.23730296,W,2,11,0.9,8.454,M,-37.629,M,4.0,0131*6C
$PYRTM,2024,126.250902968333,17.360550378472
$GNHDT,104.001,T*2F
$PYRTM,2024,126.250908696250,17.360556106389
$GNGGA,060118.50,3419.72081624,N,12049.23599314,W,2,11,0.9,8.265,M,-37.629,M,4.4,0131*6E
$PYRTM,2024,126.250908696250,17.360556106389
$GNHDT,103.978,T*2F
$PYRTM,2024,126.250914534722,17.360561944873
$GNGGA,060119.00,3419.72033029,N,12049.23465637,W,2,11,0.9,8.121,M,-37.629,M,5.0,0131*68
$PYRTM,2024,126.250914534722,17.360561944873
$GNHDT,103.340,T*2E
$PYRTM,2024,126.250920270498,17.360567680637
$GNGGA,060119.50,3419.71977802,N,12049.23330905,W,2,11,0.9,8.097,M,-37.629,M,5.4,0131*67
$PYRTM,2024,126.250920270498,17.360567680637
$GNHDT,102.806,T*26
$PYRTM,2024,126.250926117211,17.360573527350
$GNGGA,060120.00,3419.71918923,N,12049.23194564,W,2,11,0.9,8.163,M,-37.629,M,6.0,0131*69
$PYRTM,2024,126.250926117211,17.360573527350
$GNHDT,101.958,T*2F
$PYRTM,2024,126.250931843472,17.360579253611
$GNGGA,060120.50,3419.71860891,N,12049.23058698,W,2,11,0.9,8.349,M,-37.629,M,6.4,0131*65
$PYRTM,2024,126.250931843472,17.360579253611
$GNHDT,101.053,T*2D
$PYRTM,2024,126.250937685475,17.360585095613
$GNGGA,060121.00,3419.71806587,N,12049.22921996,W,2,11,0.9,8.636,M,-37.629,M,7.0,0131*64
$PYRTM,2024,126.250937685475,17.360585095613
$GNHDT,100.995,T*2F
$PYRTM,2024,126.250943420255,17.360590830394
$GNGGA,060121.50,3419.71757905,N,12049.22784976,W,2,11,0.9,8.893,M,-37.629,M,7.4,0131*66
$PYRTM,2024,126.250943420255,17.360590830394
$GNHDT,100.969,T*2C
$PYRTM,2024,126.250949261574,17.360596671713
$GNGGA,060122.00,3419.71714946,N,12049.22646499,W,2,11,0.9,9.072,M,-37.629,M,7.0,0131*61
$PYRTM,2024,126.250949261574,17.360596671713
$GNHDT,101.288,T*29
$PYRTM,2024,126.250954995127,17.360602405266
$GNGGA,060122.50,3419.71675137,N,12049.22507319,W,2,11,0.9,9.139,M,-37.629,M,7.4,0131*6F
$PYRTM,2024,126.250954995127,17.360602405266
$GNHDT,101.308,T*20
$PYRTM,2024,126.250960832755,17.360608242894
$GNGGA,060123.00,3419.71636225,N,12049.22370342,W,2,11,0.9,9.111,M,-37.629,M,7.0,0131*6A
$PYRTM,2024,126.250960832755,17.360608242894
$GNHDT,101.716,T*2B
$PYRTM,2024,126.250966563588,17.360613973727
$GNGGA,060123.50,3419.71595343,N,12049.22234321,W,2,11,0.9,9.001,M,-37.629,M,7.4,0131*64
$PYRTM,2024,126.250966563588,17.360613973727
$GNHDT,102.021,T*2B
$PYRTM,2024,126.250972404167,17.360619814306
$GNGGA,060124.00,3419.71553760,N,12049.22100378,W,2,11,0.9,8.802,M,-37.629,M,4.0,0131*6C
$PYRTM,2024,126.250972404167,17.360619814306
$GNHDT,102.159,T*25
$PYRTM,2024,126.250978137384,17.360625547523
$GNGGA,060124.50,3419.71511686,N,12049.21968236,W,2,11,0.9,8.561,M,-37.629,M,4.4,0131*64
$PYRTM,2024,126.250978137384,17.360625547523
$GNHDT,102.383,T*20
$PYRTM,2024,126.250983980961,17.360631391100
$GNGGA,060125.00,3419.71469620,N,12049.21838414,W,2,11,0.9,8.307,M,-37.629,M,5.0,0131*63
$PYRTM,2024,126.250983980961,17.360631391100
$GNHDT,102.462,T*28
$PYRTM,2024,126.250989714988,17.360637125127
$GNGGA,060125.50,3419.71427669,N,12049.21710414,W,2,11,0.9,8.102,M,-37.629,M,5.4,0131*67
$PYRTM,2024,126.250989714988,17.360637125127
$GNHDT,102.758,T*22
$PYRTM,2024,126.250995554201,17.360642964340
$GNGGA,060126.00,3419.71386336,N,12049.21582657,W,2,11,0.9,7.897,M,-37.628,M,6.0,0131*62
$PYRTM,2024,126.250995554201,17.360642964340
$GNHDT,102.831,T*22
$PYRTM,2024,126.251001286505,17.360648696644
$GNGGA,060126.50,3419.71347441,N,12049.21454224,W,2,11,0.9,7.786,M,-37.628,M,6.4,0131*6C
$PYRTM,2024,126.251001286505,17.360648696644
$GNHDT,102.952,T*26
$PYRTM,2024,126.251007128600,17.360654538738
$GNGGA,060127.00,3419.71310798,N,12049.21324304,W,2,11,0.9,7.783,M,-37.628,M,7.0,0131*6E
$PYRTM,2024,126.251007128600,17.360654538738
$GNHDT,102.600,T*2E
$PYRTM,2024,126.251012875093,17.360660285231
$GNGGA,060127.50,3419.71274977,N,12049.21194952,W,2,11,0.9,7.932,M,-37.628,M,7.4,0131*67
$PYRTM,2024,126.251012875093,17.360660285231
$GNHDT,102.206,T*2C
$PYRTM,2024,126.251018702431,17.360666112569
$GNGGA,060128.00,3419.71238680,N,12049.21066312,W,2,11,0.9,8.225,M,-37.628,M,7.0,0131*66
$PYRTM,2024,126.251018702431,17.360666112569
$GNHDT,102.002,T*2A
$PYRTM,2024,126.251024433229,17.360671843368
$GNGGA,060128.50,3419.71202757,N,12049.20937922,W,2,11,0.9,8.567,M,-37.628,M,7.4,0131*61
$PYRTM,2024,126.251024433229,17.360671843368
$GNHDT,101.771,T*2A
$PYRTM,2024,126.251030276238,17.360677686377
$GNGGA,060129.00,3419.71166333,N,12049.20810094,W,2,11,0.9,8.882,M,-37.628,M,7.0,0131*60
$PYRTM,2024,126.251030276238,17.360677686377
$GNHDT,101.860,T*25
$PYRTM,2024,126.251036007234,17.360683417384
$GNGGA,060129.50,3419.71129334,N,12049.20679835,W,2,11,0.9,9.062,M,-37.628,M,7.4,0131*68
$PYRTM,2024,126.251036007234,17.360683417384
$GNHDT,102.099,T*28
$PYRTM,2024,126.251041847975,17.360689258113
$GNGGA,060130.00,3419.71090028,N,12049.20548177,W,2,11,0.9,9.067,M,-37.628,M,4.0,0131*64
$PYRTM,2024,126.251041847975,17.360689258113
$GNHDT,102.389,T*2A
$PYRTM,2024,126.251047589977,17.360695000116
$GNGGA,060130.50,3419.71046486,N,12049.20415212,W,2,11,0.9,8.924,M,-37.628,M,4.4,0131*68
$PYRTM,2024,126.251047589977,17.360695000116
$GNHDT,102.746,T*2D
$PYRTM,2024,126.251053421690,17.360700831829
$GNGGA,060131.00,3419.70998646,N,12049.20281372,W,2,11,0.9,8.695,M,-37.628,M,5.0,0131*65
$PYRTM,2024,126.251053421690,17.360700831829
$GNHDT,102.843,T*27
$PYRTM,2024,126.251059160255,17.360706570394
$GNGGA,060131.50,3419.70948297,N,12049.20146919,W,2,11,0.9,8.471,M,-37.628,M,5.4,0131*66
$PYRTM,2024,126.251059160255,17.360706570394
$GNHDT,102.686,T*20
$PYRTM,2024,126.251065006227,17.360712416366
$GNGGA,060132.00,3419.70898975,N,12049.20010266,W,2,11,0.9,8.274,M,-37.628,M,6.0,0131*6E
$PYRTM,2024,126.251065006227,17.360712416366
$GNHDT,102.241,T*2F
$PYRTM,2024,126.251070732917,17.360718143056
$GNGGA,060132.50,3419.70852842,N,12049.19869441,W,2,11,0.9,8.192,M,-37.628,M,6.4,0131*68
$PYRTM,2024,126.251070732917,17.360718143056
$GNHDT,102.233,T*2A
$PYRTM,2024,126.251076571632,17.360723981771
$GNGGA,060133.00,3419.70811645,N,12049.19726114,W,2,11,0.9,8.251,M,-37.628,M,7.0,0131*6A
$PYRTM,2024,126.251076571632,17.360723981771
$GNHDT,101.837,T*27
$PYRTM,2024,126.251082304120,17.360729714259
$GNGGA,060133.50,3419.70772767,N,12049.19582072,W,2,11,0.9,8.413,M,-37.628,M,7.4,0131*6D
$PYRTM,2024,126.251082304120,17.360729714259
$GNHDT,101.479,T*21
$PYRTM,2024,126.251088144479,17.360735554618
$GNGGA,060134.00,3419.70734540,N,12049.19437661,W,2,11,0.9,8.631,M,-37.628,M,7.0,0131*67
$PYRTM,2024,126.251088144479,17.360735554618
$GNHDT,101.101,T*2B
$PYRTM,2024,126.251093881377,17.360741291516
$GNGGA,060134.50,3419.70695726,N,12049.19292468,W,2,11,0.9,8.828,M,-37.628,M,7.4,0131*6A
$PYRTM,2024,126.251093881377,17.360741291516
$GNHDT,100.767,T*2C
$PYRTM,2024,126.251099720602,17.360747130741
$GNGGA,060135.00,3419.70655741,N,12049.19151056,W,2,11,0.9,8.991,M,-37.628,M,7.0,0131*61
$PYRTM,2024,126.251099720602,17.360747130741
$GNHDT,100.567,T*2E
$PYRTM,2024,126.251105453287,17.360752863438
$GNGGA,060135.50,3419.70614002,N,12049.19014586,W,2,11,0.9,9.107,M,-37.628,M,7.4,0131*6B
$PYRTM,2024,126.251105453287,17.360752863438
$GNHDT,100.682,T*26
$PYRTM,2024,126.251111292060,17.360758702199
$GNGGA,060136.00,3419.70568231,N,12049.18886128,W,2,11,0.9,9.135,M,-37.628,M,4.0,0131*63
$PYRTM,2024,126.251111292060,17.360758702199
$GNHDT,101.227,T*2C
$PYRTM,2024,126.251117026181,17.360764436319
$GNGGA,060136.50,3419.70519170,N,12049.18762843,W,2,11,0.9,9.060,M,-37.628,M,4.4,0131*62
$PYRTM,2024,126.251117026181,17.360764436319
$GNHDT,102.118,T*20
$PYRTM,2024,126.251122870185,17.360770280324
$GNGGA,060137.00,3419.70468270,N,12049.18642119,W,2,11,0.9,8.833,M,-37.628,M,5.0,0131*6D
$PYRTM,2024,126.251122870185,17.360770280324
$GNHDT,102.981,T*28
$PYRTM,2024,126.251128599618,17.360776009757
$GNGGA,060137.50,3419.70418688,N,12049.18520428,W,2,11,0.9,8.502,M,-37.628,M,5.4,0131*67
$PYRTM,2024,126.251128599618,17.360776009757
$GNHDT,103.773,T*2A
$PYRTM,2024,126.251134445301,17.360781855451
$GNGGA,060138.00,3419.70371136,N,12049.18399066,W,2,11,0.9,8.119,M,-37.628,M,6.0,0131*64
$PYRTM,2024,126.251134445301,17.360781855451
$GNHDT,104.120,T*2D
$PYRTM,2024,126.251140177627,17.360787587766
$GNGGA,060138.50,3419.70327217,N,12049.18279086,W,2,11,0.9,7.805,M,-37.628,M,6.4,0131*6C
$PYRTM,2024,126.251140177627,17.360787587766
$GNHDT,104.477,T*2A
$PYRTM,2024,126.251146017014,17.360793427153
$GNGGA,060139.00,3419.70287834,N,12049.18160871,W,2,11,0.9,7.673,M,-37.628,M,7.0,0131*69
$PYRTM,2024,126.251146017014,17.360793427153
$GNHDT,104.714,T*2C
$PYRTM,2024,126.251151751481,17.360799161620
$GNGGA,060139.50,3419.70253930,N,12049.18042066,W,2,11,0.9,7.695,M,-37.627,M,7.4,0131*6C
$PYRTM,2024,126.251151751481,17.360799161620
$GNHDT,104.893,T*2C
$PYRTM,2024,126.251157591308,17.360805001447
$GNGGA,060140.00,3419.70224771,N,12049.17919124,W,2,11,0.9,7.836,M,-37.627,M,7.0,0131*60
$PYRTM,2024,126.251157591308,17.360805001447
$GNHDT,104.850,T*23
$PYRTM,2024,126.251163326169,17.360810736308
$GNGGA,060140.50,3419.70195804,N,12049.17790694,W,2,11,0.9,7.976,M,-37.627,M,7.4,0131*63
$PYRTM,2024,126.251163326169,17.360810736308
$GNHDT,104.533,T*2B
$PYRTM,2024,126.251169167581,17.360816577731
$GNGGA,060141.00,3419.70161111,N,12049.17654035,W,2,11,0.9,8.058,M,-37.627,M,7.0,0131*6B
$PYRTM,2024,126.251169167581,17.360816577731
$GNHDT,103.925,T*27
$PYRTM,2024,126.251174896262,17.360822306400
$GNGGA,060141.50,3419.70119019,N,12049.17512421,W,2,11,0.9,8.072,M,-37.627,M,7.4,0131*64
$PYRTM,2024,126.251174896262,17.360822306400
$GNHDT,103.328,T*20
$PYRTM,2024,126.251180743310,17.360828153449
$GNGGA,060142.00,3419.70072188,N,12049.17367119,W,2,11,0.9,8.061,M,-37.627,M,4.0,0131*68
$PYRTM,2024,126.251180743310,17.360828153449
$GNHDT,102.608,T*26
$PYRTM,2024,126.251186475301,17.360833885440
$GNGGA,060142.50,3419.70023434,N,12049.17220330,W,2,11,0.9,8.064,M,-37.627,M,4.4,0131*61
$PYRTM,2024,126.251186475301,17.360833885440
$GNHDT,101.894,T*2E
$PYRTM,2024,126.251192310718,17.360839720856
$GNGGA,060143.00,3419.69976525,N,12049.17072555,W,2,11,0.9,8.181,M,-37.627,M,5.0,0131*6A
$PYRTM,2024,126.251192310718,17.360839720856
$GNHDT,101.133,T*2A
$PYRTM,2024,126.251198047130,17.360845457269
$GNGGA,060143.50,3419.69930271,N,12049.16926432,W,2,11,0.9,8.399,M,-37.627,M,5.4,0131*6D
$PYRTM,2024,126.251198047130,17.360845457269
$GNHDT,101.031,T*29
$PYRTM,2024,126.251203889653,17.360851299792
$GNGGA,060144.00,3419.69883474,N,12049.16783064,W,2,11,0.9,8.699,M,-37.627,M,6.0,0131*61
$PYRTM,2024,126.251203889653,17.360851299792
$GNHDT,101.213,T*2B
$PYRTM,2024,126.251209626400,17.360857036539
$GNGGA,060144.50,3419.69833928,N,12049.16642806,W,2,11,0.9,8.999,M,-37.627,M,6.4,0131*60
$PYRTM,2024,126.251209626400,17.360857036539
$GNHDT,101.492,T*24
$PYRTM,2024,126.251215464097,17.360862874236
$GNGGA,060145.00,3419.69780876,N,12049.16505284,W,2,11,0.9,9.253,M,-37.627,M,7.0,0131*60
$PYRTM,2024,126.251215464097,17.360862874236
$GNHDT,102.039,T*22
$PYRTM,2024,126.251221193299,17.360868603449
$GNGGA,060145.50,3419.69726590,N,12049.16370174,W,2,11,0.9,9.355,M,-37.627,M,7.4,0131*67
$PYRTM,2024,126.251221193299,17.360868603449
$GNHDT,102.470,T*2B
$PYRTM,2024,126.251227032998,17.360874443137
$GNGGA,060146.00,3419.69674629,N,12049.16235724,W,2,11,0.9,9.313,M,-37.627,M,7.0,0131*63
$PYRTM,2024,126.251227032998,17.360874443137
$GNHDT,103.112,T*2B
$PYRTM,2024,126.251232765116,17.360880175266
$GNGGA,060146.50,3419.69628712,N,12049.16102573,W,2,11,0.9,9.133,M,-37.627,M,7.4,0131*65
$PYRTM,2024,126.251232765116,17.360880175266
$GNHDT,103.664,T*2D
$PYRTM,2024,126.251238607049,17.360886017188
$GNGGA,060147.00,3419.69587188,N,12049.15973636,W,2,11,0.9,8.862,M,-37.627,M,7.0,0131*65
$PYRTM,2024,126.251238607049,17.360886017188
$GNHDT,103.963,T*25
$PYRTM,2024,126.251244340486,17.360891750625
$GNGGA,060147.50,3419.69548247,N,12049.15849916,W,2,11,0.9,8.591,M,-37.627,M,7.4,0131*63
$PYRTM,2024,126.251244340486,17.360891750625
$GNHDT,104.309,T*24
$PYRTM,2024,126.251250184375,17.360897594514
$GNGGA,060148.00,3419.69511919,N,12049.15729978,W,2,11,0.9,8.314,M,-37.627,M,4.0,0131*68
$PYRTM,2024,126.251250184375,17.360897594514
$GNHDT,104.402,T*28
$PYRTM,2024,126.251255918530,17.360903328681
$GNGGA,060148.50,3419.69476715,N,12049.15611102,W,2,11,0.9,8.086,M,-37.627,M,4.4,0131*6C
$PYRTM,2024,126.251255918530,17.360903328681
$GNHDT,104.761,T*2E
$PYRTM,2024,126.251261757095,17.360909167234
$GNGGA,060149.00,3419.69439716,N,12049.15495079,W,2,11,0.9,7.914,M,-37.627,M,5.0,0131*6B
$PYRTM,2024,126.251261757095,17.360909167234
$GNHDT,104.796,T*26
$PYRTM,2024,126.251267493391,17.360914903542
$GNGGA,060149.50,3419.69397929,N,12049.15381225,W,2,11,0.9,7.812,M,-37.627,M,5.4,0131*65
$PYRTM,2024,126.251267493391,17.360914903542
$GNHDT,105.220,T*2F
$PYRTM,2024,126.251273330961,17.360920741100
$GNGGA,060150.00,3419.69352442,N,12049.15268958,W,2,11,0.9,7.763,M,-37.627,M,6.0,0131*68
$PYRTM,2024,126.251273330961,17.360920741100
$GNHDT,105.667,T*28
$PYRTM,2024,126.251279064282,17.360926474433
$GNGGA,060150.50,3419.69307219,N,12049.15152280,W,2,11,0.9,7.706,M,-37.626,M,6.4,0131*67
$PYRTM,2024,126.251279064282,17.360926474433
$GNHDT,105.599,T*2A
$PYRTM,2024,126.251284905845,17.360932315984
$GNGGA,060151.00,3419.69263832,N,12049.15029206,W,2,11,0.9,7.666,M,-37.626,M,7.0,0131*62
$PYRTM,2024,126.251284905845,17.360932315984
$GNHDT,105.672,T*2C
$PYRTM,2024,126.251290639606,17.360938049745
$GNGGA,060151.50,3419.69224691,N,12049.14899339,W,2,11,0.9,7.683,M,-37.626,M,7.4,0131*63
$PYRTM,2024,126.251290639606,17.360938049745
$GNHDT,105.612,T*2A
$PYRTM,2024,126.251296479201,17.360943889352
$GNGGA,060152.00,3419.69189782,N,12049.14760697,W,2,11,0.9,7.746,M,-37.626,M,7.0,0131*66
$PYRTM,2024,126.251296479201,17.360943889352
$GNHDT,104.980,T*2F
$PYRTM,2024,126.251302209896,17.360949620046
$GNGGA,060152.50,3419.69155642,N,12049.14614763,W,2,11,0.9,7.834,M,-37.626,M,7.4,0131*69
$PYRTM,2024,126.251302209896,17.360949620046
$GNHDT,104.345,T*2C
$PYRTM,2024,126.251308054294,17.360955464433
$GNGGA,060153.00,3419.69117289,N,12049.14462735,W,2,11,0.9,7.983,M,-37.626,M,7.0,0131*61
$PYRTM,2024,126.251308054294,17.360955464433
$GNHDT,103.407,T*2A
$PYRTM,2024,126.251313786123,17.360961196262
$GNGGA,060153.50,3419.69068597,N,12049.14311884,W,2,11,0.9,8.252,M,-37.626,M,7.4,0131*6F
$PYRTM,2024,126.251313786123,17.360961196262
$GNHDT,102.479,T*22
$PYRTM,2024,126.251319627708,17.360967037847
$GNGGA,060154.00,3419.69006564,N,12049.14163763,W,2,11,0.9,8.553,M,-37.626,M,4.0,0131*69
$PYRTM,2024,126.251319627708,17.360967037847
$GNHDT,101.866,T*23
$PYRTM,2024,126.251325365000,17.360972775139
$GNGGA,060154.50,3419.68934117,N,12049.14017450,W,2,11,0.9,8.862,M,-37.626,M,4.4,0131*6F
$PYRTM,2024,126.251325365000,17.360972775139
$GNHDT,101.659,T*21
$PYRTM,2024,126.251331198843,17.360978608981
$GNGGA,060155.00,3419.68858726,N,12049.13873063,W,2,11,0.9,9.146,M,-37.626,M,5.0,0131*66
$PYRTM,2024,126.251331198843,17.360978608981
$GNHDT,101.567,T*2F
$PYRTM,2024,126.251336937326,17.360984347465
$GNGGA,060155.50,3419.68790020,N,12049.13730061,W,2,11,0.9,9.365,M,-37.626,M,5.4,0131*64
$PYRTM,2024,126.251336937326,17.360984347465
$GNHDT,101.823,T*22
$PYRTM,2024,126.251342783669,17.360990193808
$GNGGA,060156.00,3419.68733639,N,12049.13590968,W,2,11,0.9,9.448,M,-37.626,M,6.0,0131*62
$PYRTM,2024,126.251342783669,17.360990193808
$GNHDT,102.578,T*22
$PYRTM,2024,126.251348510440,17.360995920579
$GNGGA,060156.50,3419.68688153,N,12049.13454493,W,2,11,0.9,9.438,M,-37.626,M,6.4,0131*6E
$PYRTM,2024,126.251348510440,17.360995920579
$GNHDT,103.367,T*2B
$PYRTM,2024,126.251354350336,17.361001760475
$GNGGA,060157.00,3419.68650123,N,12049.13321782,W,2,11,0.9,9.291,M,-37.626,M,7.0,0131*6E
$PYRTM,2024,126.251354350336,17.361001760475
$GNHDT,104.672,T*2D
$PYRTM,2024,126.251360088796,17.361007498935
$GNGGA,060157.50,3419.68612524,N,12049.13193878,W,2,11,0.9,8.994,M,-37.626,M,7.4,0131*64
$PYRTM,2024,126.251360088796,17.361007498935
$GNHDT,105.652,T*2E
$PYRTM,2024,126.251365923194,17.361013333333
$GNGGA,060158.00,3419.68570856,N,12049.13073174,W,2,11,0.9,8.647,M,-37.626,M,7.0,0131*6E
$PYRTM,2024,126.251365923194,17.361013333333
$GNHDT,106.575,T*2B
$PYRTM,2024,126.251371659688,17.361019069826
$GNGGA,060158.50,3419.68524491,N,12049.12958427,W,2,11,0.9,8.263,M,-37.626,M,7.4,0131*69
$PYRTM,2024,126.251371659688,17.361019069826
$GNHDT,106.763,T*2E
$PYRTM,2024,126.251377500914,17.361024911053
$GNGGA,060159.00,3419.68477404,N,12049.12848952,W,2,11,0.9,7.887,M,-37.626,M,7.0,0131*62
$PYRTM,2024,126.251377500914,17.361024911053
$GNHDT,107.145,T*2D
$PYRTM,2024,126.251383228970,17.361030639109
$GNGGA,060159.50,3419.68434970,N,12049.12738760,W,2,11,0.9,7.539,M,-37.626,M,7.4,0131*65
$PYRTM,2024,126.251383228970,17.361030639109
$GNHDT,106.877,T*24
$PYRTM,2024,126.251389074977,17.361036485116
$GNGGA,060200.00,3419.68400771,N,12049.12627480,W,2,11,0.9,7.277,M,-37.626,M,4.0,0131*6F
$PYRTM,2024,126.251389074977,17.361036485116
$GNHDT,106.478,T*27
$PYRTM,2024,126.251394807407,17.361042217546
$GNGGA,060200.50,3419.68370704,N,12049.12511122,W,2,11,0.9,7.137,M,-37.626,M,4.4,0131*60
$PYRTM,2024,126.251394807407,17.361042217546
$GNHDT,105.918,T*2F
$PYRTM,2024,126.251400647662,17.361048057801
$GNGGA,060201.00,3419.68341538,N,12049.12392343,W,2,11,0.9,7.148,M,-37.626,M,5.0,0131*6E
$PYRTM,2024,126.251400647662,17.361048057801
$GNHDT,105.542,T*2C
$PYRTM,2024,126.251406386331,17.361053796470
$GNGGA,060201.50,3419.68309656,N,12049.12270782,W,2,11,0.9,7.301,M,-37.626,M,5.4,0131*63
$PYRTM,2024,126.251406386331,17.361053796470
$GNHDT,104.764,T*2B
$PYRTM,2024,126.251412220822,17.361059630961
$GNGGA,060202.00,3419.68273323,N,12049.12146519,W,2,11,0.9,7.563,M,-37.626,M,6.0,0131*6D
$PYRTM,2024,126.251412220822,17.361059630961
$GNHDT,104.073,T*2A
$PYRTM,2024,126.251417953345,17.361065363484
$GNGGA,060202.50,3419.68232674,N,12049.12018247,W,2,11,0.9,7.860,M,-37.626,M,6.4,0131*66
$PYRTM,2024,126.251417953345,17.361065363484
$GNHDT,103.240,T*2F
$PYRTM,2024,126.251423794178,17.361071204317
$GNGGA,060203.00,3419.68187920,N,12049.11885254,W,2,11,0.9,8.170,M,-37.626,M,7.0,0131*6E
$PYRTM,2024,126.251423794178,17.361071204317
$GNHDT,102.686,T*20
$PYRTM,2024,126.251429526505,17.361076936644
$GNGGA,060203.50,3419.68138701,N,12049.11749727,W,2,11,0.9,8.460,M,-37.626,M,7.4,0131*6C
$PYRTM,2024,126.251429526505,17.361076936644
$GNHDT,101.991,T*2A
$PYRTM,2024,126.251435368877,17.361082779028
$GNGGA,060204.00,3419.68083827,N,12049.11612049,W,2,11,0.9,8.711,M,-37.625,M,7.0,0131*66
$PYRTM,2024,126.251435368877,17.361082779028
$GNHDT,101.561,T*29
$PYRTM,2024,126.251441101377,17.361088511528
$GNGGA,060204.50,3419.68024727,N,12049.11473799,W,2,11,0.9,8.912,M,-37.625,M,7.4,0131*67
$PYRTM,2024,126.251441101377,17.361088511528
$GNHDT,101.968,T*2C
$PYRTM,2024,126.251446940694,17.361094350833
$GNGGA,060205.00,3419.67963648,N,12049.11332751,W,2,11,0.9,9.044,M,-37.625,M,7.0,0131*67
$PYRTM,2024,126.251446940694,17.361094350833
$GNHDT,101.870,T*24
$PYRTM,2024,126.251452673333,17.361100083484
$GNGGA,060205.50,3419.67904454,N,12049.11189054,W,2,11,0.9,9.102,M,-37.625,M,7.4,0131*6B
$PYRTM,2024,126.251452673333,17.361100083484
$GNHDT,101.935,T*24
$PYRTM,2024,126.251458519618,17.361105929757
$GNGGA,060206.00,3419.67849564,N,12049.11042241,W,2,11,0.9,9.109,M,-37.625,M,4.0,0131*6B
$PYRTM,2024,126.251458519618,17.361105929757
$GNHDT,102.013,T*2A
$PYRTM,2024,126.251464247338,17.361111657477
$GNGGA,060206.50,3419.67799808,N,12049.10896036,W,2,11,0.9,9.098,M,-37.625,M,4.4,0131*64
$PYRTM,2024,126.251464247338,17.361111657477
$GNHDT,102.024,T*2E
$PYRTM,2024,126.251470098067,17.361117508206
$GNGGA,060207.00,3419.67753330,N,12049.10753010,W,2,11,0.9,9.087,M,-37.625,M,5.0,0131*6F
$PYRTM,2024,126.251470098067,17.361117508206
$GNHDT,102.319,T*23
$PYRTM,2024,126.251475822292,17.361123232431
$GNGGA,060207.50,3419.67708855,N,12049.10616810,W,2,11,0.9,9.107,M,-37.625,M,5.4,0131*69
$PYRTM,2024,126.251475822292,17.361123232431
$GNHDT,102.970,T*26
$PYRTM,2024,126.251481670162,17.361129080301
$GNGGA,060208.00,3419.67664816,N,12049.10486011,W,2,11,0.9,9.088,M,-37.625,M,6.0,0131*6C
$PYRTM,2024,126.251481670162,17.361129080301
$GNHDT,103.828,T*2B
$PYRTM,2024,126.251487398715,17.361134808854
$GNGGA,060208.50,3419.67621739,N,12049.10358474,W,2,11,0.9,9.006,M,-37.625,M,6.4,0131*6B
$PYRTM,2024,126.251487398715,17.361134808854
$GNHDT,104.600,T*28
$PYRTM,2024,126.251493238843,17.361140648981
$GNGGA,060209.00,3419.67580637,N,12049.10231308,W,2,11,0.9,8.823,M,-37.625,M,7.0,0131*61
$PYRTM,2024,126.251493238843,17.361140648981
$GNHDT,105.168,T*20
$PYRTM,2024,126.251498974317,17.361146384456
$GNGGA,060209.50,3419.67540493,N,12049.10102766,W,2,11,0.9,8.531,M,-37.625,M,7.4,0131*61
$PYRTM,2024,126.251498974317,17.361146384456
$GNHDT,105.305,T*29
$PYRTM,2024,126.251504815856,17.361152225995
$GNGGA,060210.00,3419.67499266,N,12049.09976308,W,2,11,0.9,8.197,M,-37.625,M,7.0,0131*66
$PYRTM,2024,126.251504815856,17.361152225995
$GNHDT,105.441,T*2E
$PYRTM,2024,126.251510544248,17.361157954398
$GNGGA,060210.50,3419.67456647,N,12049.09852231,W,2,11,0.9,7.955,M,-37.625,M,7.4,0131*66
$PYRTM,2024,126.251510544248,17.361157954398
$GNHDT,104.967,T*26
$PYRTM,2024,126.251516387025,17.361163797164
$GNGGA,060211.00,3419.67413022,N,12049.09731843,W,2,11,0.9,7.822,M,-37.625,M,7.0,0131*66
$PYRTM,2024,126.251516387025,17.361163797164
$GNHDT,104.604,T*2C
$PYRTM,2024,126.251522118634,17.361169528773
$GNGGA,060211.50,3419.67368945,N,12049.09613329,W,2,11,0.9,7.834,M,-37.625,M,7.4,0131*65
$PYRTM,2024,126.251522118634,17.361169528773
$GNHDT,104.260,T*2A
$PYRTM,2024,126.251527970104,17.361175380255
$GNGGA,060212.00,3419.67326212,N,12049.09494069,W,2,11,0.9,7.952,M,-37.625,M,4.0,0131*6C
$PYRTM,2024,126.251527970104,17.361175380255
$GNHDT,104.000,T*2E
$PYRTM,2024,126.251533693576,17.361181103715
$GNGGA,060212.50,3419.67285801,N,12049.09369379,W,2,11,0.9,8.065,M,-37.625,M,4.4,0131*68
$PYRTM,2024,126.251533693576,17.361181103715
$GNHDT,103.539,T*26
$PYRTM,2024,126.251539534757,17.361186944896
$GNGGA,060213.00,3419.67247693,N,12049.09238783,W,2,11,0.9,8.158,M,-37.625,M,5.0,0131*69
$PYRTM,2024,126.251539534757,17.361186944896
$GNHDT,102.785,T*22
$PYRTM,2024,126.251545268090,17.361192678241
$GNGGA,060213.50,3419.67208291,N,12049.09107212,W,2,11,0.9,8.238,M,-37.625,M,5.4,0131*62
$PYRTM,2024,126.251545268090,17.361192678241
$GNHDT,102.199,T*29
$PYRTM,2024,126.251551112917,17.361198523056
$GNGGA,060214.00,3419.67164473,N,12049.08977118,W,2,11,0.9,8.332,M,-37.625,M,6.0,0131*68
$PYRTM,2024,126.251551112917,17.361198523056
$GNHDT,102.008,T*20
$PYRTM,2024,126.251556848021,17.361204258160
$GNGGA,060214.50,3419.67115103,N,12049.08848815,W,2,11,0.9,8.423,M,-37.625,M,6.4,0131*63
$PYRTM,2024,126.251556848021,17.361204258160
$GNHDT,102.188,T*29
$PYRTM,2024,126.251562684236,17.361210094375
$GNGGA,060215.00,3419.67060295,N,12049.08721611,W,2,11,0.9,8.509,M,-37.625,M,7.0,0131*6E
$PYRTM,2024,126.251562684236,17.361210094375
$GNHDT,102.371,T*2D
$PYRTM,2024,126.251568418681,17.361215828819
$GNGGA,060215.50,3419.67004297,N,12049.08593866,W,2,11,0.9,8.554,M,-37.625,M,7.4,0131*62
$PYRTM,2024,126.251568418681,17.361215828819
$GNHDT,102.981,T*28
$PYRTM,2024,126.251574260139,17.361221670289
$GNGGA,060216.00,3419.66949951,N,12049.08464511,W,2,11,0.9,8.515,M,-37.625,M,7.0,0131*61
$PYRTM,2024,126.251574260139,17.361221670289
$GNHDT,103.447,T*2E
$PYRTM,2024,126.251579990741,17.361227400880
$GNGGA,060216.50,3419.66898626,N,12049.08332340,W,2,11,0.9,8.402,M,-37.625,M,7.4,0131*63
$PYRTM,2024,126.251579990741,17.361227400880
$GNHDT,104.043,T*29
$PYRTM,2024,126.251585829780,17.361233239919
$GNGGA,060217.00,3419.66850131,N,12049.08198557,W,2,11,0.9,8.264,M,-37.625,M,7.0,0131*62
$PYRTM,2024,126.251585829780,17.361233239919
$GNHDT,104.383,T*26
$PYRTM,2024,126.251591564919,17.361238975058
$GNGGA,060217.50,3419.66803111,N,12049.08067192,W,2,11,0.9,8.198,M,-37.625,M,7.4,0131*6B
$PYRTM,2024,126.251591564919,17.361238975058
$GNHDT,104.893,T*2C
$PYRTM,2024,126.251597404965,17.361244815104
$GNGGA,060218.00,3419.66757330,N,12049.07938843,W,2,11,0.9,8.248,M,-37.625,M,4.0,0131*6E
$PYRTM,2024,126.251597404965,17.361244815104
$GNHDT,105.305,T*29
$PYRTM,2024,126.251603140590,17.361250550729
$GNGGA,060218.50,3419.66714784,N,12049.07813270,W,2,11,0.9,8.397,M,-37.625,M,4.4,0131*62
$PYRTM,2024,126.251603140590,17.361250550729
$GNHDT,106.012,T*2F
$PYRTM,2024,126.251608980405,17.361256390544
$GNGGA,060219.00,3419.66677945,N,12049.07686586,W,2,11,0.9,8.522,M,-37.625,M,5.0,0131*60
$PYRTM,2024,126.251608980405,17.361256390544
$GNHDT,106.397,T*21
$PYRTM,2024,126.251614712581,17.361262122720
$GNGGA,060219.50,3419.66645041,N,12049.07555473,W,2,11,0.9,8.564,M,-37.624,M,5.4,0131*68
$PYRTM,2024,126.251614712581,17.361262122720
$GNHDT,106.877,T*24
$PYRTM,2024,126.251620553600,17.361267963738
$GNGGA,060220.00,3419.66611863,N,12049.07419808,W,2,11,0.9,8.464,M,-37.624,M,6.0,0131*61
$PYRTM,2024,126.251620553600,17.361267963738
$GNHDT,106.927,T*20
$PYRTM,2024,126.251626285741,17.361273695880
$GNGGA,060220.50,3419.66572989,N,12049.07283565,W,2,11,0.9,8.301,M,-37.624,M,6.4,0131*64
$PYRTM,2024,126.251626285741,17.361273695880
$GNHDT,106.279,T*20
$PYRTM,2024,126.251632131053,17.361279541192
$GNGGA,060221.00,3419.66525709,N,12049.07150641,W,2,11,0.9,8.161,M,-37.624,M,7.0,0131*6D
$PYRTM,2024,126.251632131053,17.361279541192
$GNHDT,105.755,T*28
$PYRTM,2024,126.251637861759,17.361285271898
$GNGGA,060221.50,3419.66471787,N,12049.07022488,W,2,11,0.9,8.102,M,-37.624,M,7.4,0131*6C
$PYRTM,2024,126.251637861759,17.361285271898
$GNHDT,105.038,T*24
$PYRTM,2024,126.251643709248,17.361291119387
$GNGGA,060222.00,3419.66414367,N,12049.06897606,W,2,11,0.9,8.183,M,-37.624,M,7.0,0131*6D
$PYRTM,2024,126.251643709248,17.361291119387
$GNHDT,104.336,T*28
$PYRTM,2024,126.251649433762,17.361296843900
$GNGGA,060222.50,3419.66360631,N,12049.06773230,W,2,11,0.9,8.353,M,-37.624,M,7.4,0131*65
$PYRTM,2024,126.251649433762,17.361296843900
$GNHDT,103.605,T*2A
$PYRTM,2024,126.251655277928,17.361302688067
$GNGGA,060223.00,3419.66314216,N,12049.06647563,W,2,11,0.9,8.550,M,-37.624,M,7.0,0131*65
$PYRTM,2024,126.251655277928,17.361302688067
$GNHDT,103.430,T*2E
$PYRTM,2024,126.251661010069,17.361308420208
$GNGGA,060223.50,3419.66274854,N,12049.06518254,W,2,11,0.9,8.662,M,-37.624,M,7.4,0131*67
$PYRTM,2024,126.251661010069,17.361308420208
$GNHDT,103.592,T*27
$PYRTM,2024,126.251666849664,17.361314259803
$GNGGA,060224.00,3419.66239242,N,12049.06385136,W,2,11,0.9,8.661,M,-37.624,M,4.0,0131*60
$PYRTM,2024,126.251666849664,17.361314259803
$GNHDT,103.255,T*2B
$PYRTM,2024,126.251672582882,17.361319993021
$GNGGA,060224.50,3419.66200944,N,12049.06249826,W,2,11,0.9,8.530,M,-37.624,M,4.4,0131*68
$PYRTM,2024,126.251672582882,17.361319993021
$GNHDT,102.977,T*21
$PYRTM,2024,126.251678423414,17.361325833553
$GNGGA,060225.00,3419.66155981,N,12049.06114230,W,2,11,0.9,8.373,M,-37.624,M,5.0,0131*64
$PYRTM,2024,126.251678423414,17.361325833553
$GNHDT,102.667,T*2F
$PYRTM,2024,126.251684159444,17.361331569595
$GNGGA,060225.50,3419.66103581,N,12049.05981309,W,2,11,0.9,8.247,M,-37.624,M,5.4,0131*60
$PYRTM,2024,126.251684159444,17.361331569595
$GNHDT,102.290,T*23
$PYRTM,2024,126.251690000648,17.361337410787
$GNGGA,060226.00,3419.66045403,N,12049.05852424,W,2,11,0.9,8.168,M,-37.624,M,6.0,0131*60
$PYRTM,2024,126.251690000648,17.361337410787
$GNHDT,102.155,T*29
$PYRTM,2024,126.251695732662,17.361343142812
$GNGGA,060226.50,3419.65985722,N,12049.05726860,W,2,11,0.9,8.148,M,-37.624,M,6.4,0131*65
$PYRTM,2024,126.251695732662,17.361343142812
$GNHDT,102.349,T*26
$PYRTM,2024,126.251701581354,17.361348991505
$GNGGA,060227.00,3419.65925856,N,12049.05603778,W,2,11,0.9,8.211,M,-37.624,M,7.0,0131*6D
$PYRTM,2024,126.251701581354,17.361348991505
$GNHDT,102.689,T*2F
$PYRTM,2024,126.251707297083,17.361354707222
$GNGGA,060227.50,3419.65867638,N,12049.05480586,W,2,11,0.9,8.343,M,-37.624,M,7.4,0131*61
$PYRTM,2024,126.251707297083,17.361354707222
$GNHDT,102.784,T*23
$PYRTM,2024,126.251713131505,17.361360541644
$GNGGA,060228.00,3419.65813979,N,12049.05353488,W,2,11,0.9,8.489,M,-37.624,M,7.0,0131*61
$PYRTM,2024,126.251713131505,17.361360541644
$GNHDT,103.017,T*2F
$PYRTM,2024,126.251718867569,17.361366277708
$GNGGA,060228.50,3419.65767257,N,12049.05222887,W,2,11,0.9,8.624,M,-37.624,M,7.4,0131*6A
$PYRTM,2024,126.251718867569,17.361366277708
$GNHDT,103.206,T*2D
$PYRTM,2024,126.251724707454,17.361372117604
