$PYRTM,2024,127.416672396019,18.526319806169
$GNGGA,100000.50,3338.02274068,N,11914.54713643,W,2,11,0.9,5.793,M,-37.850,M,4.4,0131*60
$PYRTM,2024,127.416672396019,18.526319806169
$GNHDT,145.279,T*27
$PYRTM,2024,127.416678234641,18.526325644780
$GNGGA,100001.00,3338.02180437,N,11914.54635211,W,2,11,0.9,5.867,M,-37.850,M,5.0,0131*65
$PYRTM,2024,127.416678234641,18.526325644780
$GNHDT,145.114,T*2F
$PYRTM,2024,127.416683969190,18.526331379340
$GNGGA,100001.50,3338.02085083,N,11914.54563287,W,2,11,0.9,5.894,M,-37.850,M,5.4,0131*68
$PYRTM,2024,127.416683969190,18.526331379340
$GNHDT,144.991,T*2B
$PYRTM,2024,127.416689805891,18.526337216030
$GNGGA,100002.00,3338.01985959,N,11914.54498121,W,2,11,0.9,5.817,M,-37.850,M,6.0,0131*6C
$PYRTM,2024,127.416689805891,18.526337216030
$GNHDT,144.692,T*27
$PYRTM,2024,127.416695549965,18.526342960104
$GNGGA,100002.50,3338.01882960,N,11914.54436937,W,2,11,0.9,5.645,M,-37.850,M,6.4,0131*63
$PYRTM,2024,127.416695549965,18.526342960104
$GNHDT,144.685,T*21
$PYRTM,2024,127.416701383970,18.526348794120
$GNGGA,100003.00,3338.01777304,N,11914.54377039,W,2,11,0.9,5.390,M,-37.850,M,7.0,0131*67
$PYRTM,2024,127.416701383970,18.526348794120
$GNHDT,144.684,T*20
$PYRTM,2024,127.416707119363,18.526354529514
$GNGGA,100003.50,3338.01672869,N,11914.54312853,W,2,11,0.9,5.184,M,-37.850,M,7.4,0131*62
$PYRTM,2024,127.416707119363,18.526354529514
$GNHDT,144.436,T*2B
$PYRTM,2024,127.416712953113,18.526360363252
$GNGGA,100004.00,3338.01572359,N,11914.54242889,W,2,11,0.9,5.105,M,-37.850,M,7.0,0131*65
$PYRTM,2024,127.416712953113,18.526360363252
$GNHDT,144.566,T*2F
$PYRTM,2024,127.416718692326,18.526366102465
$GNGGA,100004.50,3338.01477431,N,11914.54167052,W,2,11,0.9,5.191,M,-37.850,M,7.4,0131*6E
$PYRTM,2024,127.416718692326,18.526366102465
$GNHDT,144.803,T*21
$PYRTM,2024,127.416724533368,18.526371943507
$GNGGA,100005.00,3338.01386489,N,11914.54086632,W,2,11,0.9,5.434,M,-37.850,M,7.0,0131*60
$PYRTM,2024,127.416724533368,18.526371943507
$GNHDT,144.924,T*25
$PYRTM,2024,127.416730266366,18.526377676505
$GNGGA,100005.50,3338.01296937,N,11914.54004667,W,2,11,0.9,5.711,M,-37.850,M,7.4,0131*67
$PYRTM,2024,127.416730266366,18.526377676505
$GNHDT,145.509,T*27
$PYRTM,2024,127.416736099711,18.526383509850
$GNGGA,100006.00,3338.01205839,N,11914.53925700,W,2,11,0.9,5.949,M,-37.850,M,4.0,0131*6D
$PYRTM,2024,127.416736099711,18.526383509850
$GNHDT,145.577,T*2E
$PYRTM,2024,127.416741841192,18.526389251343
$GNGGA,100006.50,3338.01111069,N,11914.53854157,W,2,11,0.9,6.071,M,-37.850,M,4.4,0131*65
$PYRTM,2024,127.416741841192,18.526389251343
$GNHDT,145.281,T*20
$PYRTM,2024,127.416747677836,18.526395087986
$GNGGA,100007.00,3338.01010499,N,11914.53790966,W,2,11,0.9,6.033,M,-37.850,M,5.0,0131*64
$PYRTM,2024,127.416747677836,18.526395087986
$GNHDT,145.384,T*24
$PYRTM,2024,127.416753415127,18.526400825278
$GNGGA,100007.50,3338.00905484,N,11914.53732843,W,2,11,0.9,5.838,M,-37.849,M,5.4,0131*63
$PYRTM,2024,127.416753415127,18.526400825278
$GNHDT,145.561,T*29
$PYRTM,2024,127.416759258877,18.526406669028
$GNGGA,100008.00,3338.00799250,N,11914.53675892,W,2,11,0.9,5.531,M,-37.849,M,6.0,0131*60
$PYRTM,2024,127.416759258877,18.526406669028
$GNHDT,145.638,T*26
$PYRTM,2024,127.416764988356,18.526412398495
$GNGGA,100008.50,3338.00695507,N,11914.53612773,W,2,11,0.9,5.267,M,-37.849,M,6.4,0131*6C
$PYRTM,2024,127.416764988356,18.526412398495
$GNHDT,144.844,T*22
$PYRTM,2024,127.416770825046,18.526418235185
$GNGGA,100009.00,3338.00595450,N,11914.53543017,W,2,11,0.9,5.089,M,-37.849,M,7.0,0131*6D
$PYRTM,2024,127.416770825046,18.526418235185
$GNHDT,144.728,T*27
$PYRTM,2024,127.416776563252,18.526423973403
$GNGGA,100009.50,3338.00499006,N,11914.53466715,W,2,11,0.9,5.062,M,-37.849,M,7.4,0131*60
$PYRTM,2024,127.416776563252,18.526423973403
$GNHDT,144.649,T*21
$PYRTM,2024,127.416782403634,18.526429813773
$GNGGA,100010.00,3338.00407023,N,11914.53383105,W,2,11,0.9,5.203,M,-37.849,M,7.0,0131*67
$PYRTM,2024,127.416782403634,18.526429813773
$GNHDT,144.537,T*2B
$PYRTM,2024,127.416788140127,18.526435550266
$GNGGA,100010.50,3338.00318597,N,11914.53297610,W,2,11,0.9,5.497,M,-37.849,M,7.4,0131*69
$PYRTM,2024,127.416788140127,18.526435550266
$GNHDT,144.600,T*2C
$PYRTM,2024,127.416793973356,18.526441383495
$GNGGA,100011.00,3338.00230717,N,11914.53215413,W,2,11,0.9,5.846,M,-37.849,M,7.0,0131*63
$PYRTM,2024,127.416793973356,18.526441383495
$GNHDT,144.791,T*25
$PYRTM,2024,127.416799714606,18.526447124745
$GNGGA,100011.50,3338.00138635,N,11914.53139922,W,2,11,0.9,6.147,M,-37.849,M,7.4,0131*61
$PYRTM,2024,127.416799714606,18.526447124745
$GNHDT,145.097,T*25
$PYRTM,2024,127.416805545093,18.526452955243
$GNGGA,100012.00,3338.00039942,N,11914.53071740,W,2,11,0.9,6.309,M,-37.849,M,4.0,0131*60
$PYRTM,2024,127.416805545093,18.526452955243
$GNHDT,145.630,T*2E
$PYRTM,2024,127.416811289074,18.526458699213
$GNGGA,100012.50,3337.99935613,N,11914.53008655,W,2,11,0.9,6.311,M,-37.849,M,4.4,0131*62
$PYRTM,2024,127.416811289074,18.526458699213
$GNHDT,145.664,T*2F
$PYRTM,2024,127.416817120648,18.526464530787
$GNGGA,100013.00,3337.99828085,N,11914.52948157,W,2,11,0.9,6.140,M,-37.849,M,5.0,0131*68
$PYRTM,2024,127.416817120648,18.526464530787
$GNHDT,146.015,T*2C
$PYRTM,2024,127.416822863727,18.526470273866
$GNGGA,100013.50,3337.99720815,N,11914.52886053,W,2,11,0.9,5.922,M,-37.849,M,5.4,0131*66
$PYRTM,2024,127.416822863727,18.526470273866
$GNHDT,146.392,T*20
$PYRTM,2024,127.416828695602,18.526476105741
$GNGGA,100014.00,3337.99617248,N,11914.52819414,W,2,11,0.9,5.739,M,-37.849,M,6.0,0131*61
$PYRTM,2024,127.416828695602,18.526476105741
$GNHDT,146.337,T*2F
$PYRTM,2024,127.416834431863,18.526481842002
$GNGGA,100014.50,3337.99519735,N,11914.52743979,W,2,11,0.9,5.659,M,-37.849,M,6.4,0131*63
$PYRTM,2024,127.416834431863,18.526481842002
$GNHDT,145.958,T*2F
$PYRTM,2024,127.416840268461,18.526487678600
$GNGGA,100015.00,3337.99426824,N,11914.52660852,W,2,11,0.9,5.675,M,-37.849,M,7.0,0131*66
$PYRTM,2024,127.416840268461,18.526487678600
$GNHDT,145.612,T*2E
$PYRTM,2024,127.416846007975,18.526493418125
$GNGGA,100015.50,3337.99335306,N,11914.52575098,W,2,11,0.9,5.741,M,-37.849,M,7.4,0131*66
$PYRTM,2024,127.416846007975,18.526493418125
$GNHDT,145.023,T*2A
$PYRTM,2024,127.416851844016,18.526499254155
$GNGGA,100016.00,3337.99242839,N,11914.52489410,W,2,11,0.9,5.796,M,-37.849,M,7.0,0131*6E
$PYRTM,2024,127.416851844016,18.526499254155
$GNHDT,144.639,T*26
$PYRTM,2024,127.416857580243,18.526504990382
$GNGGA,100016.50,3337.99148632,N,11914.52407837,W,2,11,0.9,5.800,M,-37.849,M,7.4,0131*6C
$PYRTM,2024,127.416857580243,18.526504990382
$GNHDT,144.148,T*27
$PYRTM,2024,127.416863417836,18.526510827975
$GNGGA,100017.00,3337.99052527,N,11914.52331764,W,2,11,0.9,5.725,M,-37.849,M,7.0,0131*62
$PYRTM,2024,127.416863417836,18.526510827975
$GNHDT,144.182,T*21
$PYRTM,2024,127.416869158704,18.526516568854
$GNGGA,100017.50,3337.98954279,N,11914.52262039,W,2,11,0.9,5.596,M,-37.849,M,7.4,0131*63
$PYRTM,2024,127.416869158704,18.526516568854
$GNHDT,144.117,T*2D
$PYRTM,2024,127.416874994132,18.526522404271
$GNGGA,100018.00,3337.98854210,N,11914.52197909,W,2,11,0.9,5.445,M,-37.849,M,4.0,0131*6C
$PYRTM,2024,127.416874994132,18.526522404271
$GNHDT,144.208,T*20
$PYRTM,2024,127.416880728507,18.526528138646
$GNGGA,100018.50,3337.98753010,N,11914.52138038,W,2,11,0.9,5.311,M,-37.849,M,4.4,0131*6F
$PYRTM,2024,127.416880728507,18.526528138646
$GNHDT,143.862,T*21
$PYRTM,2024,127.416886564375,18.526533974514
$GNGGA,100019.00,3337.98649934,N,11914.52080206,W,2,11,0.9,5.210,M,-37.849,M,5.0,0131*66
$PYRTM,2024,127.416886564375,18.526533974514
$GNHDT,144.054,T*2B
$PYRTM,2024,127.416892306389,18.526539716539
$GNGGA,100019.50,3337.98548642,N,11914.52017450,W,2,11,0.9,5.202,M,-37.849,M,5.4,0131*63
$PYRTM,2024,127.416892306389,18.526539716539
$GNHDT,144.562,T*2B
$PYRTM,2024,127.416898137708,18.526545547859
$GNGGA,100020.00,3337.98450024,N,11914.51947754,W,2,11,0.9,5.247,M,-37.849,M,6.0,0131*6C
$PYRTM,2024,127.416898137708,18.526545547859
$GNHDT,144.703,T*2E
$PYRTM,2024,127.416903880069,18.526551290208
$GNGGA,100020.50,3337.98354926,N,11914.51871407,W,2,11,0.9,5.320,M,-37.849,M,6.4,0131*64
$PYRTM,2024,127.416903880069,18.526551290208
$GNHDT,144.774,T*2E
$PYRTM,2024,127.416909712917,18.526557123067
$GNGGA,100021.00,3337.98261152,N,11914.51792267,W,2,11,0.9,5.377,M,-37.849,M,7.0,0131*69
$PYRTM,2024,127.416909712917,18.526557123067
$GNHDT,145.066,T*2B
$PYRTM,2024,127.416915454132,18.526562864271
$GNGGA,100021.50,3337.98167355,N,11914.51714316,W,2,11,0.9,5.413,M,-37.849,M,7.4,0131*64
$PYRTM,2024,127.416915454132,18.526562864271
$GNHDT,144.957,T*21
$PYRTM,2024,127.416921288947,18.526568699086
$GNGGA,100022.00,3337.98071872,N,11914.51641199,W,2,11,0.9,5.429,M,-37.849,M,7.0,0131*63
$PYRTM,2024,127.416921288947,18.526568699086
$GNHDT,145.179,T*24
$PYRTM,2024,127.416927030336,18.526574440475
$GNGGA,100022.50,3337.97974895,N,11914.51571533,W,2,11,0.9,5.458,M,-37.849,M,7.4,0131*6A
$PYRTM,2024,127.416927030336,18.526574440475
$GNHDT,145.257,T*2B
$PYRTM,2024,127.416932861134,18.526580271273
$GNGGA,100023.00,3337.97875385,N,11914.51503780,W,2,11,0.9,5.488,M,-37.849,M,7.0,0131*62
$PYRTM,2024,127.416932861134,18.526580271273
$GNHDT,145.196,T*25
$PYRTM,2024,127.416938601632,18.526586011771
$GNGGA,100023.50,3337.97773915,N,11914.51436744,W,2,11,0.9,5.508,M,-37.849,M,7.4,0131*6F
$PYRTM,2024,127.416938601632,18.526586011771
$GNHDT,145.076,T*2A
$PYRTM,2024,127.416944436678,18.526591846829
$GNGGA,100024.00,3337.97671979,N,11914.51369140,W,2,11,0.9,5.519,M,-37.849,M,4.0,0131*6C
$PYRTM,2024,127.416944436678,18.526591846829
$GNHDT,145.167,T*2B
$PYRTM,2024,127.416950171921,18.526597582060
$GNGGA,100024.50,3337.97571982,N,11914.51300449,W,2,11,0.9,5.555,M,-37.849,M,4.4,0131*61
$PYRTM,2024,127.416950171921,18.526597582060
$GNHDT,145.247,T*2A
$PYRTM,2024,127.416956007245,18.526603417384
$GNGGA,100025.00,3337.97474214,N,11914.51230424,W,2,11,0.9,5.599,M,-37.849,M,5.0,0131*69
$PYRTM,2024,127.416956007245,18.526603417384
$GNHDT,145.271,T*2F
$PYRTM,2024,127.416961746748,18.526609156887
$GNGGA,100025.50,3337.97378131,N,11914.51159945,W,2,11,0.9,5.651,M,-37.849,M,5.4,0131*66
$PYRTM,2024,127.416961746748,18.526609156887
$GNHDT,145.523,T*2F
$PYRTM,2024,127.416967585405,18.526614995544
$GNGGA,100026.00,3337.97282639,N,11914.51090098,W,2,11,0.9,5.665,M,-37.849,M,6.0,0131*66
$PYRTM,2024,127.416967585405,18.526614995544
$GNHDT,145.592,T*25
$PYRTM,2024,127.416973322975,18.526620733113
$GNGGA,100026.50,3337.97186174,N,11914.51020604,W,2,11,0.9,5.628,M,-37.849,M,6.4,0131*6F
$PYRTM,2024,127.416973322975,18.526620733113
$GNHDT,145.599,T*2E
$PYRTM,2024,127.416979165243,18.526626575382
$GNGGA,100027.00,3337.97087223,N,11914.50951192,W,2,11,0.9,5.540,M,-37.849,M,7.0,0131*64
$PYRTM,2024,127.416979165243,18.526626575382
$GNHDT,145.185,T*27
$PYRTM,2024,127.416984898507,18.526632308646
$GNGGA,100027.50,3337.96986636,N,11914.50881128,W,2,11,0.9,5.452,M,-37.849,M,7.4,0131*63
$PYRTM,2024,127.416984898507,18.526632308646
$GNHDT,145.246,T*2B
$PYRTM,2024,127.416990730845,18.526638140984
$GNGGA,100028.00,3337.96886378,N,11914.50808845,W,2,11,0.9,5.407,M,-37.849,M,7.0,0131*60
$PYRTM,2024,127.416990730845,18.526638140984
$GNHDT,145.161,T*2D
$PYRTM,2024,127.416996469549,18.526643879687
$GNGGA,100028.50,3337.96787811,N,11914.50733521,W,2,11,0.9,5.436,M,-37.849,M,7.4,0131*61
$PYRTM,2024,127.416996469549,18.526643879687
$GNHDT,144.882,T*28
$PYRTM,2024,127.417002305359,18.526649715498
$GNGGA,100029.00,3337.96691535,N,11914.50653964,W,2,11,0.9,5.561,M,-37.849,M,7.0,0131*65
$PYRTM,2024,127.417002305359,18.526649715498
$GNHDT,144.621,T*2F
$PYRTM,2024,127.417008048634,18.526655458773
$GNGGA,100029.50,3337.96597341,N,11914.50573775,W,2,11,0.9,5.749,M,-37.849,M,7.4,0131*63
$PYRTM,2024,127.417008048634,18.526655458773
$GNHDT,144.696,T*23
$PYRTM,2024,127.417013879329,18.526661289468
$GNGGA,100030.00,3337.96504075,N,11914.50495875,W,2,11,0.9,5.980,M,-37.849,M,4.0,0131*6A
$PYRTM,2024,127.417013879329,18.526661289468
$GNHDT,144.580,T*27
$PYRTM,2024,127.417019618924,18.526667029063
$GNGGA,100030.50,3337.96410147,N,11914.50420678,W,2,11,0.9,6.183,M,-37.849,M,4.4,0131*6A
$PYRTM,2024,127.417019618924,18.526667029063
$GNHDT,144.592,T*24
$PYRTM,2024,127.417025454954,18.526672865093
$GNGGA,100031.00,3337.96313283,N,11914.50347556,W,2,11,0.9,6.277,M,-37.849,M,5.0,0131*65
$PYRTM,2024,127.417025454954,18.526672865093
$GNHDT,144.680,T*24
$PYRTM,2024,127.417031193623,18.526678603773
$GNGGA,100031.50,3337.96213643,N,11914.50275701,W,2,11,0.9,6.220,M,-37.849,M,5.4,0131*6F
$PYRTM,2024,127.417031193623,18.526678603773
$GNHDT,144.601,T*2D
$PYRTM,2024,127.417037034352,18.526684444491
$GNGGA,100032.00,3337.96111506,N,11914.50205427,W,2,11,0.9,6.013,M,-37.849,M,6.0,0131*6F
$PYRTM,2024,127.417037034352,18.526684444491
$GNHDT,144.617,T*2A
$PYRTM,2024,127.417042768380,18.526690178519
$GNGGA,100032.50,3337.96008655,N,11914.50135556,W,2,11,0.9,5.732,M,-37.849,M,6.4,0131*62
$PYRTM,2024,127.417042768380,18.526690178519
$GNHDT,144.432,T*2F
$PYRTM,2024,127.417048601019,18.526696011157
$GNGGA,100033.00,3337.95905874,N,11914.50065043,W,2,11,0.9,5.441,M,-37.849,M,7.0,0131*6B
$PYRTM,2024,127.417048601019,18.526696011157
$GNHDT,144.152,T*2C
$PYRTM,2024,127.417054344826,18.526701754965
$GNGGA,100033.50,3337.95804766,N,11914.49993150,W,2,11,0.9,5.241,M,-37.849,M,7.4,0131*6B
$PYRTM,2024,127.417054344826,18.526701754965
$GNHDT,144.174,T*28
$PYRTM,2024,127.417060182106,18.526707592245
$GNGGA,100034.00,3337.95706531,N,11914.49919738,W,2,11,0.9,5.210,M,-37.849,M,7.0,0131*6E
$PYRTM,2024,127.417060182106,18.526707592245
$GNHDT,144.599,T*2F
$PYRTM,2024,127.417065913322,18.526713323461
$GNGGA,100034.50,3337.95612335,N,11914.49842748,W,2,11,0.9,5.320,M,-37.849,M,7.4,0131*63
$PYRTM,2024,127.417065913322,18.526713323461
$GNHDT,145.130,T*29
$PYRTM,2024,127.417071753947,18.526719164086
$GNGGA,100035.00,3337.95518816,N,11914.49763403,W,2,11,0.9,5.497,M,-37.849,M,7.0,0131*6B
$PYRTM,2024,127.417071753947,18.526719164086
$GNHDT,145.618,T*24
$PYRTM,2024,127.417077493299,18.526724903449
$GNGGA,100035.50,3337.95424576,N,11914.49686511,W,2,11,0.9,5.631,M,-37.849,M,7.4,0131*69
$PYRTM,2024,127.417077493299,18.526724903449
$GNHDT,146.305,T*2E
$PYRTM,2024,127.417083323738,18.526730733877
$GNGGA,100036.00,3337.95328895,N,11914.49613978,W,2,11,0.9,5.717,M,-37.849,M,4.0,0131*69
$PYRTM,2024,127.417083323738,18.526730733877
$GNHDT,146.731,T*2D
$PYRTM,2024,127.417089067650,18.526736477789
$GNGGA,100036.50,3337.95230974,N,11914.49545037,W,2,11,0.9,5.720,M,-37.849,M,4.4,0131*68
$PYRTM,2024,127.417089067650,18.526736477789
$GNHDT,146.682,T*24
$PYRTM,2024,127.417094896273,18.526742306412
$GNGGA,100037.00,3337.95130822,N,11914.49478627,W,2,11,0.9,5.621,M,-37.849,M,5.0,0131*60
$PYRTM,2024,127.417094896273,18.526742306412
$GNHDT,146.049,T*25
$PYRTM,2024,127.417100639757,18.526748049896
$GNGGA,100037.50,3337.95029502,N,11914.49415041,W,2,11,0.9,5.447,M,-37.849,M,5.4,0131*68
$PYRTM,2024,127.417100639757,18.526748049896
$GNHDT,145.442,T*29
$PYRTM,2024,127.417106471493,18.526753881632
$GNGGA,100038.00,3337.94927936,N,11914.49353866,W,2,11,0.9,5.239,M,-37.849,M,6.0,0131*6F
$PYRTM,2024,127.417106471493,18.526753881632
$GNHDT,144.807,T*25
$PYRTM,2024,127.417112212407,18.526759622546
$GNGGA,100038.50,3337.94827843,N,11914.49289929,W,2,11,0.9,5.073,M,-37.849,M,6.4,0131*6C
$PYRTM,2024,127.417112212407,18.526759622546
$GNHDT,143.779,T*24
$PYRTM,2024,127.417118046343,18.526765456481
$GNGGA,100039.00,3337.94731950,N,11914.49221566,W,2,11,0.9,4.998,M,-37.849,M,7.0,0131*6E
$PYRTM,2024,127.417118046343,18.526765456481
$GNHDT,143.460,T*2F
$PYRTM,2024,127.417123788727,18.526771198866
$GNGGA,100039.50,3337.94640027,N,11914.49147601,W,2,11,0.9,5.078,M,-37.849,M,7.4,0131*66
$PYRTM,2024,127.417123788727,18.526771198866
$GNHDT,143.402,T*2B
$PYRTM,2024,127.417129623438,18.526777033576
$GNGGA,100040.00,3337.94550793,N,11914.49070820,W,2,11,0.9,5.277,M,-37.849,M,7.0,0131*66
$PYRTM,2024,127.417129623438,18.526777033576
$GNHDT,143.572,T*2D
$PYRTM,2024,127.417135360150,18.526782770289
$GNGGA,100040.50,3337.94460747,N,11914.48993488,W,2,11,0.9,5.506,M,-37.849,M,7.4,0131*66
$PYRTM,2024,127.417135360150,18.526782770289
$GNHDT,143.836,T*20
$PYRTM,2024,127.417141192396,18.526788602546
$GNGGA,100041.00,3337.94367316,N,11914.48920729,W,2,11,0.9,5.703,M,-37.849,M,7.0,0131*61
$PYRTM,2024,127.417141192396,18.526788602546
$GNHDT,144.570,T*28
$PYRTM,2024,127.417146933611,18.526794343762
$GNGGA,100041.50,3337.94268968,N,11914.48853196,W,2,11,0.9,5.829,M,-37.849,M,7.4,0131*6D
$PYRTM,2024,127.417146933611,18.526794343762
$GNHDT,144.791,T*25
$PYRTM,2024,127.417152767488,18.526800177627
$GNGGA,100042.00,3337.94166001,N,11914.48789187,W,2,11,0.9,5.853,M,-37.849,M,4.0,0131*62
$PYRTM,2024,127.417152767488,18.526800177627
$GNHDT,145.342,T*2E
$PYRTM,2024,127.417158511817,18.526805921956
$GNGGA,100042.50,3337.94059787,N,11914.48725017,W,2,11,0.9,5.789,M,-37.849,M,4.4,0131*61
$PYRTM,2024,127.417158511817,18.526805921956
$GNHDT,145.545,T*2F
$PYRTM,2024,127.417164342106,18.526811752245
$GNGGA,100043.00,3337.93952346,N,11914.48657586,W,2,11,0.9,5.724,M,-37.849,M,5.0,0131*62
$PYRTM,2024,127.417164342106,18.526811752245
$GNHDT,146.009,T*21
$PYRTM,2024,127.417170087118,18.526817497269
$GNGGA,100043.50,3337.93847691,N,11914.48585796,W,2,11,0.9,5.732,M,-37.849,M,5.4,0131*61
$PYRTM,2024,127.417170087118,18.526817497269
$GNHDT,146.133,T*29
$PYRTM,2024,127.417175914398,18.526823324537
$GNGGA,100044.00,3337.93747580,N,11914.48508776,W,2,11,0.9,5.857,M,-37.849,M,6.0,0131*6F
$PYRTM,2024,127.417175914398,18.526823324537
$GNHDT,146.547,T*2E
$PYRTM,2024,127.417181653495,18.526829063634
$GNGGA,100044.50,3337.93652721,N,11914.48424446,W,2,11,0.9,6.051,M,-37.849,M,6.4,0131*60
$PYRTM,2024,127.417181653495,18.526829063634
$GNHDT,146.877,T*20
$PYRTM,2024,127.417187491829,18.526834901968
$GNGGA,100045.00,3337.93561156,N,11914.48335771,W,2,11,0.9,6.228,M,-37.849,M,7.0,0131*68
$PYRTM,2024,127.417187491829,18.526834901968
$GNHDT,146.882,T*2A
$PYRTM,2024,127.417193230903,18.526840641042
$GNGGA,100045.50,3337.93469430,N,11914.48250628,W,2,11,0.9,6.278,M,-37.849,M,7.4,0131*6F
$PYRTM,2024,127.417193230903,18.526840641042
$GNHDT,146.888,T*20
$PYRTM,2024,127.417199065023,18.526846475162
$GNGGA,100046.00,3337.93373218,N,11914.48173880,W,2,11,0.9,6.148,M,-37.849,M,7.0,0131*63
$PYRTM,2024,127.417199065023,18.526846475162
$GNHDT,146.519,T*25
$PYRTM,2024,127.417204800718,18.526852210856
$GNGGA,100046.50,3337.93273723,N,11914.48104571,W,2,11,0.9,5.885,M,-37.849,M,7.4,0131*66
$PYRTM,2024,127.417204800718,18.526852210856
$GNHDT,146.254,T*2B
$PYRTM,2024,127.417210638056,18.526858048194
$GNGGA,100047.00,3337.93173150,N,11914.48039297,W,2,11,0.9,5.554,M,-37.849,M,7.0,0131*66
$PYRTM,2024,127.417210638056,18.526858048194
$GNHDT,145.604,T*29
$PYRTM,2024,127.417216384271,18.526863794421
$GNGGA,100047.50,3337.93074560,N,11914.47976313,W,2,11,0.9,5.276,M,-37.849,M,7.4,0131*61
$PYRTM,2024,127.417216384271,18.526863794421
$GNHDT,144.711,T*2D
$PYRTM,2024,127.417222216586,18.526869626725
$GNGGA,100048.00,3337.92979404,N,11914.47914645,W,2,11,0.9,5.126,M,-37.849,M,4.0,0131*6E
$PYRTM,2024,127.417222216586,18.526869626725
$GNHDT,143.870,T*22
$PYRTM,2024,127.417227950104,18.526875360243
$GNGGA,100048.50,3337.92887490,N,11914.47850660,W,2,11,0.9,5.115,M,-37.849,M,4.4,0131*64
$PYRTM,2024,127.417227950104,18.526875360243
$GNHDT,142.973,T*21
$PYRTM,2024,127.417233783889,18.526881194028
$GNGGA,100049.00,3337.92796852,N,11914.47782441,W,2,11,0.9,5.222,M,-37.849,M,5.0,0131*6E
$PYRTM,2024,127.417233783889,18.526881194028
$GNHDT,142.545,T*28
$PYRTM,2024,127.417239525104,18.526886935243
$GNGGA,100049.50,3337.92705717,N,11914.47712595,W,2,11,0.9,5.352,M,-37.849,M,5.4,0131*6C
$PYRTM,2024,127.417239525104,18.526886935243
$GNHDT,142.670,T*2D
$PYRTM,2024,127.417245359039,18.526892769178
$GNGGA,100050.00,3337.92612591,N,11914.47641472,W,2,11,0.9,5.460,M,-37.849,M,6.0,0131*64
$PYRTM,2024,127.417245359039,18.526892769178
$GNHDT,143.058,T*20
$PYRTM,2024,127.417251102766,18.526898512905
$GNGGA,100050.50,3337.92516541,N,11914.47570082,W,2,11,0.9,5.565,M,-37.849,M,6.4,0131*61
$PYRTM,2024,127.417251102766,18.526898512905
$GNHDT,143.518,T*21
$PYRTM,2024,127.417256935185,18.526904345324
$GNGGA,100051.00,3337.92418609,N,11914.47498590,W,2,11,0.9,5.663,M,-37.849,M,7.0,0131*64
$PYRTM,2024,127.417256935185,18.526904345324
$GNHDT,143.887,T*2A
$PYRTM,2024,127.417262673877,18.526910084016
$GNGGA,100051.50,3337.92319990,N,11914.47428393,W,2,11,0.9,5.815,M,-37.849,M,7.4,0131*6D
$PYRTM,2024,127.417262673877,18.526910084016
$GNHDT,144.420,T*2C
$PYRTM,2024,127.417268509259,18.526915919410
$GNGGA,100052.00,3337.92219905,N,11914.47358259,W,2,11,0.9,5.984,M,-37.849,M,7.0,0131*6C
$PYRTM,2024,127.417268509259,18.526915919410
$GNHDT,144.732,T*2C
$PYRTM,2024,127.417274246840,18.526921656979
$GNGGA,100052.50,3337.92118191,N,11914.47286830,W,2,11,0.9,6.146,M,-37.849,M,7.4,0131*68
$PYRTM,2024,127.417274246840,18.526921656979
$GNHDT,144.946,T*21
$PYRTM,2024,127.417280082153,18.526927492292
$GNGGA,100053.00,3337.92016138,N,11914.47210144,W,2,11,0.9,6.230,M,-37.849,M,7.0,0131*63
$PYRTM,2024,127.417280082153,18.526927492292
$GNHDT,145.031,T*29
$PYRTM,2024,127.417285824514,18.526933234653
$GNGGA,100053.50,3337.91914639,N,11914.47129754,W,2,11,0.9,6.254,M,-37.849,M,7.4,0131*60
$PYRTM,2024,127.417285824514,18.526933234653
$GNHDT,145.197,T*24
$PYRTM,2024,127.417291656493,18.526939066632
$GNGGA,100054.00,3337.91814061,N,11914.47046746,W,2,11,0.9,6.200,M,-37.849,M,4.0,0131*65
$PYRTM,2024,127.417291656493,18.526939066632
$GNHDT,145.286,T*27
$PYRTM,2024,127.417297393924,18.526944804062
$GNGGA,100054.50,3337.91715078,N,11914.46963378,W,2,11,0.9,6.095,M,-37.849,M,4.4,0131*6A
$PYRTM,2024,127.417297393924,18.526944804062
$GNHDT,145.482,T*25
$PYRTM,2024,127.417303228750,18.526950638889
$GNGGA,100055.00,3337.91618505,N,11914.46881355,W,2,11,0.9,5.973,M,-37.849,M,5.0,0131*68
$PYRTM,2024,127.417303228750,18.526950638889
$GNHDT,145.119,T*22
$PYRTM,2024,127.417308969630,18.526956379769
$GNGGA,100055.50,3337.91524574,N,11914.46803216,W,2,11,0.9,5.845,M,-37.849,M,5.4,0131*6B
$PYRTM,2024,127.417308969630,18.526956379769
$GNHDT,145.074,T*28
$PYRTM,2024,127.417314802280,18.526962212419
$GNGGA,100056.00,3337.91432160,N,11914.46729838,W,2,11,0.9,5.727,M,-37.849,M,6.0,0131*67
$PYRTM,2024,127.417314802280,18.526962212419
$GNHDT,144.443,T*29
$PYRTM,2024,127.417320542130,18.526967952280
$GNGGA,100056.50,3337.91339568,N,11914.46658852,W,2,11,0.9,5.593,M,-37.849,M,6.4,0131*60
$PYRTM,2024,127.417320542130,18.526967952280
$GNHDT,143.926,T*20
$PYRTM,2024,127.417326378924,18.526973789062
$GNGGA,100057.00,3337.91245698,N,11914.46593113,W,2,11,0.9,5.424,M,-37.849,M,7.0,0131*62
$PYRTM,2024,127.417326378924,18.526973789062
$GNHDT,143.349,T*23
$PYRTM,2024,127.417332116088,18.526979526227
$GNGGA,100057.50,3337.91151449,N,11914.46530898,W,2,11,0.9,5.257,M,-37.849,M,7.4,0131*6A
$PYRTM,2024,127.417332116088,18.526979526227
$GNHDT,142.675,T*28
$PYRTM,2024,127.417337952581,18.526985362720
$GNGGA,100058.00,3337.91058878,N,11914.46468724,W,2,11,0.9,5.141,M,-37.849,M,7.0,0131*62
$PYRTM,2024,127.417337952581,18.526985362720
$GNHDT,142.403,T*2B
$PYRTM,2024,127.417343690764,18.526991100903
$GNGGA,100058.50,3337.90967995,N,11914.46405497,W,2,11,0.9,5.081,M,-37.849,M,7.4,0131*68
$PYRTM,2024,127.417343690764,18.526991100903
$GNHDT,142.169,T*22
$PYRTM,2024,127.417349527060,18.526996937199
$GNGGA,100059.00,3337.90876180,N,11914.46343650,W,2,11,0.9,5.046,M,-37.849,M,7.0,0131*62
$PYRTM,2024,127.417349527060,18.526996937199
$GNHDT,142.096,T*23
$PYRTM,2024,127.417355265799,18.527002675938
$GNGGA,100059.50,3337.90781118,N,11914.46283681,W,2,11,0.9,5.018,M,-37.849,M,7.4,0131*6F
$PYRTM,2024,127.417355265799,18.527002675938
$GNHDT,142.264,T*2C
$PYRTM,2024,127.417361105197,18.527008515336
$GNGGA,100100.00,3337.90683027,N,11914.46223931,W,2,11,0.9,5.001,M,-37.849,M,4.0,0131*68
$PYRTM,2024,127.417361105197,18.527008515336
$GNHDT,142.360,T*29
$PYRTM,2024,127.417366840046,18.527014250185
$GNGGA,100100.50,3337.90584359,N,11914.46160801,W,2,11,0.9,5.042,M,-37.849,M,4.4,0131*66
$PYRTM,2024,127.417366840046,18.527014250185
$GNHDT,142.448,T*24
$PYRTM,2024,127.417372675463,18.527020085602
$GNGGA,100101.00,3337.90487628,N,11914.46091193,W,2,11,0.9,5.217,M,-37.849,M,5.0,0131*69
$PYRTM,2024,127.417372675463,18.527020085602
$GNHDT,142.910,T*24
$PYRTM,2024,127.417378416481,18.527025826620
$GNGGA,100101.50,3337.90393297,N,11914.46013959,W,2,11,0.9,5.530,M,-37.849,M,5.4,0131*6C
$PYRTM,2024,127.417378416481,18.527025826620
$GNHDT,143.545,T*29
$PYRTM,2024,127.417384246690,18.527031656829
$GNGGA,100102.00,3337.90299703,N,11914.45931080,W,2,11,0.9,5.953,M,-37.849,M,6.0,0131*60
$PYRTM,2024,127.417384246690,18.527031656829
$GNHDT,144.602,T*2E
$PYRTM,2024,127.417389992245,18.527037402384
$GNGGA,100102.50,3337.90205490,N,11914.45845962,W,2,11,0.9,6.388,M,-37.849,M,6.4,0131*65
$PYRTM,2024,127.417389992245,18.527037402384
$GNHDT,145.215,T*2D
$PYRTM,2024,127.417395825706,18.527043235845
$GNGGA,100103.00,3337.90109318,N,11914.45760347,W,2,11,0.9,6.763,M,-37.849,M,7.0,0131*68
$PYRTM,2024,127.417395825706,18.527043235845
$GNHDT,145.805,T*26
$PYRTM,2024,127.417401563426,18.527048973565
$GNGGA,100103.50,3337.90011300,N,11914.45677520,W,2,11,0.9,6.978,M,-37.849,M,7.4,0131*6C
$PYRTM,2024,127.417401563426,18.527048973565
$GNHDT,146.998,T*20
$PYRTM,2024,127.417407397650,18.527054807789
$GNGGA,100104.00,3337.89909464,N,11914.45601598,W,2,11,0.9,6.995,M,-37.848,M,7.0,0131*67
$PYRTM,2024,127.417407397650,18.527054807789
$GNHDT,147.175,T*2A
$PYRTM,2024,127.417413142326,18.527060552465
$GNGGA,100104.50,3337.89806127,N,11914.45531570,W,2,11,0.9,6.850,M,-37.848,M,7.4,0131*64
$PYRTM,2024,127.417413142326,18.527060552465
$GNHDT,147.386,T*24
$PYRTM,2024,127.417418977407,18.527066387546
$GNGGA,100105.00,3337.89701872,N,11914.45463740,W,2,11,0.9,6.588,M,-37.848,M,7.0,0131*6A
$PYRTM,2024,127.417418977407,18.527066387546
$GNHDT,147.151,T*2C
$PYRTM,2024,127.417424716910,18.527072127049
$GNGGA,100105.50,3337.89600783,N,11914.45393467,W,2,11,0.9,6.266,M,-37.848,M,7.4,0131*63
$PYRTM,2024,127.417424716910,18.527072127049
$GNHDT,146.587,T*22
$PYRTM,2024,127.417430548356,18.527077958495
$GNGGA,100106.00,3337.89504538,N,11914.45318759,W,2,11,0.9,5.958,M,-37.848,M,4.0,0131*6F
$PYRTM,2024,127.417430548356,18.527077958495
$GNHDT,145.815,T*27
$PYRTM,2024,127.417436287708,18.527083697847
$GNGGA,100106.50,3337.89414368,N,11914.45239752,W,2,11,0.9,5.718,M,-37.848,M,4.4,0131*6E
$PYRTM,2024,127.417436287708,18.527083697847
$GNHDT,145.268,T*27
$PYRTM,2024,127.417442125405,18.527089535544
$GNGGA,100107.00,3337.89328336,N,11914.45161490,W,2,11,0.9,5.541,M,-37.848,M,5.0,0131*61
$PYRTM,2024,127.417442125405,18.527089535544
$GNHDT,144.654,T*2D
$PYRTM,2024,127.417447862685,18.527095272824
$GNGGA,100107.50,3337.89242609,N,11914.45087532,W,2,11,0.9,5.388,M,-37.848,M,5.4,0131*67
$PYRTM,2024,127.417447862685,18.527095272824
$GNHDT,144.076,T*2B
$PYRTM,2024,127.417453695486,18.527101105625
$GNGGA,100108.00,3337.89154950,N,11914.45023475,W,2,11,0.9,5.317,M,-37.848,M,6.0,0131*67
$PYRTM,2024,127.417453695486,18.527101105625
$GNHDT,143.685,T*26
$PYRTM,2024,127.417459434016,18.527106844155
$GNGGA,100108.50,3337.89065569,N,11914.44965862,W,2,11,0.9,5.302,M,-37.848,M,6.4,0131*67
$PYRTM,2024,127.417459434016,18.527106844155
$GNHDT,143.417,T*2F
$PYRTM,2024,127.417465267326,18.527112677465
$GNGGA,100109.00,3337.88974325,N,11914.44913114,W,2,11,0.9,5.355,M,-37.848,M,7.0,0131*6B
$PYRTM,2024,127.417465267326,18.527112677465
$GNHDT,143.489,T*28
$PYRTM,2024,127.417471006354,18.527118416493
$GNGGA,100109.50,3337.88882290,N,11914.44860802,W,2,11,0.9,5.468,M,-37.848,M,7.4,0131*6F
$PYRTM,2024,127.417471006354,18.527118416493
$GNHDT,143.758,T*27
$PYRTM,2024,127.417476847106,18.527124257245
$GNGGA,100110.00,3337.88788182,N,11914.44806965,W,2,11,0.9,5.631,M,-37.848,M,7.0,0131*6D
$PYRTM,2024,127.417476847106,18.527124257245
$GNHDT,144.071,T*2C
$PYRTM,2024,127.417482584051,18.527129994190
$GNGGA,100110.50,3337.88691774,N,11914.44749646,W,2,11,0.9,5.759,M,-37.848,M,7.4,0131*6F
$PYRTM,2024,127.417482584051,18.527129994190
$GNHDT,143.974,T*27
$PYRTM,2024,127.417488418692,18.527135828831
$GNGGA,100111.00,3337.88593235,N,11914.44688326,W,2,11,0.9,5.856,M,-37.848,M,7.0,0131*61
$PYRTM,2024,127.417488418692,18.527135828831
$GNHDT,144.183,T*20
$PYRTM,2024,127.417494154491,18.527141564630
$GNGGA,100111.50,3337.88494785,N,11914.44622697,W,2,11,0.9,5.935,M,-37.848,M,7.4,0131*63
$PYRTM,2024,127.417494154491,18.527141564630
$GNHDT,144.926,T*27
$PYRTM,2024,127.417499988148,18.527147398287
$GNGGA,100112.00,3337.88397372,N,11914.44551278,W,2,11,0.9,6.026,M,-37.848,M,4.0,0131*60
$PYRTM,2024,127.417499988148,18.527147398287
$GNHDT,145.419,T*27
$PYRTM,2024,127.417505726516,18.527153136667
$GNGGA,100112.50,3337.88301075,N,11914.44475255,W,2,11,0.9,6.151,M,-37.848,M,4.4,0131*63
$PYRTM,2024,127.417505726516,18.527153136667
$GNHDT,146.047,T*2B
$PYRTM,2024,127.417511566898,18.527158977037
$GNGGA,100113.00,3337.88204967,N,11914.44395197,W,2,11,0.9,6.309,M,-37.848,M,5.0,0131*67
$PYRTM,2024,127.417511566898,18.527158977037
$GNHDT,146.576,T*2C
$PYRTM,2024,127.417517307500,18.527164717639
$GNGGA,100113.50,3337.88108410,N,11914.44312588,W,2,11,0.9,6.452,M,-37.848,M,5.4,0131*68
$PYRTM,2024,127.417517307500,18.527164717639
$GNHDT,146.773,T*2B
$PYRTM,2024,127.417523140127,18.527170550266
$GNGGA,100114.00,3337.88010233,N,11914.44229285,W,2,11,0.9,6.548,M,-37.848,M,6.0,0131*6B
$PYRTM,2024,127.417523140127,18.527170550266
$GNHDT,146.790,T*26
$PYRTM,2024,127.417528877095,18.527176287234
$GNGGA,100114.50,3337.87909292,N,11914.44151341,W,2,11,0.9,6.539,M,-37.848,M,6.4,0131*6C
$PYRTM,2024,127.417528877095,18.527176287234
$GNHDT,146.620,T*2C
$PYRTM,2024,127.417534712373,18.527182122512
$GNGGA,100115.00,3337.87805360,N,11914.44082093,W,2,11,0.9,6.422,M,-37.848,M,7.0,0131*64
$PYRTM,2024,127.417534712373,18.527182122512
$GNHDT,146.312,T*28
$PYRTM,2024,127.417540451956,18.527187862106
$GNGGA,100115.50,3337.87700711,N,11914.44020224,W,2,11,0.9,6.225,M,-37.848,M,7.4,0131*6A
$PYRTM,2024,127.417540451956,18.527187862106
$GNHDT,146.143,T*2E
$PYRTM,2024,127.417546285856,18.527193695995
$GNGGA,100116.00,3337.87596159,N,11914.43961626,W,2,11,0.9,5.950,M,-37.848,M,7.0,0131*68
$PYRTM,2024,127.417546285856,18.527193695995
$GNHDT,145.735,T*2A
$PYRTM,2024,127.417552022731,18.527199432870
$GNGGA,100116.50,3337.87493560,N,11914.43902217,W,2,11,0.9,5.674,M,-37.848,M,7.4,0131*69
$PYRTM,2024,127.417552022731,18.527199432870
$GNHDT,145.597,T*20
$PYRTM,2024,127.417557862326,18.527205272477
$GNGGA,100117.00,3337.87394958,N,11914.43839322,W,2,11,0.9,5.474,M,-37.848,M,7.0,0131*62
$PYRTM,2024,127.417557862326,18.527205272477
$GNHDT,145.607,T*2A
$PYRTM,2024,127.417563603762,18.527211013900
$GNGGA,100117.50,3337.87301327,N,11914.43771874,W,2,11,0.9,5.456,M,-37.848,M,7.4,0131*66
$PYRTM,2024,127.417563603762,18.527211013900
$GNHDT,145.158,T*27
$PYRTM,2024,127.417569435324,18.527216845475
$GNGGA,100118.00,3337.87212730,N,11914.43700268,W,2,11,0.9,5.631,M,-37.848,M,4.0,0131*68
$PYRTM,2024,127.417569435324,18.527216845475
$GNHDT,145.065,T*28
$PYRTM,2024,127.417575176933,18.527222587072
$GNGGA,100118.50,3337.87127056,N,11914.43624690,W,2,11,0.9,5.915,M,-37.848,M,4.4,0131*66
$PYRTM,2024,127.417575176933,18.527222587072
$GNHDT,144.879,T*2C
$PYRTM,2024,127.417581009965,18.527228420104
$GNGGA,100119.00,3337.87040943,N,11914.43549624,W,2,11,0.9,6.213,M,-37.848,M,5.0,0131*63
$PYRTM,2024,127.417581009965,18.527228420104
$GNHDT,144.675,T*2E
$PYRTM,2024,127.417586745451,18.527234155590
$GNGGA,100119.50,3337.86951164,N,11914.43480236,W,2,11,0.9,6.431,M,-37.848,M,5.4,0131*62
$PYRTM,2024,127.417586745451,18.527234155590
$GNHDT,144.075,T*28
$PYRTM,2024,127.417592580532,18.527239990671
$GNGGA,100120.00,3337.86856276,N,11914.43417256,W,2,11,0.9,6.522,M,-37.848,M,6.0,0131*67
$PYRTM,2024,127.417592580532,18.527239990671
$GNHDT,143.569,T*27
$PYRTM,2024,127.417598321088,18.527245731227
$GNGGA,100120.50,3337.86757408,N,11914.43358693,W,2,11,0.9,6.476,M,-37.848,M,6.4,0131*66
$PYRTM,2024,127.417598321088,18.527245731227
$GNHDT,143.624,T*2D
$PYRTM,2024,127.417604158021,18.527251568171
$GNGGA,100121.00,3337.86655271,N,11914.43300149,W,2,11,0.9,6.304,M,-37.848,M,7.0,0131*63
$PYRTM,2024,127.417604158021,18.527251568171
$GNHDT,143.636,T*2E
$PYRTM,2024,127.417609893310,18.527257303449
$GNGGA,100121.50,3337.86552994,N,11914.43241043,W,2,11,0.9,6.113,M,-37.848,M,7.4,0131*6D
$PYRTM,2024,127.417609893310,18.527257303449
$GNHDT,143.732,T*2B
$PYRTM,2024,127.417615728113,18.527263138252
$GNGGA,100122.00,3337.86452789,N,11914.43178841,W,2,11,0.9,5.986,M,-37.848,M,7.0,0131*68
$PYRTM,2024,127.417615728113,18.527263138252
$GNHDT,144.025,T*2D
$PYRTM,2024,127.417621471505,18.527268881655
$GNGGA,100122.50,3337.86356463,N,11914.43109159,W,2,11,0.9,6.007,M,-37.848,M,7.4,0131*68
$PYRTM,2024,127.417621471505,18.527268881655
$GNHDT,144.582,T*25
$PYRTM,2024,127.417627305590,18.527274715729
$GNGGA,100123.00,3337.86264695,N,11914.43029828,W,2,11,0.9,6.175,M,-37.848,M,7.0,0131*6B
$PYRTM,2024,127.417627305590,18.527274715729
$GNHDT,144.894,T*2F
$PYRTM,2024,127.417633041204,18.527280451343
$GNGGA,100123.50,3337.86175729,N,11914.42945110,W,2,11,0.9,6.404,M,-37.848,M,7.4,0131*6C
$PYRTM,2024,127.417633041204,18.527280451343
$GNHDT,145.257,T*2B
$PYRTM,2024,127.417638878600,18.527286288738
$GNGGA,100124.00,3337.86086379,N,11914.42860831,W,2,11,0.9,6.625,M,-37.848,M,4.0,0131*68
$PYRTM,2024,127.417638878600,18.527286288738
$GNHDT,145.766,T*2C
$PYRTM,2024,127.417644621366,18.527292031505
$GNGGA,100124.50,3337.85994516,N,11914.42783058,W,2,11,0.9,6.742,M,-37.848,M,4.4,0131*6A
$PYRTM,2024,127.417644621366,18.527292031505
$GNHDT,146.115,T*2D
$PYRTM,2024,127.417650453160,18.527297863299
$GNGGA,100125.00,3337.85898737,N,11914.42711459,W,2,11,0.9,6.751,M,-37.848,M,5.0,0131*6B
$PYRTM,2024,127.417650453160,18.527297863299
$GNHDT,146.302,T*29
$PYRTM,2024,127.417656194375,18.527303604514
$GNGGA,100125.50,3337.85799128,N,11914.42644324,W,2,11,0.9,6.615,M,-37.848,M,5.4,0131*61
$PYRTM,2024,127.417656194375,18.527303604514
$GNHDT,146.025,T*2F
$PYRTM,2024,127.417662025984,18.527309436123
$GNGGA,100126.00,3337.85696460,N,11914.42581670,W,2,11,0.9,6.369,M,-37.848,M,6.0,0131*67
$PYRTM,2024,127.417662025984,18.527309436123
$GNHDT,145.894,T*2E
$PYRTM,2024,127.417667769479,18.527315179618
$GNGGA,100126.50,3337.85593512,N,11914.42520755,W,2,11,0.9,6.090,M,-37.848,M,6.4,0131*6C
$PYRTM,2024,127.417667769479,18.527315179618
$GNHDT,145.957,T*20
$PYRTM,2024,127.417673601400,18.527321011539
$GNGGA,100127.00,3337.85492804,N,11914.42457136,W,2,11,0.9,5.894,M,-37.848,M,7.0,0131*6A
$PYRTM,2024,127.417673601400,18.527321011539
$GNHDT,145.672,T*28
$PYRTM,2024,127.417679341458,18.527326751597
$GNGGA,100127.50,3337.85397477,N,11914.42388916,W,2,11,0.9,5.854,M,-37.848,M,7.4,0131*62
$PYRTM,2024,127.417679341458,18.527326751597
$GNHDT,145.312,T*2B
$PYRTM,2024,127.417685172500,18.527332582639
$GNGGA,100128.00,3337.85307157,N,11914.42316998,W,2,11,0.9,5.976,M,-37.848,M,7.0,0131*62
$PYRTM,2024,127.417685172500,18.527332582639
$GNHDT,145.203,T*2A
$PYRTM,2024,127.417690913090,18.527338323229
$GNGGA,100128.50,3337.85219779,N,11914.42241738,W,2,11,0.9,6.194,M,-37.848,M,7.4,0131*67
$PYRTM,2024,127.417690913090,18.527338323229
$GNHDT,144.996,T*2C
$PYRTM,2024,127.417696747176,18.527344157315
$GNGGA,100129.00,3337.85132426,N,11914.42164920,W,2,11,0.9,6.384,M,-37.848,M,7.0,0131*64
$PYRTM,2024,127.417696747176,18.527344157315
$GNHDT,144.726,T*29
$PYRTM,2024,127.417702491551,18.527349901690
$GNGGA,100129.50,3337.85042294,N,11914.42091640,W,2,11,0.9,6.422,M,-37.848,M,7.4,0131*65
$PYRTM,2024,127.417702491551,18.527349901690
$GNHDT,144.628,T*26
$PYRTM,2024,127.417708320486,18.527355730625
$GNGGA,100130.00,3337.84945536,N,11914.42026571,W,2,11,0.9,6.244,M,-37.848,M,4.0,0131*64
$PYRTM,2024,127.417708320486,18.527355730625
$GNHDT,144.509,T*26
$PYRTM,2024,127.417714064375,18.527361474514
$GNGGA,100130.50,3337.84843492,N,11914.41969633,W,2,11,0.9,5.947,M,-37.848,M,4.4,0131*62
$PYRTM,2024,127.417714064375,18.527361474514
$GNHDT,144.661,T*2B
$PYRTM,2024,127.417719895660,18.527367305810
$GNGGA,100131.00,3337.84738376,N,11914.41917739,W,2,11,0.9,5.628,M,-37.848,M,5.0,0131*69
$PYRTM,2024,127.417719895660,18.527367305810
$GNHDT,144.659,T*20
$PYRTM,2024,127.417725634282,18.527373044421
$GNGGA,100131.50,3337.84633112,N,11914.41865699,W,2,11,0.9,5.433,M,-37.848,M,5.4,0131*65
$PYRTM,2024,127.417725634282,18.527373044421
$GNHDT,144.916,T*24
$PYRTM,2024,127.417731470336,18.527378880475
$GNGGA,100132.00,3337.84531483,N,11914.41806485,W,2,11,0.9,5.457,M,-37.848,M,6.0,0131*60
$PYRTM,2024,127.417731470336,18.527378880475
$GNHDT,145.186,T*24
$PYRTM,2024,127.417737209803,18.527384619942
$GNGGA,100132.50,3337.84435082,N,11914.41737160,W,2,11,0.9,5.687,M,-37.848,M,6.4,0131*6D
$PYRTM,2024,127.417737209803,18.527384619942
$GNHDT,145.386,T*26
$PYRTM,2024,127.417743042859,18.527390452998
$GNGGA,100133.00,3337.84342290,N,11914.41658299,W,2,11,0.9,6.030,M,-37.848,M,7.0,0131*6E
$PYRTM,2024,127.417743042859,18.527390452998
$GNHDT,145.786,T*22
$PYRTM,2024,127.417748785891,18.527396196030
$GNGGA,100133.50,3337.84249832,N,11914.41576309,W,2,11,0.9,6.354,M,-37.848,M,7.4,0131*61
$PYRTM,2024,127.417748785891,18.527396196030
$GNHDT,146.022,T*28
$PYRTM,2024,127.417754620359,18.527402030498
$GNGGA,100134.00,3337.84154296,N,11914.41498135,W,2,11,0.9,6.521,M,-37.848,M,7.0,0131*64
$PYRTM,2024,127.417754620359,18.527402030498
$GNHDT,146.220,T*28
$PYRTM,2024,127.417760357963,18.527407768102
$GNGGA,100134.50,3337.84053820,N,11914.41425569,W,2,11,0.9,6.544,M,-37.848,M,7.4,0131*6C
$PYRTM,2024,127.417760357963,18.527407768102
$GNHDT,146.258,T*27
$PYRTM,2024,127.417766191725,18.527413601875
$GNGGA,100135.00,3337.83949946,N,11914.41356095,W,2,11,0.9,6.473,M,-37.848,M,7.0,0131*68
$PYRTM,2024,127.417766191725,18.527413601875
$GNHDT,145.913,T*20
$PYRTM,2024,127.417771933970,18.527419344109
$GNGGA,100135.50,3337.83846071,N,11914.41287330,W,2,11,0.9,6.401,M,-37.848,M,7.4,0131*6E
$PYRTM,2024,127.417771933970,18.527419344109
$GNHDT,145.742,T*2A
$PYRTM,2024,127.417777764861,18.527425175000
$GNGGA,100136.00,3337.83744629,N,11914.41217820,W,2,11,0.9,6.368,M,-37.848,M,4.0,0131*62
$PYRTM,2024,127.417777764861,18.527425175000
$GNHDT,145.570,T*29
$PYRTM,2024,127.417783506377,18.527430916516
$GNGGA,100136.50,3337.83646574,N,11914.41147834,W,2,11,0.9,6.403,M,-37.848,M,4.4,0131*62
$PYRTM,2024,127.417783506377,18.527430916516
$GNHDT,145.494,T*22
$PYRTM,2024,127.417789340752,18.527436750891
$GNGGA,100137.00,3337.83551321,N,11914.41076709,W,2,11,0.9,6.474,M,-37.848,M,5.0,0131*62
$PYRTM,2024,127.417789340752,18.527436750891
$GNHDT,145.280,T*21
$PYRTM,2024,127.417795078206,18.527442488345
$GNGGA,100137.50,3337.83457865,N,11914.41004240,W,2,11,0.9,6.528,M,-37.848,M,5.4,0131*6A
$PYRTM,2024,127.417795078206,18.527442488345
$GNHDT,145.200,T*29
$PYRTM,2024,127.417800914850,18.527448324988
$GNGGA,100138.00,3337.83364284,N,11914.40931576,W,2,11,0.9,6.495,M,-37.848,M,6.0,0131*6E
$PYRTM,2024,127.417800914850,18.527448324988
$GNHDT,144.919,T*2B
$PYRTM,2024,127.417806658900,18.527454069039
$GNGGA,100138.50,3337.83269753,N,11914.40860301,W,2,11,0.9,6.391,M,-37.848,M,6.4,0131*6C
$PYRTM,2024,127.417806658900,18.527454069039
$GNHDT,144.521,T*2C
$PYRTM,2024,127.417812487650,18.527459897789
$GNGGA,100139.00,3337.83174405,N,11914.40792415,W,2,11,0.9,6.227,M,-37.848,M,7.0,0131*6E
$PYRTM,2024,127.417812487650,18.527459897789
$GNHDT,144.009,T*23
$PYRTM,2024,127.417818228611,18.527465638750
$GNGGA,100139.50,3337.83078218,N,11914.40727951,W,2,11,0.9,6.074,M,-37.848,M,7.4,0131*6F
$PYRTM,2024,127.417818228611,18.527465638750
$GNHDT,143.711,T*2A
$PYRTM,2024,127.417824065150,18.527471475301
$GNGGA,100140.00,3337.82982384,N,11914.40664950,W,2,11,0.9,5.976,M,-37.848,M,7.0,0131*66
$PYRTM,2024,127.417824065150,18.527471475301
$GNHDT,143.451,T*2D
$PYRTM,2024,127.417829800914,18.527477211053
$GNGGA,100140.50,3337.82887767,N,11914.40599490,W,2,11,0.9,5.971,M,-37.848,M,7.4,0131*6D
$PYRTM,2024,127.417829800914,18.527477211053
$GNHDT,143.565,T*2B
$PYRTM,2024,127.417835636609,18.527483046759
$GNGGA,100141.00,3337.82795471,N,11914.40529159,W,2,11,0.9,6.013,M,-37.848,M,7.0,0131*60
$PYRTM,2024,127.417835636609,18.527483046759
$GNHDT,143.532,T*29
$PYRTM,2024,127.417841377720,18.527488787870
$GNGGA,100141.50,3337.82704062,N,11914.40454355,W,2,11,0.9,6.086,M,-37.848,M,7.4,0131*66
$PYRTM,2024,127.417841377720,18.527488787870
$GNHDT,143.759,T*26
$PYRTM,2024,127.417847210289,18.527494620440
$GNGGA,100142.00,3337.82612612,N,11914.40380612,W,2,11,0.9,6.173,M,-37.848,M,4.0,0131*63
$PYRTM,2024,127.417847210289,18.527494620440
$GNHDT,144.301,T*28
$PYRTM,2024,127.417852951030,18.527500361169
$GNGGA,100142.50,3337.82518441,N,11914.40312414,W,2,11,0.9,6.251,M,-37.848,M,4.4,0131*63
$PYRTM,2024,127.417852951030,18.527500361169
$GNHDT,144.776,T*2C
$PYRTM,2024,127.417858786817,18.527506196956
$GNGGA,100143.00,3337.82418954,N,11914.40249007,W,2,11,0.9,6.282,M,-37.848,M,5.0,0131*6D
$PYRTM,2024,127.417858786817,18.527506196956
$GNHDT,145.258,T*24
$PYRTM,2024,127.417864528426,18.527511938565
$GNGGA,100143.50,3337.82315476,N,11914.40186590,W,2,11,0.9,6.224,M,-37.848,M,5.4,0131*6C
$PYRTM,2024,127.417864528426,18.527511938565
$GNHDT,145.784,T*20
$PYRTM,2024,127.417870362789,18.527517772928
$GNGGA,100144.00,3337.82210804,N,11914.40119984,W,2,11,0.9,6.116,M,-37.848,M,6.0,0131*69
$PYRTM,2024,127.417870362789,18.527517772928
$GNHDT,145.843,T*24
$PYRTM,2024,127.417876103125,18.527523513264
$GNGGA,100144.50,3337.82108083,N,11914.40048670,W,2,11,0.9,6.038,M,-37.848,M,6.4,0131*69
$PYRTM,2024,127.417876103125,18.527523513264
$GNHDT,145.677,T*2D
$PYRTM,2024,127.417881936204,18.527529346343
$GNGGA,100145.00,3337.82009231,N,11914.39974624,W,2,11,0.9,6.019,M,-37.848,M,7.0,0131*69
$PYRTM,2024,127.417881936204,18.527529346343
$GNHDT,145.572,T*2B
$PYRTM,2024,127.417887671447,18.527535081586
$GNGGA,100145.50,3337.81913293,N,11914.39899840,W,2,11,0.9,6.084,M,-37.848,M,7.4,0131*6B
$PYRTM,2024,127.417887671447,18.527535081586
$GNHDT,145.568,T*20
$PYRTM,2024,127.417893506516,18.527540916655
$GNGGA,100146.00,3337.81817880,N,11914.39822622,W,2,11,0.9,6.164,M,-37.848,M,7.0,0131*61
$PYRTM,2024,127.417893506516,18.527540916655
$GNHDT,145.518,T*27
$PYRTM,2024,127.417899252164,18.527546662315
$GNGGA,100146.50,3337.81721140,N,11914.39745347,W,2,11,0.9,6.243,M,-37.848,M,7.4,0131*61
$PYRTM,2024,127.417899252164,18.527546662315
$GNHDT,145.506,T*28
$PYRTM,2024,127.417905079630,18.527552489769
$GNGGA,100147.00,3337.81622601,N,11914.39667173,W,2,11,0.9,6.275,M,-37.848,M,7.0,0131*60
$PYRTM,2024,127.417905079630,18.527552489769
$GNHDT,145.294,T*24
$PYRTM,2024,127.417910825440,18.527558235579
$GNGGA,100147.50,3337.81524436,N,11914.39590088,W,2,11,0.9,6.269,M,-37.848,M,7.4,0131*61
$PYRTM,2024,127.417910825440,18.527558235579
$GNHDT,145.103,T*29
$PYRTM,2024,127.417916657153,18.527564067292
$GNGGA,100148.00,3337.81427140,N,11914.39517261,W,2,11,0.9,6.244,M,-37.848,M,4.0,0131*6F
$PYRTM,2024,127.417916657153,18.527564067292
$GNHDT,144.880,T*2A
$PYRTM,2024,127.417922394653,18.527569804792
$GNGGA,100148.50,3337.81330515,N,11914.39451767,W,2,11,0.9,6.225,M,-37.848,M,4.4,0131*6C
$PYRTM,2024,127.417922394653,18.527569804792
$GNHDT,144.666,T*2C
$PYRTM,2024,127.417928228449,18.527575638588
$GNGGA,100149.00,3337.81233408,N,11914.39393403,W,2,11,0.9,6.186,M,-37.848,M,5.0,0131*60
$PYRTM,2024,127.417928228449,18.527575638588
$GNHDT,144.593,T*25
$PYRTM,2024,127.417933966250,18.527581376389
$GNGGA,100149.50,3337.81136004,N,11914.39335079,W,2,11,0.9,6.133,M,-37.848,M,5.4,0131*64
$PYRTM,2024,127.417933966250,18.527581376389
$GNHDT,144.272,T*2D
$PYRTM,2024,127.417939802847,18.527587212986
$GNGGA,100150.00,3337.81039402,N,11914.39272135,W,2,11,0.9,6.067,M,-37.848,M,6.0,0131*69
$PYRTM,2024,127.417939802847,18.527587212986
$GNHDT,143.968,T*2A
$PYRTM,2024,127.417945543056,18.527592953194
$GNGGA,100150.50,3337.80943507,N,11914.39204010,W,2,11,0.9,5.991,M,-37.848,M,6.4,0131*6D
$PYRTM,2024,127.417945543056,18.527592953194
$GNHDT,143.490,T*20
$PYRTM,2024,127.417951382998,18.527598793148
$GNGGA,100151.00,3337.80847982,N,11914.39134291,W,2,11,0.9,5.891,M,-37.848,M,7.0,0131*62
$PYRTM,2024,127.417951382998,18.527598793148
$GNHDT,143.569,T*27
$PYRTM,2024,127.417957119583,18.527604529722
$GNGGA,100151.50,3337.80752969,N,11914.39065810,W,2,11,0.9,5.787,M,-37.848,M,7.4,0131*63
$PYRTM,2024,127.417957119583,18.527604529722
$GNHDT,143.833,T*25
$PYRTM,2024,127.417962953808,18.527610363947
$GNGGA,100152.00,3337.80659223,N,11914.38999700,W,2,11,0.9,5.709,M,-37.848,M,7.0,0131*6D
$PYRTM,2024,127.417962953808,18.527610363947
$GNHDT,144.164,T*29
$PYRTM,2024,127.417968691759,18.527616101898
$GNGGA,100152.50,3337.80565644,N,11914.38935066,W,2,11,0.9,5.693,M,-37.848,M,7.4,0131*66
$PYRTM,2024,127.417968691759,18.527616101898
$GNHDT,144.557,T*2D
$PYRTM,2024,127.417974524618,18.527621934757
$GNGGA,100153.00,3337.80469100,N,11914.38872127,W,2,11,0.9,5.707,M,-37.848,M,7.0,0131*66
$PYRTM,2024,127.417974524618,18.527621934757
$GNHDT,145.093,T*21
$PYRTM,2024,127.417980268287,18.527627678426
$GNGGA,100153.50,3337.80369235,N,11914.38808251,W,2,11,0.9,5.740,M,-37.848,M,7.4,0131*69
$PYRTM,2024,127.417980268287,18.527627678426
$GNHDT,145.227,T*2C
$PYRTM,2024,127.417986099213,18.527633509352
$GNGGA,100154.00,3337.80267368,N,11914.38740812,W,2,11,0.9,5.814,M,-37.848,M,4.0,0131*6A
$PYRTM,2024,127.417986099213,18.527633509352
$GNHDT,145.489,T*2E
$PYRTM,2024,127.417991842593,18.527639252731
$GNGGA,100154.50,3337.80165692,N,11914.38669937,W,2,11,0.9,5.956,M,-37.848,M,4.4,0131*61
$PYRTM,2024,127.417991842593,18.527639252731
$GNHDT,145.666,T*2D
$PYRTM,2024,127.417997674155,18.527645084294
$GNGGA,100155.00,3337.80064861,N,11914.38598045,W,2,11,0.9,6.182,M,-37.848,M,5.0,0131*61
$PYRTM,2024,127.417997674155,18.527645084294
$GNHDT,145.961,T*25
$PYRTM,2024,127.418003411030,18.527650821169
$GNGGA,100155.50,3337.79964083,N,11914.38528716,W,2,11,0.9,6.448,M,-37.848,M,5.4,0131*62
$PYRTM,2024,127.418003411030,18.527650821169
$GNHDT,146.119,T*21
$PYRTM,2024,127.418009248194,18.527656658495
$GNGGA,100156.00,3337.79862745,N,11914.38460716,W,2,11,0.9,6.673,M,-37.848,M,6.0,0131*6E
$PYRTM,2024,127.418009248194,18.527656658495
$GNHDT,146.431,T*2E
$PYRTM,2024,127.418014985208,18.527662395347
$GNGGA,100156.50,3337.79761767,N,11914.38388350,W,2,11,0.9,6.859,M,-37.848,M,6.4,0131*62
$PYRTM,2024,127.418014985208,18.527662395347
$GNHDT,146.408,T*24
$PYRTM,2024,127.418020822894,18.527668233032
$GNGGA,100157.00,3337.79661533,N,11914.38310461,W,2,11,0.9,6.930,M,-37.848,M,7.0,0131*6B
$PYRTM,2024,127.418020822894,18.527668233032
$GNHDT,146.059,T*24
$PYRTM,2024,127.418026562373,18.527673972512
$GNGGA,100157.50,3337.79562462,N,11914.38230794,W,2,11,0.9,6.895,M,-37.848,M,7.4,0131*6B
$PYRTM,2024,127.418026562373,18.527673972512
$GNHDT,145.677,T*2D
$PYRTM,2024,127.418032395394,18.527679805532
$GNGGA,100158.00,3337.79463727,N,11914.38152934,W,2,11,0.9,6.756,M,-37.848,M,7.0,0131*64
$PYRTM,2024,127.418032395394,18.527679805532
$GNHDT,145.375,T*2A
$PYRTM,2024,127.418038136829,18.527685546968
$GNGGA,100158.50,3337.79365924,N,11914.38078254,W,2,11,0.9,6.591,M,-37.848,M,7.4,0131*64
$PYRTM,2024,127.418038136829,18.527685546968
$GNHDT,144.988,T*23
$PYRTM,2024,127.418043968796,18.527691378935
$GNGGA,100159.00,3337.79269141,N,11914.38006663,W,2,11,0.9,6.432,M,-37.848,M,7.0,0131*63
$PYRTM,2024,127.418043968796,18.527691378935
$GNHDT,144.652,T*2B
$PYRTM,2024,127.418049708090,18.527697118229
$GNGGA,100159.50,3337.79174068,N,11914.37936162,W,2,11,0.9,6.307,M,-37.848,M,7.4,0131*65
$PYRTM,2024,127.418049708090,18.527697118229
$GNHDT,144.309,T*20
$PYRTM,2024,127.418055544572,18.527702954711
$GNGGA,100200.00,3337.79080410,N,11914.37865229,W,2,11,0.9,6.213,M,-37.848,M,4.0,0131*66
$PYRTM,2024,127.418055544572,18.527702954711
$GNHDT,144.058,T*27
$PYRTM,2024,127.418061284271,18.527708694410
$GNGGA,100200.50,3337.78987456,N,11914.37795456,W,2,11,0.9,6.141,M,-37.848,M,4.4,0131*60
$PYRTM,2024,127.418061284271,18.527708694410
$GNHDT,143.761,T*2D
$PYRTM,2024,127.418067116100,18.527714526238
$GNGGA,100201.00,3337.78893945,N,11914.37728163,W,2,11,0.9,6.078,M,-37.847,M,5.0,0131*6B
$PYRTM,2024,127.418067116100,18.527714526238
$GNHDT,143.508,T*20
$PYRTM,2024,127.418072855081,18.527720265231
$GNGGA,100201.50,3337.78798574,N,11914.37665303,W,2,11,0.9,6.008,M,-37.847,M,5.4,0131*6B
$PYRTM,2024,127.418072855081,18.527720265231
$GNHDT,143.632,T*2A
$PYRTM,2024,127.418078691192,18.527726101331
$GNGGA,100202.00,3337.78701740,N,11914.37605717,W,2,11,0.9,5.937,M,-37.847,M,6.0,0131*6E
$PYRTM,2024,127.418078691192,18.527726101331
$GNHDT,143.900,T*24
$PYRTM,2024,127.418084430752,18.527731840891
$GNGGA,100202.50,3337.78603788,N,11914.37545470,W,2,11,0.9,5.873,M,-37.847,M,6.4,0131*6C
$PYRTM,2024,127.418084430752,18.527731840891
$GNHDT,144.239,T*22
$PYRTM,2024,127.418090265000,18.527737675139
$GNGGA,100203.00,3337.78505507,N,11914.37482055,W,2,11,0.9,5.807,M,-37.847,M,7.0,0131*67
$PYRTM,2024,127.418090265000,18.527737675139
$GNHDT,144.540,T*2B
$PYRTM,2024,127.418096004873,18.527743415012
$GNGGA,100203.50,3337.78406742,N,11914.37417131,W,2,11,0.9,5.795,M,-37.847,M,7.4,0131*6C
$PYRTM,2024,127.418096004873,18.527743415012
$GNHDT,144.958,T*2E
$PYRTM,2024,127.418101847639,18.527749257778
$GNGGA,100204.00,3337.78306474,N,11914.37350377,W,2,11,0.9,5.846,M,-37.847,M,7.0,0131*6E
$PYRTM,2024,127.418101847639,18.527749257778
$GNHDT,145.583,T*25
$PYRTM,2024,127.418107579896,18.527754990035
$GNGGA,100204.50,3337.78206441,N,11914.37279540,W,2,11,0.9,5.982,M,-37.847,M,7.4,0131*69
$PYRTM,2024,127.418107579896,18.527754990035
$GNHDT,145.983,T*29
$PYRTM,2024,127.418113416817,18.527760826956
$GNGGA,100205.00,3337.78108081,N,11914.37202447,W,2,11,0.9,6.196,M,-37.847,M,7.0,0131*68
$PYRTM,2024,127.418113416817,18.527760826956
$GNHDT,146.234,T*2D
$PYRTM,2024,127.418119154919,18.527766565058
$GNGGA,100205.50,3337.78011457,N,11914.37121113,W,2,11,0.9,6.432,M,-37.847,M,7.4,0131*62
$PYRTM,2024,127.418119154919,18.527766565058
$GNHDT,145.937,T*26
$PYRTM,2024,127.418124997303,18.527772407442
$GNGGA,100206.00,3337.77915092,N,11914.37039110,W,2,11,0.9,6.646,M,-37.847,M,4.0,0131*66
$PYRTM,2024,127.418124997303,18.527772407442
$GNHDT,145.796,T*23
$PYRTM,2024,127.418130728935,18.527778139074
$GNGGA,100206.50,3337.77815651,N,11914.36961227,W,2,11,0.9,6.733,M,-37.847,M,4.4,0131*6E
$PYRTM,2024,127.418130728935,18.527778139074
$GNHDT,145.686,T*23
$PYRTM,2024,127.418136564699,18.527783974838
$GNGGA,100207.00,3337.77711473,N,11914.36888738,W,2,11,0.9,6.651,M,-37.847,M,5.0,0131*6E
$PYRTM,2024,127.418136564699,18.527783974838
$GNHDT,145.339,T*22
$PYRTM,2024,127.418142304028,18.527789714167
$GNGGA,100207.50,3337.77605142,N,11914.36818810,W,2,11,0.9,6.426,M,-37.847,M,5.4,0131*62
$PYRTM,2024,127.418142304028,18.527789714167
$GNHDT,144.408,T*26
$PYRTM,2024,127.418148143958,18.527795554109
$GNGGA,100208.00,3337.77498718,N,11914.36747812,W,2,11,0.9,6.139,M,-37.847,M,6.0,0131*6C
$PYRTM,2024,127.418148143958,18.527795554109
$GNHDT,143.739,T*20
$PYRTM,2024,127.418153881192,18.527801291331
$GNGGA,100208.50,3337.77396302,N,11914.36675677,W,2,11,0.9,5.878,M,-37.847,M,6.4,0131*69
$PYRTM,2024,127.418153881192,18.527801291331
$GNHDT,143.172,T*29
$PYRTM,2024,127.418159715139,18.527807125278
$GNGGA,100209.00,3337.77298685,N,11914.36602460,W,2,11,0.9,5.740,M,-37.847,M,7.0,0131*6D
$PYRTM,2024,127.418159715139,18.527807125278
$GNHDT,143.116,T*2B
$PYRTM,2024,127.418165452697,18.527812862836
$GNGGA,100209.50,3337.77204703,N,11914.36528526,W,2,11,0.9,5.753,M,-37.847,M,7.4,0131*6C
$PYRTM,2024,127.418165452697,18.527812862836
$GNHDT,142.912,T*26
$PYRTM,2024,127.418171288229,18.527818698368
$GNGGA,100210.00,3337.77111549,N,11914.36456583,W,2,11,0.9,5.871,M,-37.847,M,7.0,0131*66
$PYRTM,2024,127.418171288229,18.527818698368
$GNHDT,143.338,T*25
$PYRTM,2024,127.418177024572,18.527824434711
$GNGGA,100210.50,3337.77018752,N,11914.36387786,W,2,11,0.9,6.054,M,-37.847,M,7.4,0131*67
$PYRTM,2024,127.418177024572,18.527824434711
$GNHDT,143.361,T*29
$PYRTM,2024,127.418182861562,18.527830271701
$GNGGA,100211.00,3337.76925411,N,11914.36323075,W,2,11,0.9,6.267,M,-37.847,M,7.0,0131*62
$PYRTM,2024,127.418182861562,18.527830271701
$GNHDT,143.922,T*24
$PYRTM,2024,127.418188607164,18.527836017315
$GNGGA,100211.50,3337.76830926,N,11914.36260800,W,2,11,0.9,6.419,M,-37.847,M,7.4,0131*6C
$PYRTM,2024,127.418188607164,18.527836017315
$GNHDT,144.205,T*2D
$PYRTM,2024,127.418194435799,18.527841845937
$GNGGA,100212.00,3337.76734584,N,11914.36198462,W,2,11,0.9,6.477,M,-37.847,M,4.0,0131*66
$PYRTM,2024,127.418194435799,18.527841845937
$GNHDT,144.747,T*2E
$PYRTM,2024,127.418200172836,18.527847582986
$GNGGA,100212.50,3337.76636289,N,11914.36134765,W,2,11,0.9,6.443,M,-37.847,M,4.4,0131*6B
$PYRTM,2024,127.418200172836,18.527847582986
$GNHDT,145.177,T*2A
$PYRTM,2024,127.418206010683,18.527853420822
$GNGGA,100213.00,3337.76537015,N,11914.36070321,W,2,11,0.9,6.342,M,-37.847,M,5.0,0131*6C
$PYRTM,2024,127.418206010683,18.527853420822
$GNHDT,145.464,T*2D
$PYRTM,2024,127.418211749468,18.527859159606
$GNGGA,100213.50,3337.76438673,N,11914.36004306,W,2,11,0.9,6.281,M,-37.847,M,5.4,0131*6D
$PYRTM,2024,127.418211749468,18.527859159606
$GNHDT,145.349,T*25
$PYRTM,2024,127.418217586667,18.527864996806
$GNGGA,100214.00,3337.76341756,N,11914.35935061,W,2,11,0.9,6.281,M,-37.847,M,6.0,0131*6D
$PYRTM,2024,127.418217586667,18.527864996806
$GNHDT,145.369,T*27
$PYRTM,2024,127.418223327106,18.527870737257
$GNGGA,100214.50,3337.76247452,N,11914.35860808,W,2,11,0.9,6.370,M,-37.847,M,6.4,0131*65
$PYRTM,2024,127.418223327106,18.527870737257
$GNHDT,145.547,T*2D
$PYRTM,2024,127.418229158414,18.527876568553
$GNGGA,100215.00,3337.76155220,N,11914.35780438,W,2,11,0.9,6.525,M,-37.847,M,7.0,0131*6F
$PYRTM,2024,127.418229158414,18.527876568553
$GNHDT,145.626,T*29
$PYRTM,2024,127.418234899062,18.527882309201
$GNGGA,100215.50,3337.76064056,N,11914.35695377,W,2,11,0.9,6.703,M,-37.847,M,7.4,0131*61
$PYRTM,2024,127.418234899062,18.527882309201
$GNHDT,145.707,T*2B
$PYRTM,2024,127.418240733437,18.527888143576
$GNGGA,100216.00,3337.75971078,N,11914.35611325,W,2,11,0.9,6.826,M,-37.847,M,7.0,0131*62
$PYRTM,2024,127.418240733437,18.527888143576
$GNHDT,145.787,T*23
$PYRTM,2024,127.418246471655,18.527893881794
$GNGGA,100216.50,3337.75873969,N,11914.35533523,W,2,11,0.9,6.823,M,-37.847,M,7.4,0131*6F
$PYRTM,2024,127.418246471655,18.527893881794
$GNHDT,145.439,T*25
$PYRTM,2024,127.418252310648,18.527899720787
$GNGGA,100217.00,3337.75771499,N,11914.35463688,W,2,11,0.9,6.654,M,-37.847,M,7.0,0131*68
$PYRTM,2024,127.418252310648,18.527899720787
$GNHDT,145.268,T*27
$PYRTM,2024,127.418258046481,18.527905456620
$GNGGA,100217.50,3337.75665275,N,11914.35399981,W,2,11,0.9,6.332,M,-37.847,M,7.4,0131*68
$PYRTM,2024,127.418258046481,18.527905456620
$GNHDT,145.100,T*2A
$PYRTM,2024,127.418263881933,18.527911292072
$GNGGA,100218.00,3337.75557042,N,11914.35338971,W,2,11,0.9,5.932,M,-37.847,M,4.0,0131*6C
$PYRTM,2024,127.418263881933,18.527911292072
$GNHDT,144.869,T*2D
$PYRTM,2024,127.418269616875,18.527917027014
$GNGGA,100218.50,3337.75450783,N,11914.35277462,W,2,11,0.9,5.631,M,-37.847,M,4.4,0131*68
$PYRTM,2024,127.418269616875,18.527917027014
$GNHDT,144.824,T*24
$PYRTM,2024,127.418275456748,18.527922866887
$GNGGA,100219.00,3337.75348352,N,11914.35212621,W,2,11,0.9,5.550,M,-37.847,M,5.0,0131*6D
$PYRTM,2024,127.418275456748,18.527922866887
$GNHDT,144.712,T*2E
$PYRTM,2024,127.418281193299,18.527928603437
$GNGGA,100219.50,3337.75250500,N,11914.35142735,W,2,11,0.9,5.689,M,-37.847,M,5.4,0131*60
$PYRTM,2024,127.418281193299,18.527928603437
$GNHDT,144.939,T*29
$PYRTM,2024,127.418287029884,18.527934440023
$GNGGA,100220.00,3337.75156016,N,11914.35067499,W,2,11,0.9,5.986,M,-37.847,M,6.0,0131*6C
$PYRTM,2024,127.418287029884,18.527934440023
$GNHDT,145.334,T*2F
$PYRTM,2024,127.418292765486,18.527940175637
$GNGGA,100220.50,3337.75064036,N,11914.34988688,W,2,11,0.9,6.361,M,-37.847,M,6.4,0131*64
$PYRTM,2024,127.418292765486,18.527940175637
$GNHDT,145.563,T*2B
$PYRTM,2024,127.418298604132,18.527946014282
$GNGGA,100221.00,3337.74971877,N,11914.34911812,W,2,11,0.9,6.666,M,-37.847,M,7.0,0131*6B
$PYRTM,2024,127.418298604132,18.527946014282
$GNHDT,146.549,T*20
$PYRTM,2024,127.418304339850,18.527951750000
$GNGGA,100221.50,3337.74876788,N,11914.34840664,W,2,11,0.9,6.826,M,-37.847,M,7.4,0131*63
$PYRTM,2024,127.418304339850,18.527951750000
$GNHDT,147.021,T*2A
$PYRTM,2024,127.418310175671,18.527957585810
$GNGGA,100222.00,3337.74777684,N,11914.34776480,W,2,11,0.9,6.794,M,-37.847,M,7.0,0131*66
$PYRTM,2024,127.418310175671,18.527957585810
$GNHDT,147.177,T*28
$PYRTM,2024,127.418315921262,18.527963331400
$GNGGA,100222.50,3337.74676029,N,11914.34714640,W,2,11,0.9,6.609,M,-37.847,M,7.4,0131*69
$PYRTM,2024,127.418315921262,18.527963331400
$GNHDT,146.742,T*29
$PYRTM,2024,127.418321751840,18.527969161991
$GNGGA,100223.00,3337.74572833,N,11914.34654180,W,2,11,0.9,6.314,M,-37.847,M,7.0,0131*6A
$PYRTM,2024,127.418321751840,18.527969161991
$GNHDT,146.629,T*25
$PYRTM,2024,127.418327491192,18.527974901331
$GNGGA,100223.50,3337.74469269,N,11914.34594212,W,2,11,0.9,6.041,M,-37.847,M,7.4,0131*61
$PYRTM,2024,127.418327491192,18.527974901331
$GNHDT,146.355,T*2B
$PYRTM,2024,127.418333325417,18.527980735567
$GNGGA,100224.00,3337.74366598,N,11914.34535369,W,2,11,0.9,5.816,M,-37.847,M,4.0,0131*6A
$PYRTM,2024,127.418333325417,18.527980735567
$GNHDT,146.181,T*20
$PYRTM,2024,127.418339066863,18.527986477002
$GNGGA,100224.50,3337.74268251,N,11914.34471674,W,2,11,0.9,5.761,M,-37.847,M,4.4,0131*61
$PYRTM,2024,127.418339066863,18.527986477002
$GNHDT,145.517,T*28
$PYRTM,2024,127.418344903021,18.527992313171
$GNGGA,100225.00,3337.74174519,N,11914.34400537,W,2,11,0.9,5.853,M,-37.847,M,5.0,0131*69
$PYRTM,2024,127.418344903021,18.527992313171
$GNHDT,145.312,T*2B
$PYRTM,2024,127.418350638113,18.527998048252
$GNGGA,100225.50,3337.74083451,N,11914.34323211,W,2,11,0.9,6.029,M,-37.847,M,5.4,0131*6F
$PYRTM,2024,127.418350638113,18.527998048252
$GNHDT,145.011,T*2B
$PYRTM,2024,127.418356471366,18.528003881505
$GNGGA,100226.00,3337.73990493,N,11914.34243287,W,2,11,0.9,6.216,M,-37.847,M,6.0,0131*6A
$PYRTM,2024,127.418356471366,18.528003881505
$GNHDT,144.864,T*20
$PYRTM,2024,127.418362212685,18.528009622824
$GNGGA,100226.50,3337.73892890,N,11914.34166361,W,2,11,0.9,6.341,M,-37.847,M,6.4,0131*69
$PYRTM,2024,127.418362212685,18.528009622824
$GNHDT,145.342,T*2E
$PYRTM,2024,127.418368046053,18.528015456192
$GNGGA,100227.00,3337.73790966,N,11914.34095112,W,2,11,0.9,6.426,M,-37.847,M,7.0,0131*60
$PYRTM,2024,127.418368046053,18.528015456192
$GNHDT,145.795,T*20
$PYRTM,2024,127.418373782083,18.528021192234
$GNGGA,100227.50,3337.73686065,N,11914.34029431,W,2,11,0.9,6.527,M,-37.847,M,7.4,0131*6E
$PYRTM,2024,127.418373782083,18.528021192234
$GNHDT,145.778,T*23
$PYRTM,2024,127.418379622685,18.528027032824
$GNGGA,100228.00,3337.73579565,N,11914.33966861,W,2,11,0.9,6.662,M,-37.847,M,7.0,0131*68
$PYRTM,2024,127.418379622685,18.528027032824
$GNHDT,146.286,T*24
$PYRTM,2024,127.418385361481,18.528032771620
$GNGGA,100228.50,3337.73473345,N,11914.33902412,W,2,11,0.9,6.806,M,-37.847,M,7.4,0131*60
$PYRTM,2024,127.418385361481,18.528032771620
$GNHDT,146.377,T*2B
$PYRTM,2024,127.418391195718,18.528038605856
$GNGGA,100229.00,3337.73368958,N,11914.33832766,W,2,11,0.9,6.889,M,-37.847,M,7.0,0131*6E
$PYRTM,2024,127.418391195718,18.528038605856
$GNHDT,146.502,T*2F
$PYRTM,2024,127.418396941458,18.528044351597
