$PYRTM,2024,124.250000124606,15.359647534745
$GNGGA,060000.00,3513.76648352,N,12136.12764304,W,2,11,0.9,7.910,M,-37.741,M,5.0,0135*69
$PYRTM,2024,124.250000124606,15.359647534745
$GNHDT,340.447,T*2B
$PYRTM,2024,124.250005858889,15.359653269028
$GNGGA,060000.50,3513.76696356,N,12136.12779494,W,2,11,0.9,7.731,M,-37.741,M,5.4,0135*60
$PYRTM,2024,124.250005858889,15.359653269028
$GNHDT,340.542,T*2F
$PYRTM,2024,124.250011707662,15.359659117801
$GNGGA,060001.00,3513.76748860,N,12136.12787159,W,2,11,0.9,7.498,M,-37.741,M,6.0,0135*6A
$PYRTM,2024,124.250011707662,15.359659117801
$GNHDT,340.373,T*2B
$PYRTM,2024,124.250017432130,15.359664842269
$GNGGA,060001.50,3513.76804388,N,12136.12787580,W,2,11,0.9,7.241,M,-37.741,M,6.4,0135*63
$PYRTM,2024,124.250017432130,15.359664842269
$GNHDT,340.084,T*20
$PYRTM,2024,124.250023274676,15.359670684815
$GNGGA,060002.00,3513.76861041,N,12136.12789256,W,2,11,0.9,7.012,M,-37.741,M,7.0,0135*63
$PYRTM,2024,124.250023274676,15.359670684815
$GNHDT,339.627,T*21
$PYRTM,2024,124.250029012604,15.359676422743
$GNGGA,060002.50,3513.76915042,N,12136.12797667,W,2,11,0.9,6.921,M,-37.741,M,7.4,0135*62
$PYRTM,2024,124.250029012604,15.359676422743
$GNHDT,339.304,T*25
$PYRTM,2024,124.250034852002,15.359682262141
$GNGGA,060003.00,3513.76963582,N,12136.12809870,W,2,11,0.9,7.035,M,-37.741,M,7.0,0135*67
$PYRTM,2024,124.250034852002,15.359682262141
$GNHDT,339.094,T*2F
$PYRTM,2024,124.250040579549,15.359687989687
$GNGGA,060003.50,3513.77006802,N,12136.12827392,W,2,11,0.9,7.344,M,-37.741,M,7.4,0135*66
$PYRTM,2024,124.250040579549,15.359687989687
$GNHDT,339.456,T*25
$PYRTM,2024,124.250046430787,15.359693840926
$GNGGA,060004.00,3513.77043415,N,12136.12850703,W,2,11,0.9,7.823,M,-37.741,M,7.0,0135*6D
$PYRTM,2024,124.250046430787,15.359693840926
$GNHDT,340.020,T*2E
$PYRTM,2024,124.250052159931,15.359699570069
$GNGGA,060004.50,3513.77080571,N,12136.12868087,W,2,11,0.9,8.273,M,-37.741,M,7.4,0135*60
$PYRTM,2024,124.250052159931,15.359699570069
$GNHDT,340.774,T*28
$PYRTM,2024,124.250057997836,15.359705407975
$GNGGA,060005.00,3513.77121066,N,12136.12880036,W,2,11,0.9,8.521,M,-37.741,M,4.0,0135*66
$PYRTM,2024,124.250057997836,15.359705407975
$GNHDT,340.960,T*23
$PYRTM,2024,124.250063729734,15.359711139873
$GNGGA,060005.50,3513.77169657,N,12136.12892412,W,2,11,0.9,8.416,M,-37.740,M,4.4,0135*6A
$PYRTM,2024,124.250063729734,15.359711139873
$GNHDT,340.469,T*27
$PYRTM,2024,124.250069569016,15.359716979155
$GNGGA,060006.00,3513.77223960,N,12136.12911436,W,2,11,0.9,7.962,M,-37.740,M,5.0,0135*62
$PYRTM,2024,124.250069569016,15.359716979155
$GNHDT,340.037,T*28
$PYRTM,2024,124.250075306539,15.359722716678
$GNGGA,060006.50,3513.77278811,N,12136.12932660,W,2,11,0.9,7.372,M,-37.740,M,5.4,0135*61
$PYRTM,2024,124.250075306539,15.359722716678
$GNHDT,339.640,T*20
$PYRTM,2024,124.250081148843,15.359728558981
$GNGGA,060007.00,3513.77330819,N,12136.12950849,W,2,11,0.9,6.885,M,-37.740,M,6.0,0135*64
$PYRTM,2024,124.250081148843,15.359728558981
$GNHDT,339.088,T*22
$PYRTM,2024,124.250086883877,15.359734294016
$GNGGA,060007.50,3513.77376942,N,12136.12962741,W,2,11,0.9,6.677,M,-37.740,M,6.4,0135*6D
$PYRTM,2024,124.250086883877,15.359734294016
$GNHDT,339.224,T*26
$PYRTM,2024,124.250092724178,15.359740134317
$GNGGA,060008.00,3513.77419235,N,12136.12967356,W,2,11,0.9,6.802,M,-37.740,M,7.0,0135*6C
$PYRTM,2024,124.250092724178,15.359740134317
$GNHDT,339.677,T*24
$PYRTM,2024,124.250098458634,15.359745868785
$GNGGA,060008.50,3513.77461471,N,12136.12968120,W,2,11,0.9,7.072,M,-37.740,M,7.4,0135*66
$PYRTM,2024,124.250098458634,15.359745868785
$GNHDT,340.074,T*2F
$PYRTM,2024,124.250104291250,15.359751701400
$GNGGA,060009.00,3513.77506866,N,12136.12970479,W,2,11,0.9,7.360,M,-37.740,M,7.0,0135*6C
$PYRTM,2024,124.250104291250,15.359751701400
$GNHDT,340.560,T*2F
$PYRTM,2024,124.250110024630,15.359757434769
$GNGGA,060009.50,3513.77557115,N,12136.12982922,W,2,11,0.9,7.519,M,-37.740,M,7.4,0135*62
$PYRTM,2024,124.250110024630,15.359757434769
$GNHDT,340.704,T*2F
$PYRTM,2024,124.250115869873,15.359763280012
$GNGGA,060010.00,3513.77608708,N,12136.13004627,W,2,11,0.9,7.538,M,-37.740,M,7.0,0135*67
$PYRTM,2024,124.250115869873,15.359763280012
$GNHDT,340.705,T*2E
$PYRTM,2024,124.250121601840,15.359769011979
$GNGGA,060010.50,3513.77659646,N,12136.13030274,W,2,11,0.9,7.507,M,-37.740,M,7.4,0135*60
$PYRTM,2024,124.250121601840,15.359769011979
$GNHDT,340.357,T*2D
$PYRTM,2024,124.250127443264,15.359774853403
$GNGGA,060011.00,3513.77709755,N,12136.13049180,W,2,11,0.9,7.467,M,-37.740,M,4.0,0135*65
$PYRTM,2024,124.250127443264,15.359774853403
$GNHDT,340.621,T*29
$PYRTM,2024,124.250133171794,15.359780581933
$GNGGA,060011.50,3513.77758618,N,12136.13060624,W,2,11,0.9,7.533,M,-37.740,M,4.4,0135*6A
$PYRTM,2024,124.250133171794,15.359780581933
$GNHDT,340.688,T*2A
$PYRTM,2024,124.250139013623,15.359786423762
$GNGGA,060012.00,3513.77807078,N,12136.13057633,W,2,11,0.9,7.672,M,-37.740,M,5.0,0135*68
$PYRTM,2024,124.250139013623,15.359786423762
$GNHDT,341.098,T*2C
$PYRTM,2024,124.250144750428,15.359792160567
$GNGGA,060012.50,3513.77852736,N,12136.13049462,W,2,11,0.9,7.923,M,-37.740,M,5.4,0135*66
$PYRTM,2024,124.250144750428,15.359792160567
$GNHDT,341.371,T*28
$PYRTM,2024,124.250150589329,15.359797999468
$GNGGA,060013.00,3513.77896409,N,12136.13040566,W,2,11,0.9,8.099,M,-37.740,M,6.0,0135*69
$PYRTM,2024,124.250150589329,15.359797999468
$GNHDT,341.737,T*2E
$PYRTM,2024,124.250156323449,15.359803733588
$GNGGA,060013.50,3513.77942552,N,12136.13036285,W,2,11,0.9,8.084,M,-37.740,M,6.4,0135*68
$PYRTM,2024,124.250156323449,15.359803733588
$GNHDT,341.682,T*21
$PYRTM,2024,124.250162165312,15.359809575451
$GNGGA,060014.00,3513.77992559,N,12136.13046336,W,2,11,0.9,7.777,M,-37.740,M,7.0,0135*63
$PYRTM,2024,124.250162165312,15.359809575451
$GNHDT,341.504,T*2C
$PYRTM,2024,124.250167904340,15.359815314479
$GNGGA,060014.50,3513.78046952,N,12136.13071804,W,2,11,0.9,7.236,M,-37.740,M,7.4,0135*64
$PYRTM,2024,124.250167904340,15.359815314479
$GNHDT,341.298,T*2E
$PYRTM,2024,124.250173742951,15.359821153090
$GNGGA,060015.00,3513.78103087,N,12136.13106369,W,2,11,0.9,6.684,M,-37.740,M,7.0,0135*68
$PYRTM,2024,124.250173742951,15.359821153090
$GNHDT,340.924,T*23
$PYRTM,2024,124.250179473796,15.359826883935
$GNGGA,060015.50,3513.78156676,N,12136.13138958,W,2,11,0.9,6.364,M,-37.740,M,7.4,0135*6F
$PYRTM,2024,124.250179473796,15.359826883935
$GNHDT,341.384,T*22
$PYRTM,2024,124.250185315671,15.359832725810
$GNGGA,060016.00,3513.78205079,N,12136.13156996,W,2,11,0.9,6.419,M,-37.740,M,7.0,0135*66
$PYRTM,2024,124.250185315671,15.359832725810
$GNHDT,341.623,T*2A
$PYRTM,2024,124.250191050440,15.359838460579
$GNGGA,060016.50,3513.78246431,N,12136.13160464,W,2,11,0.9,6.861,M,-37.740,M,7.4,0135*6E
$PYRTM,2024,124.250191050440,15.359838460579
$GNHDT,341.780,T*22
$PYRTM,2024,124.250196890185,15.359844300324
$GNGGA,060017.00,3513.78285307,N,12136.13157515,W,2,11,0.9,7.516,M,-37.740,M,4.0,0135*6F
$PYRTM,2024,124.250196890185,15.359844300324
$GNHDT,342.376,T*2C
$PYRTM,2024,124.250202618623,15.359850028762
$GNGGA,060017.50,3513.78326733,N,12136.13154175,W,2,11,0.9,8.038,M,-37.740,M,4.4,0135*62
$PYRTM,2024,124.250202618623,15.359850028762
$GNHDT,342.571,T*2D
$PYRTM,2024,124.250208459375,15.359855869514
$GNGGA,060018.00,3513.78374805,N,12136.13155535,W,2,11,0.9,8.306,M,-37.740,M,5.0,0135*6F
$PYRTM,2024,124.250208459375,15.359855869514
$GNHDT,342.948,T*2B
$PYRTM,2024,124.250214195856,15.359861605995
$GNGGA,060018.50,3513.78430234,N,12136.13153602,W,2,11,0.9,8.168,M,-37.740,M,5.4,0135*6A
$PYRTM,2024,124.250214195856,15.359861605995
$GNHDT,343.023,T*2E
$PYRTM,2024,124.250220039387,15.359867449537
$GNGGA,060019.00,3513.78487972,N,12136.13155603,W,2,11,0.9,7.804,M,-37.740,M,6.0,0135*67
$PYRTM,2024,124.250220039387,15.359867449537
$GNHDT,343.049,T*22
$PYRTM,2024,124.250225763588,15.359873173727
$GNGGA,060019.50,3513.78542633,N,12136.13161885,W,2,11,0.9,7.387,M,-37.740,M,6.4,0135*63
$PYRTM,2024,124.250225763588,15.359873173727
$GNHDT,343.186,T*20
$PYRTM,2024,124.250231611736,15.359879021875
$GNGGA,060020.00,3513.78590094,N,12136.13175644,W,2,11,0.9,7.172,M,-37.740,M,7.0,0135*63
$PYRTM,2024,124.250231611736,15.359879021875
$GNHDT,342.936,T*22
$PYRTM,2024,124.250237343646,15.359884753785
$GNGGA,060020.50,3513.78629615,N,12136.13196653,W,2,11,0.9,7.154,M,-37.740,M,7.4,0135*63
$PYRTM,2024,124.250237343646,15.359884753785
$GNHDT,343.194,T*23
$PYRTM,2024,124.250243182801,15.359890592940
$GNGGA,060021.00,3513.78665402,N,12136.13219355,W,2,11,0.9,7.297,M,-37.740,M,7.0,0135*64
$PYRTM,2024,124.250243182801,15.359890592940
$GNHDT,343.062,T*2B
$PYRTM,2024,124.250248912998,15.359896323137
$GNGGA,060021.50,3513.78700836,N,12136.13237920,W,2,11,0.9,7.515,M,-37.740,M,7.4,0135*65
$PYRTM,2024,124.250248912998,15.359896323137
$GNHDT,342.897,T*28
$PYRTM,2024,124.250254755625,15.359902165764
$GNGGA,060022.00,3513.78739926,N,12136.13244226,W,2,11,0.9,7.692,M,-37.740,M,7.0,0135*68
$PYRTM,2024,124.250254755625,15.359902165764
$GNHDT,343.046,T*2D
$PYRTM,2024,124.250260495301,15.359907905440
$GNGGA,060022.50,3513.78785688,N,12136.13241381,W,2,11,0.9,7.700,M,-37.740,M,7.4,0135*66
$PYRTM,2024,124.250260495301,15.359907905440
$GNHDT,343.297,T*23
$PYRTM,2024,124.250266337396,15.359913747535
$GNGGA,060023.00,3513.78837755,N,12136.13239792,W,2,11,0.9,7.481,M,-37.740,M,4.0,0135*61
$PYRTM,2024,124.250266337396,15.359913747535
$GNHDT,343.087,T*20
$PYRTM,2024,124.250272065544,15.359919475683
$GNGGA,060023.50,3513.78895363,N,12136.13247194,W,2,11,0.9,7.075,M,-37.740,M,4.4,0135*6F
$PYRTM,2024,124.250272065544,15.359919475683
$GNHDT,342.943,T*20
$PYRTM,2024,124.250277904664,15.359925314803
$GNGGA,060024.00,3513.78952771,N,12136.13264235,W,2,11,0.9,6.626,M,-37.740,M,5.0,0135*6D
$PYRTM,2024,124.250277904664,15.359925314803
$GNHDT,342.365,T*2E
$PYRTM,2024,124.250283638113,15.359931048252
$GNGGA,060024.50,3513.79004782,N,12136.13287616,W,2,11,0.9,6.409,M,-37.740,M,5.4,0135*6C
$PYRTM,2024,124.250283638113,15.359931048252
$GNHDT,342.439,T*20
$PYRTM,2024,124.250289479005,15.359936889144
$GNGGA,060025.00,3513.79048781,N,12136.13308584,W,2,11,0.9,6.517,M,-37.740,M,6.0,0135*64
$PYRTM,2024,124.250289479005,15.359936889144
$GNHDT,342.489,T*2B
$PYRTM,2024,124.250295217743,15.359942627882
$GNGGA,060025.50,3513.79087078,N,12136.13319499,W,2,11,0.9,6.933,M,-37.740,M,6.4,0135*60
$PYRTM,2024,124.250295217743,15.359942627882
$GNHDT,342.800,T*26
$PYRTM,2024,124.250301058692,15.359948468831
$GNGGA,060026.00,3513.79123159,N,12136.13320868,W,2,11,0.9,7.508,M,-37.740,M,7.0,0135*63
$PYRTM,2024,124.250301058692,15.359948468831
$GNHDT,343.366,T*2C
$PYRTM,2024,124.250306788762,15.359954198900
$GNGGA,060026.50,3513.79160367,N,12136.13316433,W,2,11,0.9,8.037,M,-37.740,M,7.4,0135*6B
$PYRTM,2024,124.250306788762,15.359954198900
$GNHDT,343.747,T*2B
$PYRTM,2024,124.250312629248,15.359960039375
$GNGGA,060027.00,3513.79204558,N,12136.13311943,W,2,11,0.9,8.328,M,-37.740,M,7.0,0135*60
$PYRTM,2024,124.250312629248,15.359960039375
$GNHDT,344.178,T*26
$PYRTM,2024,124.250318358299,15.359965768438
$GNGGA,060027.50,3513.79256539,N,12136.13313452,W,2,11,0.9,8.166,M,-37.740,M,7.4,0135*66
$PYRTM,2024,124.250318358299,15.359965768438
$GNHDT,344.421,T*2F
$PYRTM,2024,124.250324199317,15.359971609456
$GNGGA,060028.00,3513.79311041,N,12136.13319426,W,2,11,0.9,7.761,M,-37.740,M,7.0,0135*67
$PYRTM,2024,124.250324199317,15.359971609456
$GNHDT,344.546,T*2F
$PYRTM,2024,124.250329937662,15.359977347801
$GNGGA,060028.50,3513.79363439,N,12136.13329689,W,2,11,0.9,7.276,M,-37.740,M,7.4,0135*6F
$PYRTM,2024,124.250329937662,15.359977347801
$GNHDT,344.336,T*2E
$PYRTM,2024,124.250335773148,15.359983183299
$GNGGA,060029.00,3513.79412549,N,12136.13341376,W,2,11,0.9,6.924,M,-37.740,M,4.0,0135*6D
$PYRTM,2024,124.250335773148,15.359983183299
$GNHDT,344.292,T*21
$PYRTM,2024,124.250341509745,15.359988919896
$GNGGA,060029.50,3513.79457567,N,12136.13353228,W,2,11,0.9,6.788,M,-37.740,M,4.4,0135*60
$PYRTM,2024,124.250341509745,15.359988919896
$GNHDT,344.563,T*28
$PYRTM,2024,124.250347349664,15.359994759803
$GNGGA,060030.00,3513.79500477,N,12136.13363707,W,2,11,0.9,6.831,M,-37.740,M,5.0,0135*6D
$PYRTM,2024,124.250347349664,15.359994759803
$GNHDT,344.495,T*20
$PYRTM,2024,124.250353082280,15.360000492419
$GNGGA,060030.50,3513.79541941,N,12136.13369859,W,2,11,0.9,7.058,M,-37.740,M,5.4,0135*69
$PYRTM,2024,124.250353082280,15.360000492419
$GNHDT,344.379,T*25
$PYRTM,2024,124.250358922002,15.360006332141
$GNGGA,060031.00,3513.79581563,N,12136.13369046,W,2,11,0.9,7.424,M,-37.740,M,6.0,0135*63
$PYRTM,2024,124.250358922002,15.360006332141
$GNHDT,344.356,T*28
$PYRTM,2024,124.250364657141,15.360012067280
$GNGGA,060031.50,3513.79621379,N,12136.13364052,W,2,11,0.9,7.791,M,-37.740,M,6.4,0135*63
$PYRTM,2024,124.250364657141,15.360012067280
$GNHDT,344.627,T*2B
$PYRTM,2024,124.250370500139,15.360017910278
$GNGGA,060032.00,3513.79665312,N,12136.13358432,W,2,11,0.9,8.033,M,-37.740,M,7.0,0135*60
$PYRTM,2024,124.250370500139,15.360017910278
$GNHDT,344.891,T*28
$PYRTM,2024,124.250376230069,15.360023640208
$GNGGA,060032.50,3513.79715489,N,12136.13358847,W,2,11,0.9,7.980,M,-37.740,M,7.4,0135*62
$PYRTM,2024,124.250376230069,15.360023640208
$GNHDT,345.161,T*2F
$PYRTM,2024,124.250382071215,15.360029481366
$GNGGA,060033.00,3513.79770889,N,12136.13368033,W,2,11,0.9,7.670,M,-37.740,M,7.0,0135*65
$PYRTM,2024,124.250382071215,15.360029481366
$GNHDT,345.222,T*2B
$PYRTM,2024,124.250387805683,15.360035215822
$GNGGA,060033.50,3513.79828628,N,12136.13386270,W,2,11,0.9,7.137,M,-37.740,M,7.4,0135*62
$PYRTM,2024,124.250387805683,15.360035215822
$GNHDT,345.155,T*28
$PYRTM,2024,124.250393645671,15.360041055810
$GNGGA,060034.00,3513.79884987,N,12136.13408098,W,2,11,0.9,6.619,M,-37.740,M,7.0,0135*67
$PYRTM,2024,124.250393645671,15.360041055810
$GNHDT,345.010,T*28
$PYRTM,2024,124.250399380961,15.360046791100
$GNGGA,060034.50,3513.79933146,N,12136.13424716,W,2,11,0.9,6.498,M,-37.740,M,7.4,0135*6A
$PYRTM,2024,124.250399380961,15.360046791100
$GNHDT,344.813,T*22
$PYRTM,2024,124.250405221250,15.360052631389
$GNGGA,060035.00,3513.79970936,N,12136.13434200,W,2,11,0.9,6.765,M,-37.740,M,4.0,0135*63
$PYRTM,2024,124.250405221250,15.360052631389
$GNHDT,345.064,T*2B
$PYRTM,2024,124.250410956435,15.360058366586
$GNGGA,060035.50,3513.80002223,N,12136.13435163,W,2,11,0.9,7.308,M,-37.740,M,4.4,0135*6E
$PYRTM,2024,124.250410956435,15.360058366586
$GNHDT,345.458,T*20
$PYRTM,2024,124.250416798785,15.360064208924
$GNGGA,060036.00,3513.80032964,N,12136.13427516,W,2,11,0.9,7.979,M,-37.740,M,5.0,0135*6F
$PYRTM,2024,124.250416798785,15.360064208924
$GNHDT,346.026,T*2E
$PYRTM,2024,124.250422534792,15.360069944931
$GNGGA,060036.50,3513.80069532,N,12136.13415656,W,2,11,0.9,8.525,M,-37.740,M,5.4,0135*63
$PYRTM,2024,124.250422534792,15.360069944931
$GNHDT,346.061,T*2D
$PYRTM,2024,124.250428375116,15.360075785255
$GNGGA,060037.00,3513.80116333,N,12136.13404920,W,2,11,0.9,8.731,M,-37.740,M,6.0,0135*67
$PYRTM,2024,124.250428375116,15.360075785255
$GNHDT,346.289,T*29
$PYRTM,2024,124.250434102222,15.360081512361
$GNGGA,060037.50,3513.80173040,N,12136.13398439,W,2,11,0.9,8.472,M,-37.740,M,6.4,0135*61
$PYRTM,2024,124.250434102222,15.360081512361
$GNHDT,346.149,T*26
$PYRTM,2024,124.250439946944,15.360087357083
$GNGGA,060038.00,3513.80233233,N,12136.13397076,W,2,11,0.9,7.876,M,-37.740,M,7.0,0135*68
$PYRTM,2024,124.250439946944,15.360087357083
$GNHDT,346.212,T*2B
$PYRTM,2024,124.250445681389,15.360093091528
$GNGGA,060038.50,3513.80289752,N,12136.13404801,W,2,11,0.9,7.255,M,-37.740,M,7.4,0135*64
$PYRTM,2024,124.250445681389,15.360093091528
$GNHDT,346.115,T*2F
$PYRTM,2024,124.250451517014,15.360098927153
$GNGGA,060039.00,3513.80336884,N,12136.13421000,W,2,11,0.9,6.823,M,-37.740,M,7.0,0135*61
$PYRTM,2024,124.250451517014,15.360098927153
$GNHDT,346.032,T*2B
$PYRTM,2024,124.250457253160,15.360104663299
$GNGGA,060039.50,3513.80373218,N,12136.13441243,W,2,11,0.9,6.818,M,-37.740,M,7.4,0135*65
$PYRTM,2024,124.250457253160,15.360104663299
$GNHDT,345.479,T*23
$PYRTM,2024,124.250463093044,15.360110503194
$GNGGA,060040.00,3513.80401932,N,12136.13460751,W,2,11,0.9,7.177,M,-37.740,M,7.0,0135*6F
$PYRTM,2024,124.250463093044,15.360110503194
$GNHDT,345.413,T*2F
$PYRTM,2024,124.250468822755,15.360116232894
$GNGGA,060040.50,3513.80431397,N,12136.13478458,W,2,11,0.9,7.579,M,-37.740,M,7.4,0135*61
$PYRTM,2024,124.250468822755,15.360116232894
$GNHDT,345.052,T*2E
$PYRTM,2024,124.250474667141,15.360122077280
$GNGGA,060041.00,3513.80470148,N,12136.13488469,W,2,11,0.9,7.819,M,-37.740,M,4.0,0135*61
$PYRTM,2024,124.250474667141,15.360122077280
$GNHDT,344.501,T*2C
$PYRTM,2024,124.250480394769,15.360127804907
$GNGGA,060041.50,3513.80519701,N,12136.13489716,W,2,11,0.9,7.865,M,-37.740,M,4.4,0135*64
$PYRTM,2024,124.250480394769,15.360127804907
$GNHDT,344.249,T*27
$PYRTM,2024,124.250486241840,15.360133651979
$GNGGA,060042.00,3513.80577005,N,12136.13481691,W,2,11,0.9,7.709,M,-37.740,M,5.0,0135*6F
$PYRTM,2024,124.250486241840,15.360133651979
$GNHDT,344.260,T*2C
$PYRTM,2024,124.250491971146,15.360139381285
$GNGGA,060042.50,3513.80631496,N,12136.13472207,W,2,11,0.9,7.487,M,-37.740,M,5.4,0135*63
$PYRTM,2024,124.250491971146,15.360139381285
$GNHDT,344.103,T*2A
$PYRTM,2024,124.250497813530,15.360145223669
$GNGGA,060043.00,3513.80677413,N,12136.13464434,W,2,11,0.9,7.316,M,-37.740,M,6.0,0135*61
$PYRTM,2024,124.250497813530,15.360145223669
$GNHDT,344.360,T*2D
$PYRTM,2024,124.250503546400,15.360150956539
$GNGGA,060043.50,3513.80716110,N,12136.13455653,W,2,11,0.9,7.307,M,-37.740,M,6.4,0135*61
$PYRTM,2024,124.250503546400,15.360150956539
$GNHDT,344.536,T*28
$PYRTM,2024,124.250509387060,15.360156797199
$GNGGA,060044.00,3513.80750452,N,12136.13450855,W,2,11,0.9,7.372,M,-37.740,M,7.0,0135*68
$PYRTM,2024,124.250509387060,15.360156797199
$GNHDT,344.794,T*22
$PYRTM,2024,124.250515116771,15.360162526910
$GNGGA,060044.50,3513.80787030,N,12136.13455170,W,2,11,0.9,7.376,M,-37.740,M,7.4,0135*6C
$PYRTM,2024,124.250515116771,15.360162526910
$GNHDT,344.512,T*2E
$PYRTM,2024,124.250520967072,15.360168377211
$GNGGA,060045.00,3513.80828720,N,12136.13472504,W,2,11,0.9,7.233,M,-37.740,M,7.0,0135*62
$PYRTM,2024,124.250520967072,15.360168377211
$GNHDT,343.951,T*22
$PYRTM,2024,124.250526701215,15.360174111354
$GNGGA,060045.50,3513.80871047,N,12136.13497189,W,2,11,0.9,7.055,M,-37.740,M,7.4,0135*61
$PYRTM,2024,124.250526701215,15.360174111354
$GNHDT,343.487,T*24
$PYRTM,2024,124.250532537234,15.360179947373
$GNGGA,060046.00,3513.80908394,N,12136.13522152,W,2,11,0.9,6.948,M,-37.740,M,7.0,0135*6C
$PYRTM,2024,124.250532537234,15.360179947373
$GNHDT,343.333,T*2C
$PYRTM,2024,124.250538269282,15.360185679421
$GNGGA,060046.50,3513.80940225,N,12136.13539009,W,2,11,0.9,7.053,M,-37.740,M,7.4,0135*6D
$PYRTM,2024,124.250538269282,15.360185679421
$GNHDT,343.630,T*2A
$PYRTM,2024,124.250544117234,15.360191527373
$GNGGA,060047.00,3513.80970835,N,12136.13539266,W,2,11,0.9,7.354,M,-37.740,M,4.0,0135*69
$PYRTM,2024,124.250544117234,15.360191527373
$GNHDT,343.943,T*21
$PYRTM,2024,124.250549841794,15.360197251933
$GNGGA,060047.50,3513.81009323,N,12136.13523471,W,2,11,0.9,7.632,M,-37.740,M,4.4,0135*6C
$PYRTM,2024,124.250549841794,15.360197251933
$GNHDT,344.231,T*28
$PYRTM,2024,124.250555686389,15.360203096528
$GNGGA,060048.00,3513.81061790,N,12136.13497682,W,2,11,0.9,7.559,M,-37.740,M,5.0,0135*6F
$PYRTM,2024,124.250555686389,15.360203096528
$GNHDT,343.893,T*2D
$PYRTM,2024,124.250561423484,15.360208833623
$GNGGA,060048.50,3513.81119342,N,12136.13484429,W,2,11,0.9,7.315,M,-37.740,M,5.4,0135*64
$PYRTM,2024,124.250561423484,15.360208833623
$GNHDT,342.950,T*22
$PYRTM,2024,124.250567258796,15.360214668935
$GNGGA,060049.00,3513.81173692,N,12136.13486580,W,2,11,0.9,7.000,M,-37.740,M,6.0,0135*64
$PYRTM,2024,124.250567258796,15.360214668935
$GNHDT,343.057,T*2D
$PYRTM,2024,124.250572988727,15.360220398877
$GNGGA,060049.50,3513.81219863,N,12136.13502498,W,2,11,0.9,6.820,M,-37.740,M,6.4,0135*64
$PYRTM,2024,124.250572988727,15.360220398877
$GNHDT,342.803,T*25
$PYRTM,2024,124.250578836204,15.360226246343
$GNGGA,060050.00,3513.81255486,N,12136.13525784,W,2,11,0.9,6.889,M,-37.740,M,7.0,0135*6B
$PYRTM,2024,124.250578836204,15.360226246343
$GNHDT,343.120,T*2C
$PYRTM,2024,124.250584565058,15.360231975197
$GNGGA,060050.50,3513.81285842,N,12136.13548507,W,2,11,0.9,7.122,M,-37.740,M,7.4,0135*68
$PYRTM,2024,124.250584565058,15.360231975197
$GNHDT,343.569,T*25
$PYRTM,2024,124.250590403021,15.360237813160
$GNGGA,060051.00,3513.81315573,N,12136.13562707,W,2,11,0.9,7.461,M,-37.740,M,7.0,0135*67
$PYRTM,2024,124.250590403021,15.360237813160
$GNHDT,343.934,T*21
$PYRTM,2024,124.250596136435,15.360243546574
$GNGGA,060051.50,3513.81351821,N,12136.13563049,W,2,11,0.9,7.717,M,-37.740,M,7.4,0135*62
$PYRTM,2024,124.250596136435,15.360243546574
$GNHDT,343.996,T*29
$PYRTM,2024,124.250601977164,15.360249387303
$GNGGA,060052.00,3513.81396747,N,12136.13552638,W,2,11,0.9,7.794,M,-37.740,M,7.0,0135*6D
$PYRTM,2024,124.250601977164,15.360249387303
$GNHDT,343.538,T*21
$PYRTM,2024,124.250607715694,15.360255125833
$GNGGA,060052.50,3513.81449069,N,12136.13539875,W,2,11,0.9,7.643,M,-37.740,M,7.4,0135*63
$PYRTM,2024,124.250607715694,15.360255125833
$GNHDT,342.811,T*26
$PYRTM,2024,124.250613552222,15.360260962361
$GNGGA,060053.00,3513.81503116,N,12136.13533229,W,2,11,0.9,7.358,M,-37.740,M,4.0,0135*60
$PYRTM,2024,124.250613552222,15.360260962361
$GNHDT,342.344,T*2D
$PYRTM,2024,124.250619286771,15.360266696910
$GNGGA,060053.50,3513.81553136,N,12136.13536576,W,2,11,0.9,7.103,M,-37.740,M,4.4,0135*62
$PYRTM,2024,124.250619286771,15.360266696910
$GNHDT,341.954,T*25
$PYRTM,2024,124.250625128067,15.360272538206
$GNGGA,060054.00,3513.81596822,N,12136.13549901,W,2,11,0.9,6.966,M,-37.740,M,5.0,0135*6E
$PYRTM,2024,124.250625128067,15.360272538206
$GNHDT,341.692,T*20
$PYRTM,2024,124.250630859537,15.360278269676
$GNGGA,060054.50,3513.81635850,N,12136.13566718,W,2,11,0.9,7.002,M,-37.740,M,5.4,0135*61
$PYRTM,2024,124.250630859537,15.360278269676
$GNHDT,341.493,T*23
$PYRTM,2024,124.250636704850,15.360284114988
$GNGGA,060055.00,3513.81673046,N,12136.13581574,W,2,11,0.9,7.138,M,-37.740,M,6.0,0135*66
$PYRTM,2024,124.250636704850,15.360284114988
$GNHDT,341.576,T*29
$PYRTM,2024,124.250642437442,15.360289847581
$GNGGA,060055.50,3513.81713231,N,12136.13594265,W,2,11,0.9,7.308,M,-37.740,M,6.4,0135*60
$PYRTM,2024,124.250642437442,15.360289847581
$GNHDT,341.387,T*21
$PYRTM,2024,124.250648278252,15.360295688391
$GNGGA,060056.00,3513.81755571,N,12136.13602132,W,2,11,0.9,7.476,M,-37.740,M,7.0,0135*61
$PYRTM,2024,124.250648278252,15.360295688391
$GNHDT,341.173,T*28
$PYRTM,2024,124.250654010243,15.360301420382
$GNGGA,060056.50,3513.81799042,N,12136.13606108,W,2,11,0.9,7.564,M,-37.740,M,7.4,0135*6A
$PYRTM,2024,124.250654010243,15.360301420382
$GNHDT,340.979,T*2B
$PYRTM,2024,124.250659853565,15.360307263704
$GNGGA,060057.00,3513.81841700,N,12136.13606144,W,2,11,0.9,7.648,M,-37.739,M,7.0,0135*6A
$PYRTM,2024,124.250659853565,15.360307263704
$GNHDT,340.904,T*21
$PYRTM,2024,124.250665581748,15.360312991887
$GNGGA,060057.50,3513.81884457,N,12136.13605477,W,2,11,0.9,7.662,M,-37.739,M,7.4,0135*6D
$PYRTM,2024,124.250665581748,15.360312991887
$GNHDT,340.804,T*20
$PYRTM,2024,124.250671424595,15.360318834734
$GNGGA,060058.00,3513.81929769,N,12136.13606907,W,2,11,0.9,7.545,M,-37.739,M,7.0,0135*64
$PYRTM,2024,124.250671424595,15.360318834734
$GNHDT,340.689,T*2B
$PYRTM,2024,124.250677156076,15.360324566215
$GNGGA,060058.50,3513.81979228,N,12136.13611762,W,2,11,0.9,7.308,M,-37.739,M,7.4,0135*64
$PYRTM,2024,124.250677156076,15.360324566215
$GNHDT,340.231,T*2C
$PYRTM,2024,124.250683002326,15.360330412465
$GNGGA,060059.00,3513.82029393,N,12136.13619711,W,2,11,0.9,7.034,M,-37.739,M,4.0,0135*69
$PYRTM,2024,124.250683002326,15.360330412465
$GNHDT,339.602,T*26
$PYRTM,2024,124.250688734329,15.360336144468
$GNGGA,060059.50,3513.82075433,N,12136.13635589,W,2,11,0.9,6.856,M,-37.739,M,4.4,0135*6C
$PYRTM,2024,124.250688734329,15.360336144468
$GNHDT,339.706,T*23
$PYRTM,2024,124.250694569028,15.360341979167
$GNGGA,060100.00,3513.82113749,N,12136.13657119,W,2,11,0.9,6.927,M,-37.739,M,5.0,0135*60
$PYRTM,2024,124.250694569028,15.360341979167
$GNHDT,339.262,T*24
$PYRTM,2024,124.250700317303,15.360347727442
$GNGGA,060100.50,3513.82147105,N,12136.13675874,W,2,11,0.9,7.165,M,-37.739,M,5.4,0135*63
$PYRTM,2024,124.250700317303,15.360347727442
$GNHDT,339.235,T*26
$PYRTM,2024,124.250706149884,15.360353560023
$GNGGA,060101.00,3513.82179525,N,12136.13694731,W,2,11,0.9,7.474,M,-37.739,M,6.0,0135*6F
$PYRTM,2024,124.250706149884,15.360353560023
$GNHDT,338.858,T*26
$PYRTM,2024,124.250711884745,15.360359294884
$GNGGA,060101.50,3513.82216314,N,12136.13708611,W,2,11,0.9,7.741,M,-37.739,M,6.4,0135*62
$PYRTM,2024,124.250711884745,15.360359294884
$GNHDT,338.570,T*21
$PYRTM,2024,124.250717725463,15.360365135602
$GNGGA,060102.00,3513.82261280,N,12136.13713754,W,2,11,0.9,7.806,M,-37.739,M,7.0,0135*6B
$PYRTM,2024,124.250717725463,15.360365135602
$GNHDT,338.588,T*26
$PYRTM,2024,124.250723451563,15.360370861713
$GNGGA,060102.50,3513.82312622,N,12136.13714618,W,2,11,0.9,7.688,M,-37.739,M,7.4,0135*65
$PYRTM,2024,124.250723451563,15.360370861713
$GNHDT,338.647,T*26
$PYRTM,2024,124.250729294525,15.360376704664
$GNGGA,060103.00,3513.82366795,N,12136.13714463,W,2,11,0.9,7.407,M,-37.739,M,7.0,0135*60
$PYRTM,2024,124.250729294525,15.360376704664
$GNHDT,338.479,T*29
$PYRTM,2024,124.250735028426,15.360382438565
$GNGGA,060103.50,3513.82418452,N,12136.13721169,W,2,11,0.9,7.087,M,-37.739,M,7.4,0135*62
$PYRTM,2024,124.250735028426,15.360382438565
$GNHDT,338.716,T*23
$PYRTM,2024,124.250740870718,15.360388280868
$GNGGA,060104.00,3513.82463671,N,12136.13735894,W,2,11,0.9,6.932,M,-37.739,M,7.0,0135*63
$PYRTM,2024,124.250740870718,15.360388280868
$GNHDT,338.531,T*24
$PYRTM,2024,124.250746600914,15.360394011053
$GNGGA,060104.50,3513.82502289,N,12136.13751039,W,2,11,0.9,6.993,M,-37.739,M,7.4,0135*61
$PYRTM,2024,124.250746600914,15.360394011053
$GNHDT,338.069,T*2C
$PYRTM,2024,124.250752445556,15.360399855694
$GNGGA,060105.00,3513.82538026,N,12136.13764307,W,2,11,0.9,7.229,M,-37.739,M,4.0,0135*6F
$PYRTM,2024,124.250752445556,15.360399855694
$GNHDT,337.838,T*2F
$PYRTM,2024,124.250758175556,15.360405585706
$GNGGA,060105.50,3513.82574850,N,12136.13776310,W,2,11,0.9,7.502,M,-37.739,M,4.4,0135*64
$PYRTM,2024,124.250758175556,15.360405585706
$GNHDT,337.788,T*2B
$PYRTM,2024,124.250764018287,15.360411428426
$GNGGA,060106.00,3513.82614228,N,12136.13792806,W,2,11,0.9,7.672,M,-37.739,M,5.0,0135*65
$PYRTM,2024,124.250764018287,15.360411428426
$GNHDT,337.332,T*2E
$PYRTM,2024,124.250769748646,15.360417158785
$GNGGA,060106.50,3513.82656975,N,12136.13815461,W,2,11,0.9,7.654,M,-37.739,M,5.4,0135*68
$PYRTM,2024,124.250769748646,15.360417158785
$GNHDT,336.900,T*24
$PYRTM,2024,124.250775594039,15.360423004178
$GNGGA,060107.00,3513.82702686,N,12136.13843312,W,2,11,0.9,7.457,M,-37.739,M,6.0,0135*69
$PYRTM,2024,124.250775594039,15.360423004178
$GNHDT,336.913,T*26
$PYRTM,2024,124.250781318796,15.360428728935
$GNGGA,060107.50,3513.82750571,N,12136.13871053,W,2,11,0.9,7.167,M,-37.739,M,6.4,0135*65
$PYRTM,2024,124.250781318796,15.360428728935
$GNHDT,336.684,T*27
$PYRTM,2024,124.250787169792,15.360434579931
$GNGGA,060108.00,3513.82797936,N,12136.13892409,W,2,11,0.9,6.929,M,-37.739,M,7.0,0135*6B
$PYRTM,2024,124.250787169792,15.360434579931
$GNHDT,336.464,T*2B
$PYRTM,2024,124.250792897998,15.360440308137
$GNGGA,060108.50,3513.82844108,N,12136.13901196,W,2,11,0.9,6.894,M,-37.739,M,7.4,0135*61
$PYRTM,2024,124.250792897998,15.360440308137
$GNHDT,336.798,T*2B
$PYRTM,2024,124.250798739803,15.360446149954
$GNGGA,060109.00,3513.82889383,N,12136.13898860,W,2,11,0.9,7.027,M,-37.739,M,7.0,0135*61
$PYRTM,2024,124.250798739803,15.360446149954
$GNHDT,336.774,T*29
$PYRTM,2024,124.250804468426,15.360451878565
$GNGGA,060109.50,3513.82934341,N,12136.13892568,W,2,11,0.9,7.298,M,-37.739,M,7.4,0135*60
$PYRTM,2024,124.250804468426,15.360451878565
$GNHDT,336.656,T*28
$PYRTM,2024,124.250810317731,15.360457727870
$GNGGA,060110.00,3513.82980474,N,12136.13892674,W,2,11,0.9,7.549,M,-37.739,M,7.0,0135*62
$PYRTM,2024,124.250810317731,15.360457727870
$GNHDT,336.640,T*2F
$PYRTM,2024,124.250816047917,15.360463458056
$GNGGA,060110.50,3513.83026383,N,12136.13904555,W,2,11,0.9,7.709,M,-37.739,M,7.4,0135*60
$PYRTM,2024,124.250816047917,15.360463458056
$GNHDT,336.326,T*2A
$PYRTM,2024,124.250821886493,15.360469296632
$GNGGA,060111.00,3513.83070174,N,12136.13930576,W,2,11,0.9,7.721,M,-37.739,M,4.0,0135*66
$PYRTM,2024,124.250821886493,15.360469296632
$GNHDT,336.280,T*27
$PYRTM,2024,124.250827624109,15.360475034248
$GNGGA,060111.50,3513.83112577,N,12136.13965522,W,2,11,0.9,7.627,M,-37.739,M,4.4,0135*63
$PYRTM,2024,124.250827624109,15.360475034248
$GNHDT,336.172,T*29
$PYRTM,2024,124.250833460868,15.360480871007
$GNGGA,060112.00,3513.83154993,N,12136.14002859,W,2,11,0.9,7.427,M,-37.739,M,5.0,0135*68
$PYRTM,2024,124.250833460868,15.360480871007
$GNHDT,336.246,T*2D
$PYRTM,2024,124.250839190162,15.360486600301
$GNGGA,060112.50,3513.83198023,N,12136.14033427,W,2,11,0.9,7.243,M,-37.739,M,5.4,0135*68
$PYRTM,2024,124.250839190162,15.360486600301
$GNHDT,336.508,T*20
$PYRTM,2024,124.250845035255,15.360492445394
$GNGGA,060113.00,3513.83241575,N,12136.14049638,W,2,11,0.9,7.130,M,-37.739,M,6.0,0135*6C
$PYRTM,2024,124.250845035255,15.360492445394
$GNHDT,336.525,T*2F
$PYRTM,2024,124.250850767558,15.360498177708
$GNGGA,060113.50,3513.83284340,N,12136.14051035,W,2,11,0.9,7.144,M,-37.739,M,6.4,0135*65
$PYRTM,2024,124.250850767558,15.360498177708
$GNHDT,336.394,T*23
$PYRTM,2024,124.250856612176,15.360504022315
$GNGGA,060114.00,3513.83325965,N,12136.14043160,W,2,11,0.9,7.280,M,-37.739,M,7.0,0135*6C
$PYRTM,2024,124.250856612176,15.360504022315
$GNHDT,336.323,T*2F
$PYRTM,2024,124.250862347257,15.360509757396
$GNGGA,060114.50,3513.83367832,N,12136.14037921,W,2,11,0.9,7.424,M,-37.739,M,7.4,0135*6E
$PYRTM,2024,124.250862347257,15.360509757396
$GNHDT,336.274,T*2C
$PYRTM,2024,124.250868185961,15.360515596111
$GNGGA,060115.00,3513.83412081,N,12136.14041763,W,2,11,0.9,7.416,M,-37.739,M,7.0,0135*63
$PYRTM,2024,124.250868185961,15.360515596111
$GNHDT,336.353,T*28
$PYRTM,2024,124.250873924086,15.360521334236
$GNGGA,060115.50,3513.83460913,N,12136.14057632,W,2,11,0.9,7.192,M,-37.739,M,7.4,0135*6E
$PYRTM,2024,124.250873924086,15.360521334236
$GNHDT,336.110,T*2D
$PYRTM,2024,124.250879755810,15.360527165949
$GNGGA,060116.00,3513.83512568,N,12136.14082344,W,2,11,0.9,6.832,M,-37.739,M,7.0,0135*66
$PYRTM,2024,124.250879755810,15.360527165949
$GNHDT,336.255,T*2F
$PYRTM,2024,124.250885492836,15.360532902975
$GNGGA,060116.50,3513.83563551,N,12136.14114640,W,2,11,0.9,6.485,M,-37.739,M,7.4,0135*64
$PYRTM,2024,124.250885492836,15.360532902975
$GNHDT,336.651,T*2F
$PYRTM,2024,124.250891330556,15.360538740694
$GNGGA,060117.00,3513.83608337,N,12136.14149138,W,2,11,0.9,6.335,M,-37.739,M,4.0,0135*63
$PYRTM,2024,124.250891330556,15.360538740694
$GNHDT,336.624,T*2D
$PYRTM,2024,124.250897059965,15.360544470104
$GNGGA,060117.50,3513.83643410,N,12136.14176523,W,2,11,0.9,6.551,M,-37.739,M,4.4,0135*69
$PYRTM,2024,124.250897059965,15.360544470104
$GNHDT,336.216,T*28
$PYRTM,2024,124.250902905498,15.360550315637
$GNGGA,060118.00,3513.83670941,N,12136.14192520,W,2,11,0.9,7.034,M,-37.739,M,5.0,0135*61
$PYRTM,2024,124.250902905498,15.360550315637
$GNHDT,336.061,T*2A
$PYRTM,2024,124.250908642141,15.360556052280
$GNGGA,060118.50,3513.83696473,N,12136.14196190,W,2,11,0.9,7.631,M,-37.739,M,5.4,0135*6C
$PYRTM,2024,124.250908642141,15.360556052280
$GNHDT,336.202,T*2D
$PYRTM,2024,124.250914481979,15.360561892118
$GNGGA,060119.00,3513.83727898,N,12136.14189910,W,2,11,0.9,8.084,M,-37.739,M,6.0,0135*64
$PYRTM,2024,124.250914481979,15.360561892118
$GNHDT,336.329,T*25
$PYRTM,2024,124.250920213530,15.360567623669
$GNGGA,060119.50,3513.83771345,N,12136.14184302,W,2,11,0.9,8.172,M,-37.739,M,6.4,0135*61
$PYRTM,2024,124.250920213530,15.360567623669
$GNHDT,336.825,T*22
$PYRTM,2024,124.250926060012,15.360573470162
$GNGGA,060120.00,3513.83825362,N,12136.14184834,W,2,11,0.9,7.707,M,-37.739,M,7.0,0135*65
$PYRTM,2024,124.250926060012,15.360573470162
$GNHDT,336.939,T*2E
$PYRTM,2024,124.250931790301,15.360579200440
$GNGGA,060120.50,3513.83882290,N,12136.14194900,W,2,11,0.9,6.956,M,-37.739,M,7.4,0135*69
$PYRTM,2024,124.250931790301,15.360579200440
$GNHDT,337.049,T*21
$PYRTM,2024,124.250937628600,15.360585038738
$GNGGA,060121.00,3513.83933159,N,12136.14215386,W,2,11,0.9,6.229,M,-37.739,M,7.0,0135*69
$PYRTM,2024,124.250937628600,15.360585038738
$GNHDT,336.778,T*25
$PYRTM,2024,124.250943362847,15.360590772986
$GNGGA,060121.50,3513.83969822,N,12136.14242313,W,2,11,0.9,5.858,M,-37.739,M,7.4,0135*63
$PYRTM,2024,124.250943362847,15.360590772986
$GNHDT,336.760,T*2C
$PYRTM,2024,124.250949201308,15.360596611447
$GNGGA,060122.00,3513.83992437,N,12136.14268960,W,2,11,0.9,5.953,M,-37.739,M,7.0,0135*61
$PYRTM,2024,124.250949201308,15.360596611447
$GNHDT,336.602,T*29
$PYRTM,2024,124.250954934352,15.360602344491
$GNGGA,060122.50,3513.84008900,N,12136.14290408,W,2,11,0.9,6.392,M,-37.739,M,7.4,0135*64
$PYRTM,2024,124.250954934352,15.360602344491
$GNHDT,336.689,T*2A
$PYRTM,2024,124.250960778623,15.360608188773
$GNGGA,060123.00,3513.84027321,N,12136.14304606,W,2,11,0.9,6.928,M,-37.739,M,4.0,0135*68
$PYRTM,2024,124.250960778623,15.360608188773
$GNHDT,336.702,T*28
$PYRTM,2024,124.250966513229,15.360613923368
$GNGGA,060123.50,3513.84058179,N,12136.14315539,W,2,11,0.9,7.218,M,-37.739,M,4.4,0135*68
$PYRTM,2024,124.250966513229,15.360613923368
$GNHDT,336.727,T*2F
$PYRTM,2024,124.250972348414,15.360619758565
$GNGGA,060124.00,3513.84105574,N,12136.14327483,W,2,11,0.9,7.103,M,-37.739,M,5.0,0135*67
$PYRTM,2024,124.250972348414,15.360619758565
$GNHDT,336.697,T*25
$PYRTM,2024,124.250978086273,15.360625496412
$GNGGA,060124.50,3513.84160083,N,12136.14339826,W,2,11,0.9,6.723,M,-37.739,M,5.4,0135*61
$PYRTM,2024,124.250978086273,15.360625496412
$GNHDT,336.739,T*20
$PYRTM,2024,124.250983925185,15.360631335324
$GNGGA,060125.00,3513.84209370,N,12136.14346232,W,2,11,0.9,6.400,M,-37.739,M,6.0,0135*64
$PYRTM,2024,124.250983925185,15.360631335324
$GNHDT,336.855,T*25
$PYRTM,2024,124.250989657569,15.360637067720
$GNGGA,060125.50,3513.84246906,N,12136.14347476,W,2,11,0.9,6.329,M,-37.739,M,6.4,0135*6E
$PYRTM,2024,124.250989657569,15.360637067720
$GNHDT,336.936,T*21
$PYRTM,2024,124.250995495000,15.360642905139
$GNGGA,060126.00,3513.84271876,N,12136.14343373,W,2,11,0.9,6.624,M,-37.739,M,7.0,0135*61
$PYRTM,2024,124.250995495000,15.360642905139
$GNHDT,337.490,T*21
$PYRTM,2024,124.251001233356,15.360648643495
$GNGGA,060126.50,3513.84291335,N,12136.14338918,W,2,11,0.9,7.155,M,-37.739,M,7.4,0135*69
$PYRTM,2024,124.251001233356,15.360648643495
$GNHDT,337.937,T*21
$PYRTM,2024,124.251007072106,15.360654482245
$GNGGA,060127.00,3513.84313405,N,12136.14339286,W,2,11,0.9,7.638,M,-37.739,M,7.0,0135*67
$PYRTM,2024,124.251007072106,15.360654482245
$GNHDT,338.305,T*25
$PYRTM,2024,124.251012806215,15.360660216354
$GNGGA,060127.50,3513.84344454,N,12136.14345752,W,2,11,0.9,7.786,M,-37.739,M,7.4,0135*63
$PYRTM,2024,124.251012806215,15.360660216354
$GNHDT,338.652,T*22
$PYRTM,2024,124.251018656319,15.360666066470
$GNGGA,060128.00,3513.84384174,N,12136.14360448,W,2,11,0.9,7.565,M,-37.739,M,7.0,0135*66
$PYRTM,2024,124.251018656319,15.360666066470
$GNHDT,338.659,T*29
$PYRTM,2024,124.251024382396,15.360671792535
$GNGGA,060128.50,3513.84427571,N,12136.14380441,W,2,11,0.9,7.084,M,-37.739,M,7.4,0135*65
$PYRTM,2024,124.251024382396,15.360671792535
$GNHDT,338.490,T*2E
$PYRTM,2024,124.251030229248,15.360677639398
$GNGGA,060129.00,3513.84469740,N,12136.14400135,W,2,11,0.9,6.580,M,-37.739,M,4.0,0135*65
$PYRTM,2024,124.251030229248,15.360677639398
$GNHDT,338.686,T*2B
$PYRTM,2024,124.251035955116,15.360683365255
$GNGGA,060129.50,3513.84508163,N,12136.14414939,W,2,11,0.9,6.269,M,-37.739,M,4.4,0135*64
$PYRTM,2024,124.251035955116,15.360683365255
$GNHDT,339.055,T*22
$PYRTM,2024,124.251041795775,15.360689205914
$GNGGA,060130.00,3513.84541315,N,12136.14423071,W,2,11,0.9,6.286,M,-37.739,M,5.0,0135*62
$PYRTM,2024,124.251041795775,15.360689205914
$GNHDT,339.037,T*26
$PYRTM,2024,124.251047534803,15.360694944942
$GNGGA,060130.50,3513.84572122,N,12136.14426989,W,2,11,0.9,6.568,M,-37.739,M,5.4,0135*69
$PYRTM,2024,124.251047534803,15.360694944942
$GNHDT,338.717,T*22
$PYRTM,2024,124.251053366840,15.360700776979
$GNGGA,060131.00,3513.84602976,N,12136.14429723,W,2,11,0.9,7.033,M,-37.739,M,6.0,0135*6C
$PYRTM,2024,124.251053366840,15.360700776979
$GNHDT,338.652,T*22
$PYRTM,2024,124.251059101285,15.360706511424
$GNGGA,060131.50,3513.84636020,N,12136.14432040,W,2,11,0.9,7.458,M,-37.739,M,6.4,0135*61
$PYRTM,2024,124.251059101285,15.360706511424
$GNHDT,338.485,T*2A
$PYRTM,2024,124.251064954815,15.360712364954
$GNGGA,060132.00,3513.84673866,N,12136.14431555,W,2,11,0.9,7.681,M,-37.739,M,7.0,0135*6D
$PYRTM,2024,124.251064954815,15.360712364954
$GNHDT,338.381,T*29
$PYRTM,2024,124.251070679178,15.360718089317
$GNGGA,060132.50,3513.84712418,N,12136.14437506,W,2,11,0.9,7.723,M,-37.739,M,7.4,0135*66
$PYRTM,2024,124.251070679178,15.360718089317
$GNHDT,338.769,T*2B
$PYRTM,2024,124.251076514803,15.360723924942
$GNGGA,060133.00,3513.84751767,N,12136.14448900,W,2,11,0.9,7.483,M,-37.739,M,7.0,0135*61
$PYRTM,2024,124.251076514803,15.360723924942
$GNHDT,339.415,T*22
$PYRTM,2024,124.251082258704,15.360729668843
$GNGGA,060133.50,3513.84790927,N,12136.14465911,W,2,11,0.9,7.095,M,-37.739,M,7.4,0135*6B
$PYRTM,2024,124.251082258704,15.360729668843
$GNHDT,339.354,T*20
$PYRTM,2024,124.251088089074,15.360735499213
$GNGGA,060134.00,3513.84829822,N,12136.14488956,W,2,11,0.9,6.584,M,-37.739,M,7.0,0135*60
$PYRTM,2024,124.251088089074,15.360735499213
$GNHDT,339.224,T*26
$PYRTM,2024,124.251093824942,15.360741235081
$GNGGA,060134.50,3513.84868166,N,12136.14510092,W,2,11,0.9,6.139,M,-37.739,M,7.4,0135*6E
$PYRTM,2024,124.251093824942,15.360741235081
$GNHDT,339.389,T*20
$PYRTM,2024,124.251099665463,15.360747075602
$GNGGA,060135.00,3513.84904386,N,12136.14525512,W,2,11,0.9,5.921,M,-37.739,M,4.0,0135*63
$PYRTM,2024,124.251099665463,15.360747075602
$GNHDT,339.463,T*23
$PYRTM,2024,124.251105401076,15.360752811215
$GNGGA,060135.50,3513.84936778,N,12136.14534142,W,2,11,0.9,5.986,M,-37.739,M,4.4,0135*6A
$PYRTM,2024,124.251105401076,15.360752811215
$GNHDT,339.314,T*24
$PYRTM,2024,124.251111239479,15.360758649618
$GNGGA,060136.00,3513.84965085,N,12136.14537840,W,2,11,0.9,6.307,M,-37.739,M,5.0,0135*62
$PYRTM,2024,124.251111239479,15.360758649618
$GNHDT,339.041,T*27
$PYRTM,2024,124.251116976597,15.360764386736
$GNGGA,060136.50,3513.84990815,N,12136.14539745,W,2,11,0.9,6.775,M,-37.739,M,5.4,0135*6D
$PYRTM,2024,124.251116976597,15.360764386736
$GNHDT,338.918,T*23
$PYRTM,2024,124.251122814201,15.360770224340
$GNGGA,060137.00,3513.85016835,N,12136.14543377,W,2,11,0.9,7.241,M,-37.739,M,6.0,0135*61
$PYRTM,2024,124.251122814201,15.360770224340
$GNHDT,338.654,T*24
$PYRTM,2024,124.251128547766,15.360775957905
$GNGGA,060137.50,3513.85049881,N,12136.14549030,W,2,11,0.9,7.468,M,-37.739,M,6.4,0135*62
$PYRTM,2024,124.251128547766,15.360775957905
$GNHDT,339.269,T*2F
$PYRTM,2024,124.251134391944,15.360781802095
$GNGGA,060138.00,3513.85090689,N,12136.14556438,W,2,11,0.9,7.331,M,-37.739,M,7.0,0135*66
$PYRTM,2024,124.251134391944,15.360781802095
$GNHDT,339.619,T*2C
$PYRTM,2024,124.251140124213,15.360787534352
$GNGGA,060138.50,3513.85135104,N,12136.14568871,W,2,11,0.9,6.918,M,-37.739,M,7.4,0135*67
$PYRTM,2024,124.251140124213,15.360787534352
$GNHDT,339.573,T*23
$PYRTM,2024,124.251145960081,15.360793370220
$GNGGA,060139.00,3513.85180316,N,12136.14583461,W,2,11,0.9,6.318,M,-37.739,M,7.0,0135*6A
$PYRTM,2024,124.251145960081,15.360793370220
$GNHDT,339.502,T*25
$PYRTM,2024,124.251151699086,15.360799109225
$GNGGA,060139.50,3513.85223241,N,12136.14598994,W,2,11,0.9,5.817,M,-37.739,M,7.4,0135*68
$PYRTM,2024,124.251151699086,15.360799109225
$GNHDT,339.318,T*28
$PYRTM,2024,124.251157537025,15.360804947164
$GNGGA,060140.00,3513.85261036,N,12136.14611630,W,2,11,0.9,5.550,M,-37.739,M,7.0,0135*6E
$PYRTM,2024,124.251157537025,15.360804947164
$GNHDT,339.186,T*2D
$PYRTM,2024,124.251163269433,15.360810679572
$GNGGA,060140.50,3513.85291971,N,12136.14621383,W,2,11,0.9,5.640,M,-37.739,M,7.4,0135*66
$PYRTM,2024,124.251163269433,15.360810679572
$GNHDT,339.049,T*2F
$PYRTM,2024,124.251169113530,15.360816523669
$GNGGA,060141.00,3513.85316726,N,12136.14628011,W,2,11,0.9,6.027,M,-37.739,M,4.0,0135*62
$PYRTM,2024,124.251169113530,15.360816523669
$GNHDT,339.125,T*24
$PYRTM,2024,124.251174852072,15.360822262222
$GNGGA,060141.50,3513.85339737,N,12136.14635864,W,2,11,0.9,6.557,M,-37.739,M,4.4,0135*6A
$PYRTM,2024,124.251174852072,15.360822262222
$GNHDT,339.461,T*21
$PYRTM,2024,124.251180687500,15.360828097639
$GNGGA,060142.00,3513.85365517,N,12136.14644769,W,2,11,0.9,7.031,M,-37.739,M,5.0,0135*60
$PYRTM,2024,124.251180687500,15.360828097639
$GNHDT,339.843,T*2D
$PYRTM,2024,124.251186419907,15.360833830046
$GNGGA,060142.50,3513.85400242,N,12136.14653836,W,2,11,0.9,7.301,M,-37.739,M,5.4,0135*61
$PYRTM,2024,124.251186419907,15.360833830046
$GNHDT,339.783,T*2E
$PYRTM,2024,124.251192265833,15.360839675972
$GNGGA,060143.00,3513.85443330,N,12136.14661117,W,2,11,0.9,7.280,M,-37.739,M,6.0,0135*62
$PYRTM,2024,124.251192265833,15.360839675972
$GNHDT,339.379,T*2F
$PYRTM,2024,124.251197993669,15.360845403808
$GNGGA,060143.50,3513.85491429,N,12136.14667664,W,2,11,0.9,6.972,M,-37.739,M,6.4,0135*61
$PYRTM,2024,124.251197993669,15.360845403808
$GNHDT,339.428,T*2C
$PYRTM,2024,124.251203839039,15.360851249178
$GNGGA,060144.00,3513.85538522,N,12136.14677108,W,2,11,0.9,6.519,M,-37.739,M,7.0,0135*63
$PYRTM,2024,124.251203839039,15.360851249178
$GNHDT,339.899,T*2A
$PYRTM,2024,124.251209565961,15.360856976100
$GNGGA,060144.50,3513.85582300,N,12136.14690478,W,2,11,0.9,6.061,M,-37.739,M,7.4,0135*64
$PYRTM,2024,124.251209565961,15.360856976100
$GNHDT,339.495,T*2A
$PYRTM,2024,124.251215405741,15.360862815880
$GNGGA,060145.00,3513.85620577,N,12136.14709358,W,2,11,0.9,5.765,M,-37.739,M,7.0,0135*6D
$PYRTM,2024,124.251215405741,15.360862815880
$GNHDT,339.425,T*21
$PYRTM,2024,124.251221141910,15.360868552049
$GNGGA,060145.50,3513.85652945,N,12136.14731204,W,2,11,0.9,5.819,M,-37.739,M,7.4,0135*63
$PYRTM,2024,124.251221141910,15.360868552049
$GNHDT,339.001,T*23
$PYRTM,2024,124.251226981377,15.360874391516
$GNGGA,060146.00,3513.85680040,N,12136.14752558,W,2,11,0.9,6.081,M,-37.739,M,7.0,0135*63
$PYRTM,2024,124.251226981377,15.360874391516
$GNHDT,339.112,T*20
$PYRTM,2024,124.251232708194,15.360880118333
$GNGGA,060146.50,3513.85707339,N,12136.14768448,W,2,11,0.9,6.549,M,-37.739,M,7.4,0135*69
$PYRTM,2024,124.251232708194,15.360880118333
$GNHDT,339.088,T*22
$PYRTM,2024,124.251238553044,15.360885963183
$GNGGA,060147.00,3513.85739444,N,12136.14776838,W,2,11,0.9,6.972,M,-37.739,M,4.0,0135*6A
$PYRTM,2024,124.251238553044,15.360885963183
$GNHDT,339.065,T*21
$PYRTM,2024,124.251244291169,15.360891701308
$GNGGA,060147.50,3513.85782113,N,12136.14780297,W,2,11,0.9,7.203,M,-37.739,M,4.4,0135*66
$PYRTM,2024,124.251244291169,15.360891701308
$GNHDT,338.927,T*2F
$PYRTM,2024,124.251250130637,15.360897540775
$GNGGA,060148.00,3513.85831374,N,12136.14784460,W,2,11,0.9,7.207,M,-37.739,M,5.0,0135*63
$PYRTM,2024,124.251250130637,15.360897540775
$GNHDT,338.610,T*24
$PYRTM,2024,124.251255861516,15.360903271667
$GNGGA,060148.50,3513.85882270,N,12136.14788093,W,2,11,0.9,7.030,M,-37.739,M,5.4,0135*6D
$PYRTM,2024,124.251255861516,15.360903271667
$GNHDT,338.341,T*25
$PYRTM,2024,124.251261701262,15.360909111400
$GNGGA,060149.00,3513.85929596,N,12136.14799935,W,2,11,0.9,6.707,M,-37.739,M,6.0,0135*66
$PYRTM,2024,124.251261701262,15.360909111400
$GNHDT,338.374,T*23
$PYRTM,2024,124.251267437639,15.360914847778
$GNGGA,060149.50,3513.85970736,N,12136.14818457,W,2,11,0.9,6.406,M,-37.739,M,6.4,0135*6E
$PYRTM,2024,124.251267437639,15.360914847778
$GNHDT,338.470,T*20
$PYRTM,2024,124.251273277199,15.360920687338
$GNGGA,060150.00,3513.86005773,N,12136.14842852,W,2,11,0.9,6.237,M,-37.739,M,7.0,0135*6D
$PYRTM,2024,124.251273277199,15.360920687338
$GNHDT,338.326,T*24
$PYRTM,2024,124.251279008981,15.360926419120
$GNGGA,060150.50,3513.86036763,N,12136.14868648,W,2,11,0.9,6.177,M,-37.739,M,7.4,0135*67
$PYRTM,2024,124.251279008981,15.360926419120
$GNHDT,338.465,T*24
$PYRTM,2024,124.251284852338,15.360932262477
$GNGGA,060151.00,3513.86065637,N,12136.14889048,W,2,11,0.9,6.295,M,-37.739,M,7.0,0135*67
$PYRTM,2024,124.251284852338,15.360932262477
$GNHDT,338.666,T*25
$PYRTM,2024,124.251290582720,15.360937992859
$GNGGA,060151.50,3513.86095599,N,12136.14898345,W,2,11,0.9,6.531,M,-37.739,M,7.4,0135*69
$PYRTM,2024,124.251290582720,15.360937992859
$GNHDT,338.721,T*27
$PYRTM,2024,124.251296427812,15.360943837951
$GNGGA,060152.00,3513.86130034,N,12136.14898704,W,2,11,0.9,6.698,M,-37.739,M,7.0,0135*66
$PYRTM,2024,124.251296427812,15.360943837951
$GNHDT,338.993,T*20
$PYRTM,2024,124.251302158021,15.360949568160
$GNGGA,060152.50,3513.86172439,N,12136.14896717,W,2,11,0.9,6.689,M,-37.739,M,7.4,0135*64
$PYRTM,2024,124.251302158021,15.360949568160
$GNHDT,339.054,T*23
$PYRTM,2024,124.251308001748,15.360955411887
$GNGGA,060153.00,3513.86219375,N,12136.14897258,W,2,11,0.9,6.487,M,-37.739,M,4.0,0135*65
$PYRTM,2024,124.251308001748,15.360955411887
$GNHDT,339.030,T*21
$PYRTM,2024,124.251313735266,15.360961145405
$GNGGA,060153.50,3513.86268621,N,12136.14906392,W,2,11,0.9,6.142,M,-37.739,M,4.4,0135*64
$PYRTM,2024,124.251313735266,15.360961145405
$GNHDT,338.577,T*26
$PYRTM,2024,124.251319569630,15.360966979769
$GNGGA,060154.00,3513.86316757,N,12136.14928591,W,2,11,0.9,5.778,M,-37.739,M,5.0,0135*6E
$PYRTM,2024,124.251319569630,15.360966979769
$GNHDT,338.048,T*2F
$PYRTM,2024,124.251325312060,15.360972722199
$GNGGA,060154.50,3513.86359808,N,12136.14955591,W,2,11,0.9,5.644,M,-37.739,M,5.4,0135*65
$PYRTM,2024,124.251325312060,15.360972722199
$GNHDT,337.996,T*2A
$PYRTM,2024,124.251331149711,15.360978559850
$GNGGA,060155.00,3513.86393026,N,12136.14979447,W,2,11,0.9,5.905,M,-37.739,M,6.0,0135*6A
$PYRTM,2024,124.251331149711,15.360978559850
$GNHDT,337.956,T*26
$PYRTM,2024,124.251336876227,15.360984286366
$GNGGA,060155.50,3513.86419766,N,12136.14990636,W,2,11,0.9,6.413,M,-37.739,M,6.4,0135*67
$PYRTM,2024,124.251336876227,15.360984286366
$GNHDT,338.538,T*2D
$PYRTM,2024,124.251342725058,15.360990135197
$GNGGA,060156.00,3513.86443500,N,12136.14991940,W,2,11,0.9,7.017,M,-37.739,M,7.0,0135*67
$PYRTM,2024,124.251342725058,15.360990135197
$GNHDT,339.120,T*21
$PYRTM,2024,124.251348455347,15.360995865486
$GNGGA,060156.50,3513.86470554,N,12136.14983977,W,2,11,0.9,7.454,M,-37.739,M,7.4,0135*63
$PYRTM,2024,124.251348455347,15.360995865486
$GNHDT,339.899,T*2A
$PYRTM,2024,124.251354299711,15.361001709850
$GNGGA,060157.00,3513.86507577,N,12136.14977303,W,2,11,0.9,7.493,M,-37.739,M,7.0,0135*6A
$PYRTM,2024,124.251354299711,15.361001709850
$GNHDT,340.549,T*24
$PYRTM,2024,124.251360024861,15.361007435000
$GNGGA,060157.50,3513.86555606,N,12136.14978423,W,2,11,0.9,7.077,M,-37.739,M,7.4,0135*6D
$PYRTM,2024,124.251360024861,15.361007435000
$GNHDT,340.941,T*20
$PYRTM,2024,124.251365876563,15.361013286701
$GNGGA,060158.00,3513.86608593,N,12136.14991651,W,2,11,0.9,6.396,M,-37.739,M,7.0,0135*6A
$PYRTM,2024,124.251365876563,15.361013286701
$GNHDT,340.676,T*2B
$PYRTM,2024,124.251371607650,15.361019017789
$GNGGA,060158.50,3513.86658576,N,12136.15013767,W,2,11,0.9,5.722,M,-37.739,M,7.4,0135*6B
$PYRTM,2024,124.251371607650,15.361019017789
$GNHDT,340.311,T*2F
$PYRTM,2024,124.251377443021,15.361024853160
$GNGGA,060159.00,3513.86698915,N,12136.15036824,W,2,11,0.9,5.501,M,-37.739,M,4.0,0135*61
$PYRTM,2024,124.251377443021,15.361024853160
$GNHDT,340.108,T*25
$PYRTM,2024,124.251383178079,15.361030588229
$GNGGA,060159.50,3513.86727988,N,12136.15056363,W,2,11,0.9,5.721,M,-37.739,M,4.4,0135*6F
$PYRTM,2024,124.251383178079,15.361030588229
$GNHDT,340.297,T*20
$PYRTM,2024,124.251389026389,15.361036436539
$GNGGA,060200.00,3513.86751363,N,12136.15064776,W,2,11,0.9,6.297,M,-37.739,M,5.0,0135*64
$PYRTM,2024,124.251389026389,15.361036436539
$GNHDT,341.153,T*2A
$PYRTM,2024,124.251394750775,15.361042160914
$GNGGA,060200.50,3513.86778137,N,12136.15063155,W,2,11,0.9,6.975,M,-37.739,M,5.4,0135*6A
$PYRTM,2024,124.251394750775,15.361042160914
$GNHDT,342.217,T*2A
$PYRTM,2024,124.251400590718,15.361048000856
$GNGGA,060201.00,3513.86814982,N,12136.15053431,W,2,11,0.9,7.407,M,-37.739,M,6.0,0135*67
$PYRTM,2024,124.251400590718,15.361048000856
$GNHDT,342.838,T*2D
$PYRTM,2024,124.251406328391,15.361053738530
$GNGGA,060201.50,3513.86864007,N,12136.15039887,W,2,11,0.9,7.456,M,-37.739,M,6.4,0135*6C
$PYRTM,2024,124.251406328391,15.361053738530
$GNHDT,343.131,T*2C
$PYRTM,2024,124.251412167500,15.361059577650
$GNGGA,060202.00,3513.86916423,N,12136.15029443,W,2,11,0.9,7.281,M,-37.739,M,7.0,0135*60
$PYRTM,2024,124.251412167500,15.361059577650
$GNHDT,343.340,T*28
$PYRTM,2024,124.251417899352,15.361065309491
$GNGGA,060202.50,3513.86966848,N,12136.15024252,W,2,11,0.9,7.005,M,-37.739,M,7.4,0135*62
$PYRTM,2024,124.251417899352,15.361065309491
$GNHDT,343.130,T*2D
$PYRTM,2024,124.251423738924,15.361071149074
$GNGGA,060203.00,3513.87010244,N,12136.15033375,W,2,11,0.9,6.810,M,-37.739,M,7.0,0135*62
$PYRTM,2024,124.251423738924,15.361071149074
$GNHDT,342.920,T*25
$PYRTM,2024,124.251429477454,15.361076887593
$GNGGA,060203.50,3513.87045893,N,12136.15056648,W,2,11,0.9,6.779,M,-37.739,M,7.4,0135*6B
$PYRTM,2024,124.251429477454,15.361076887593
$GNHDT,343.195,T*22
$PYRTM,2024,124.251435317477,15.361082727616
$GNGGA,060204.00,3513.87077349,N,12136.15088002,W,2,11,0.9,6.885,M,-37.739,M,7.0,0135*67
$PYRTM,2024,124.251435317477,15.361082727616
$GNHDT,343.288,T*2D
$PYRTM,2024,124.251441047569,15.361088457708
$GNGGA,060204.50,3513.87110181,N,12136.15117012,W,2,11,0.9,6.976,M,-37.739,M,7.4,0135*6B
$PYRTM,2024,124.251441047569,15.361088457708
$GNHDT,343.189,T*2F
$PYRTM,2024,124.251446890810,15.361094300949
$GNGGA,060205.00,3513.87146379,N,12136.15131616,W,2,11,0.9,7.088,M,-37.739,M,4.0,0135*61
$PYRTM,2024,124.251446890810,15.361094300949
$GNHDT,343.203,T*2E
$PYRTM,2024,124.251452627593,15.361100037731
$GNGGA,060205.50,3513.87187566,N,12136.15127871,W,2,11,0.9,7.111,M,-37.739,M,4.4,0135*6C
$PYRTM,2024,124.251452627593,15.361100037731
$GNHDT,343.024,T*29
$PYRTM,2024,124.251458464421,15.361105874560
$GNGGA,060206.00,3513.87233695,N,12136.15115441,W,2,11,0.9,6.988,M,-37.739,M,5.0,0135*6B
$PYRTM,2024,124.251458464421,15.361105874560
$GNHDT,343.032,T*2E
$PYRTM,2024,124.251464192060,15.361111602211
$GNGGA,060206.50,3513.87281627,N,12136.15105304,W,2,11,0.9,6.743,M,-37.739,M,5.4,0135*64
$PYRTM,2024,124.251464192060,15.361111602211
$GNHDT,343.480,T*23
$PYRTM,2024,124.251470039769,15.361117449907
$GNGGA,060207.00,3513.87328659,N,12136.15106030,W,2,11,0.9,6.472,M,-37.739,M,6.0,0135*6A
$PYRTM,2024,124.251470039769,15.361117449907
$GNHDT,343.735,T*2E
$PYRTM,2024,124.251475769502,15.361123179641
$GNGGA,060207.50,3513.87372150,N,12136.15115769,W,2,11,0.9,6.287,M,-37.739,M,6.4,0135*6F
$PYRTM,2024,124.251475769502,15.361123179641
$GNHDT,343.578,T*25
$PYRTM,2024,124.251481613368,15.361129023507
$GNGGA,060208.00,3513.87410878,N,12136.15133701,W,2,11,0.9,6.262,M,-37.739,M,7.0,0135*61
$PYRTM,2024,124.251481613368,15.361129023507
$GNHDT,343.466,T*2B
$PYRTM,2024,124.251487346065,15.361134756204
$GNGGA,060208.50,3513.87447780,N,12136.15153606,W,2,11,0.9,6.427,M,-37.739,M,7.4,0135*6D
$PYRTM,2024,124.251487346065,15.361134756204
$GNHDT,343.610,T*28
$PYRTM,2024,124.251493189155,15.361140599294
$GNGGA,060209.00,3513.87485508,N,12136.15172746,W,2,11,0.9,6.694,M,-37.739,M,7.0,0135*6D
$PYRTM,2024,124.251493189155,15.361140599294
$GNHDT,343.607,T*2E
$PYRTM,2024,124.251498922477,15.361146332616
$GNGGA,060209.50,3513.87525321,N,12136.15185307,W,2,11,0.9,6.992,M,-37.739,M,7.4,0135*6A
$PYRTM,2024,124.251498922477,15.361146332616
$GNHDT,343.342,T*2A
$PYRTM,2024,124.251504753970,15.361152164109
$GNGGA,060210.00,3513.87566486,N,12136.15189377,W,2,11,0.9,7.264,M,-37.738,M,7.0,0135*67
$PYRTM,2024,124.251504753970,15.361152164109
$GNHDT,343.151,T*2A
$PYRTM,2024,124.251510488576,15.361157898715
$GNGGA,060210.50,3513.87608598,N,12136.15185177,W,2,11,0.9,7.448,M,-37.738,M,7.4,0135*65
$PYRTM,2024,124.251510488576,15.361157898715
$GNHDT,343.273,T*29
$PYRTM,2024,124.251516330683,15.361163740822
$GNGGA,060211.00,3513.87652031,N,12136.15175285,W,2,11,0.9,7.435,M,-37.738,M,4.0,0135*64
$PYRTM,2024,124.251516330683,15.361163740822
$GNHDT,343.379,T*22
$PYRTM,2024,124.251522069097,15.361169479236
$GNGGA,060211.50,3513.87697387,N,12136.15168809,W,2,11,0.9,7.296,M,-37.738,M,4.4,0135*6F
$PYRTM,2024,124.251522069097,15.361169479236
$GNHDT,343.379,T*22
$PYRTM,2024,124.251527908125,15.361175318264
$GNGGA,060212.00,3513.87743980,N,12136.15170872,W,2,11,0.9,7.023,M,-37.738,M,5.0,0135*60
$PYRTM,2024,124.251527908125,15.361175318264
$GNHDT,343.111,T*2E
$PYRTM,2024,124.251533645845,15.361181055995
$GNGGA,060212.50,3513.87790430,N,12136.15182498,W,2,11,0.9,6.720,M,-37.738,M,5.4,0135*69
$PYRTM,2024,124.251533645845,15.361181055995
$GNHDT,342.909,T*2E
$PYRTM,2024,124.251539475845,15.361186885984
$GNGGA,060213.00,3513.87836314,N,12136.15199929,W,2,11,0.9,6.451,M,-37.738,M,6.0,0135*60
$PYRTM,2024,124.251539475845,15.361186885984
$GNHDT,342.757,T*2B
$PYRTM,2024,124.251545215231,15.361192625370
$GNGGA,060213.50,3513.87882305,N,12136.15225994,W,2,11,0.9,6.287,M,-37.738,M,6.4,0135*61
$PYRTM,2024,124.251545215231,15.361192625370
$GNHDT,342.736,T*2C
$PYRTM,2024,124.251551053044,15.361198463183
$GNGGA,060214.00,3513.87926208,N,12136.15251505,W,2,11,0.9,6.301,M,-37.738,M,7.0,0135*6D
$PYRTM,2024,124.251551053044,15.361198463183
$GNHDT,342.777,T*29
$PYRTM,2024,124.251556790081,15.361204200220
$GNGGA,060214.50,3513.87967401,N,12136.15271237,W,2,11,0.9,6.481,M,-37.738,M,7.4,0135*6D
$PYRTM,2024,124.251556790081,15.361204200220
$GNHDT,342.868,T*28
$PYRTM,2024,124.251562634595,15.361210044734
$GNGGA,060215.00,3513.88007181,N,12136.15281113,W,2,11,0.9,6.770,M,-37.738,M,7.0,0135*67
$PYRTM,2024,124.251562634595,15.361210044734
$GNHDT,343.032,T*2E
$PYRTM,2024,124.251568366632,15.361215776771
$GNGGA,060215.50,3513.88048193,N,12136.15284526,W,2,11,0.9,7.119,M,-37.738,M,7.4,0135*61
$PYRTM,2024,124.251568366632,15.361215776771
$GNHDT,342.963,T*22
$PYRTM,2024,124.251574202025,15.361221612164
$GNGGA,060216.00,3513.88091660,N,12136.15282538,W,2,11,0.9,7.399,M,-37.738,M,7.0,0135*6F
$PYRTM,2024,124.251574202025,15.361221612164
$GNHDT,342.671,T*2E
$PYRTM,2024,124.251579935069,15.361227345208
$GNGGA,060216.50,3513.88138005,N,12136.15277029,W,2,11,0.9,7.582,M,-37.738,M,7.4,0135*6A
$PYRTM,2024,124.251579935069,15.361227345208
$GNHDT,342.628,T*22
$PYRTM,2024,124.251585773403,15.361233183553
$GNGGA,060217.00,3513.88185708,N,12136.15270148,W,2,11,0.9,7.610,M,-37.738,M,4.0,0135*6C
$PYRTM,2024,124.251585773403,15.361233183553
$GNHDT,342.529,T*20
$PYRTM,2024,124.251591515162,15.361238925301
$GNGGA,060217.50,3513.88233117,N,12136.15266704,W,2,11,0.9,7.510,M,-37.738,M,4.4,0135*61
$PYRTM,2024,124.251591515162,15.361238925301
$GNHDT,342.248,T*20
$PYRTM,2024,124.251597349757,15.361244759896
$GNGGA,060218.00,3513.88280355,N,12136.15275160,W,2,11,0.9,7.251,M,-37.738,M,5.0,0135*66
$PYRTM,2024,124.251597349757,15.361244759896
$GNHDT,342.114,T*2A
$PYRTM,2024,124.251603085382,15.361250495521
$GNGGA,060218.50,3513.88327109,N,12136.15300585,W,2,11,0.9,6.918,M,-37.738,M,5.4,0135*6B
$PYRTM,2024,124.251603085382,15.361250495521
$GNHDT,341.990,T*2D
$PYRTM,2024,124.251608935949,15.361256346088
$GNGGA,060219.00,3513.88373782,N,12136.15336933,W,2,11,0.9,6.549,M,-37.738,M,6.0,0135*60
$PYRTM,2024,124.251608935949,15.361256346088
$GNHDT,341.493,T*23
$PYRTM,2024,124.251614657731,15.361262067870
$GNGGA,060219.50,3513.88419186,N,12136.15371489,W,2,11,0.9,6.301,M,-37.738,M,6.4,0135*6D
$PYRTM,2024,124.251614657731,15.361262067870
$GNHDT,341.795,T*26
$PYRTM,2024,124.251620501574,15.361267911713
$GNGGA,060220.00,3513.88462463,N,12136.15397657,W,2,11,0.9,6.325,M,-37.738,M,7.0,0135*6A
$PYRTM,2024,124.251620501574,15.361267911713
$GNHDT,341.603,T*28
$PYRTM,2024,124.251626234560,15.361273644699
$GNGGA,060220.50,3513.88503780,N,12136.15409499,W,2,11,0.9,6.549,M,-37.738,M,7.4,0135*6F
$PYRTM,2024,124.251626234560,15.361273644699
$GNHDT,341.674,T*28
$PYRTM,2024,124.251632080509,15.361279490660
$GNGGA,060221.00,3513.88545122,N,12136.15409687,W,2,11,0.9,6.920,M,-37.738,M,7.0,0135*6D
$PYRTM,2024,124.251632080509,15.361279490660
$GNHDT,341.686,T*25
$PYRTM,2024,124.251637804514,15.361285214653
$GNGGA,060221.50,3513.88589319,N,12136.15403477,W,2,11,0.9,7.296,M,-37.738,M,7.4,0135*66
$PYRTM,2024,124.251637804514,15.361285214653
$GNHDT,341.143,T*2B
$PYRTM,2024,124.251643648241,15.361291058380
$GNGGA,060222.00,3513.88636637,N,12136.15396034,W,2,11,0.9,7.565,M,-37.738,M,7.0,0135*69
$PYRTM,2024,124.251643648241,15.361291058380
$GNHDT,341.042,T*2B
$PYRTM,2024,124.251649378611,15.361296788750
$GNGGA,060222.50,3513.88686127,N,12136.15392911,W,2,11,0.9,7.626,M,-37.738,M,7.4,0135*6B
$PYRTM,2024,124.251649378611,15.361296788750
$GNHDT,340.949,T*28
$PYRTM,2024,124.251655223947,15.361302634097
$GNGGA,060223.00,3513.88736036,N,12136.15395841,W,2,11,0.9,7.482,M,-37.738,M,4.0,0135*6C
$PYRTM,2024,124.251655223947,15.361302634097
$GNHDT,341.047,T*2E
$PYRTM,2024,124.251660954919,15.361308365069
$GNGGA,060223.50,3513.88785056,N,12136.15409123,W,2,11,0.9,7.214,M,-37.738,M,4.4,0135*65
$PYRTM,2024,124.251660954919,15.361308365069
$GNHDT,340.944,T*25
$PYRTM,2024,124.251666794479,15.361314204630
$GNGGA,060224.00,3513.88831028,N,12136.15427929,W,2,11,0.9,6.913,M,-37.738,M,5.0,0135*68
$PYRTM,2024,124.251666794479,15.361314204630
$GNHDT,340.910,T*24
$PYRTM,2024,124.251672528854,15.361319938993
$GNGGA,060224.50,3513.88875269,N,12136.15453703,W,2,11,0.9,6.685,M,-37.738,M,5.4,0135*6B
$PYRTM,2024,124.251672528854,15.361319938993
$GNHDT,340.745,T*2A
$PYRTM,2024,124.251678371447,15.361325781586
$GNGGA,060225.00,3513.88918029,N,12136.15483008,W,2,11,0.9,6.576,M,-37.738,M,6.0,0135*6A
$PYRTM,2024,124.251678371447,15.361325781586
$GNHDT,340.304,T*2B
$PYRTM,2024,124.251684104329,15.361331514479
$GNGGA,060225.50,3513.88958486,N,12136.15510843,W,2,11,0.9,6.599,M,-37.738,M,6.4,0135*63
$PYRTM,2024,124.251684104329,15.361331514479
$GNHDT,339.669,T*2B
$PYRTM,2024,124.251689946563,15.361337356701
$GNGGA,060226.00,3513.88997689,N,12136.15535052,W,2,11,0.9,6.743,M,-37.738,M,7.0,0135*64
$PYRTM,2024,124.251689946563,15.361337356701
$GNHDT,339.123,T*22
$PYRTM,2024,124.251695676620,15.361343086759
$GNGGA,060226.50,3513.89037062,N,12136.15551172,W,2,11,0.9,6.939,M,-37.738,M,7.4,0135*66
$PYRTM,2024,124.251695676620,15.361343086759
$GNHDT,339.550,T*22
$PYRTM,2024,124.251701525116,15.361348935255
$GNGGA,060227.00,3513.89080512,N,12136.15559966,W,2,11,0.9,7.153,M,-37.738,M,7.0,0135*68
$PYRTM,2024,124.251701525116,15.361348935255
$GNHDT,339.268,T*2E
$PYRTM,2024,124.251707253461,15.361354663600
$GNGGA,060227.50,3513.89129224,N,12136.15562425,W,2,11,0.9,7.253,M,-37.738,M,7.4,0135*68
$PYRTM,2024,124.251707253461,15.361354663600
$GNHDT,339.410,T*27
$PYRTM,2024,124.251713091354,15.361360501493
$GNGGA,060228.00,3513.89181477,N,12136.15563247,W,2,11,0.9,7.265,M,-37.738,M,7.0,0135*62
$PYRTM,2024,124.251713091354,15.361360501493
$GNHDT,339.331,T*23
$PYRTM,2024,124.251718825266,15.361366235405
$GNGGA,060228.50,3513.89233871,N,12136.15564483,W,2,11,0.9,7.218,M,-37.738,M,7.4,0135*60
$PYRTM,2024,124.251718825266,15.361366235405
$GNHDT,339.319,T*29
$PYRTM,2024,124.251724664410,15.361372074549
