$PYRTM,2024,125.083333428623,16.192980838762
$GNGGA,020000.00,3510.46703493,N,12138.39076701,W,2,10,1.0,6.662,M,-37.973,M,5.0,0131*62
$PYRTM,2024,125.083333428623,16.192980838762
$GNHDT,267.213,T*28
$PYRTM,2024,125.083339167859,16.192986577998
$GNGGA,020000.50,3510.46675897,N,12138.39198845,W,2,10,1.0,7.017,M,-37.973,M,5.4,0131*60
$PYRTM,2024,125.083339167859,16.192986577998
$GNHDT,266.825,T*26
$PYRTM,2024,125.083345000660,16.192992410799
$GNGGA,020001.00,3510.46655128,N,12138.39330618,W,2,10,1.0,6.971,M,-37.973,M,6.0,0131*62
$PYRTM,2024,125.083345000660,16.192992410799
$GNHDT,266.988,T*20
$PYRTM,2024,125.083350739745,16.192998149884
$GNGGA,020001.50,3510.46646294,N,12138.39460653,W,2,10,1.0,6.660,M,-37.973,M,6.4,0131*67
$PYRTM,2024,125.083350739745,16.192998149884
$GNHDT,266.761,T*29
$PYRTM,2024,125.083356574132,16.193003984271
$GNGGA,020002.00,3510.46647273,N,12138.39584325,W,2,10,1.0,6.293,M,-37.974,M,7.0,0131*6C
$PYRTM,2024,125.083356574132,16.193003984271
$GNHDT,266.646,T*2D
$PYRTM,2024,125.083362308380,16.193009718519
$GNGGA,020002.50,3510.46653932,N,12138.39700183,W,2,10,1.0,6.055,M,-37.974,M,7.4,0131*6E
$PYRTM,2024,125.083362308380,16.193009718519
$GNHDT,266.641,T*2A
$PYRTM,2024,125.083368145729,16.193015555868
$GNGGA,020003.00,3510.46662739,N,12138.39811529,W,2,10,1.0,5.972,M,-37.974,M,7.0,0131*6D
$PYRTM,2024,125.083368145729,16.193015555868
$GNHDT,266.748,T*22
$PYRTM,2024,125.083373888981,16.193021299120
$GNGGA,020003.50,3510.46668130,N,12138.39924364,W,2,10,1.0,6.017,M,-37.974,M,7.4,0131*68
$PYRTM,2024,125.083373888981,16.193021299120
$GNHDT,266.693,T*25
$PYRTM,2024,125.083379723495,16.193027133634
$GNGGA,020004.00,3510.46666487,N,12138.40042225,W,2,10,1.0,6.076,M,-37.974,M,7.0,0131*6D
$PYRTM,2024,125.083379723495,16.193027133634
$GNHDT,266.927,T*25
$PYRTM,2024,125.083385461632,16.193032871771
$GNGGA,020004.50,3510.46655030,N,12138.40164909,W,2,10,1.0,6.125,M,-37.974,M,7.4,0131*63
$PYRTM,2024,125.083385461632,16.193032871771
$GNHDT,266.863,T*24
$PYRTM,2024,125.083391297535,16.193038707685
$GNGGA,020005.00,3510.46634229,N,12138.40291681,W,2,10,1.0,6.104,M,-37.974,M,4.0,0131*68
$PYRTM,2024,125.083391297535,16.193038707685
$GNHDT,266.934,T*27
$PYRTM,2024,125.083397031215,16.193044441354
$GNGGA,020005.50,3510.46609577,N,12138.40419257,W,2,10,1.0,5.986,M,-37.974,M,4.4,0131*63
$PYRTM,2024,125.083397031215,16.193044441354
$GNHDT,266.986,T*2E
$PYRTM,2024,125.083402869340,16.193050279479
$GNGGA,020006.00,3510.46586382,N,12138.40543406,W,2,10,1.0,5.831,M,-37.974,M,5.0,0131*69
$PYRTM,2024,125.083402869340,16.193050279479
$GNHDT,267.027,T*2D
$PYRTM,2024,125.083408606991,16.193056017130
$GNGGA,020006.50,3510.46572974,N,12138.40661312,W,2,10,1.0,5.787,M,-37.974,M,5.4,0131*63
$PYRTM,2024,125.083408606991,16.193056017130
$GNHDT,267.065,T*2B
$PYRTM,2024,125.083414446794,16.193061856933
$GNGGA,020007.00,3510.46569268,N,12138.40774228,W,2,10,1.0,5.874,M,-37.974,M,6.0,0131*62
$PYRTM,2024,125.083414446794,16.193061856933
$GNHDT,267.442,T*2A
$PYRTM,2024,125.083420181563,16.193067591701
$GNGGA,020007.50,3510.46572616,N,12138.40886103,W,2,10,1.0,6.026,M,-37.974,M,6.4,0131*60
$PYRTM,2024,125.083420181563,16.193067591701
$GNHDT,267.632,T*2F
$PYRTM,2024,125.083426021968,16.193073432106
$GNGGA,020008.00,3510.46578205,N,12138.41003817,W,2,10,1.0,6.108,M,-37.974,M,7.0,0131*66
$PYRTM,2024,125.083426021968,16.193073432106
$GNHDT,267.537,T*29
$PYRTM,2024,125.083431757025,16.193079167164
$GNGGA,020008.50,3510.46582546,N,12138.41130476,W,2,10,1.0,6.030,M,-37.974,M,7.4,0131*62
$PYRTM,2024,125.083431757025,16.193079167164
$GNHDT,267.553,T*2B
$PYRTM,2024,125.083437589086,16.193084999236
$GNGGA,020009.00,3510.46581948,N,12138.41261580,W,2,10,1.0,5.793,M,-37.975,M,7.0,0131*60
$PYRTM,2024,125.083437589086,16.193084999236
$GNHDT,267.396,T*24
$PYRTM,2024,125.083443330058,16.193090740197
$GNGGA,020009.50,3510.46574118,N,12138.41389869,W,2,10,1.0,5.594,M,-37.975,M,7.4,0131*6E
$PYRTM,2024,125.083443330058,16.193090740197
$GNHDT,267.748,T*23
$PYRTM,2024,125.083449169444,16.193096579583
$GNGGA,020010.00,3510.46556842,N,12138.41510440,W,2,10,1.0,5.579,M,-37.975,M,7.0,0131*63
$PYRTM,2024,125.083449169444,16.193096579583
$GNHDT,267.552,T*2A
$PYRTM,2024,125.083454906539,16.193102316678
$GNGGA,020010.50,3510.46534272,N,12138.41625083,W,2,10,1.0,5.774,M,-37.975,M,7.4,0131*6E
$PYRTM,2024,125.083454906539,16.193102316678
$GNHDT,267.394,T*26
$PYRTM,2024,125.083460739201,16.193108149340
$GNGGA,020011.00,3510.46512651,N,12138.41738353,W,2,10,1.0,6.056,M,-37.975,M,4.0,0131*6B
$PYRTM,2024,125.083460739201,16.193108149340
$GNHDT,267.815,T*24
$PYRTM,2024,125.083466477292,16.193113887431
$GNGGA,020011.50,3510.46499040,N,12138.41856006,W,2,10,1.0,6.289,M,-37.975,M,4.4,0131*6A
$PYRTM,2024,125.083466477292,16.193113887431
$GNHDT,267.716,T*28
$PYRTM,2024,125.083472313310,16.193119723449
$GNGGA,020012.00,3510.46495578,N,12138.41978919,W,2,10,1.0,6.352,M,-37.975,M,5.0,0131*66
$PYRTM,2024,125.083472313310,16.193119723449
$GNHDT,267.872,T*25
$PYRTM,2024,125.083478058657,16.193125468808
$GNGGA,020012.50,3510.46497387,N,12138.42105371,W,2,10,1.0,6.301,M,-37.975,M,5.4,0131*60
$PYRTM,2024,125.083478058657,16.193125468808
$GNHDT,268.135,T*20
$PYRTM,2024,125.083483891296,16.193131301435
$GNGGA,020013.00,3510.46499052,N,12138.42232629,W,2,10,1.0,6.172,M,-37.975,M,6.0,0131*6F
$PYRTM,2024,125.083483891296,16.193131301435
$GNHDT,267.881,T*29
$PYRTM,2024,125.083489623542,16.193137033681
$GNGGA,020013.50,3510.46497960,N,12138.42356686,W,2,10,1.0,6.023,M,-37.975,M,6.4,0131*6B
$PYRTM,2024,125.083489623542,16.193137033681
$GNHDT,267.766,T*2F
$PYRTM,2024,125.083495462002,16.193142872141
$GNGGA,020014.00,3510.46492492,N,12138.42477702,W,2,10,1.0,5.936,M,-37.975,M,7.0,0131*6E
$PYRTM,2024,125.083495462002,16.193142872141
$GNHDT,267.686,T*20
$PYRTM,2024,125.083501205347,16.193148615486
$GNGGA,020014.50,3510.46482586,N,12138.42596851,W,2,10,1.0,5.971,M,-37.975,M,7.4,0131*6E
$PYRTM,2024,125.083501205347,16.193148615486
$GNHDT,267.634,T*29
$PYRTM,2024,125.083507041539,16.193154451678
$GNGGA,020015.00,3510.46470438,N,12138.42714699,W,2,10,1.0,6.067,M,-37.975,M,7.0,0131*68
$PYRTM,2024,125.083507041539,16.193154451678
$GNHDT,267.685,T*23
$PYRTM,2024,125.083512776678,16.193160186817
$GNGGA,020015.50,3510.46459426,N,12138.42833424,W,2,10,1.0,6.204,M,-37.975,M,7.4,0131*64
$PYRTM,2024,125.083512776678,16.193160186817
$GNHDT,267.489,T*2D
$PYRTM,2024,125.083518609688,16.193166019838
$GNGGA,020016.00,3510.46451786,N,12138.42954070,W,2,10,1.0,6.266,M,-37.975,M,7.0,0131*66
$PYRTM,2024,125.083518609688,16.193166019838
$GNHDT,267.737,T*2B
$PYRTM,2024,125.083524348160,16.193171758299
$GNGGA,020016.50,3510.46447217,N,12138.43079989,W,2,10,1.0,6.194,M,-37.976,M,7.4,0131*68
$PYRTM,2024,125.083524348160,16.193171758299
$GNHDT,267.745,T*2E
$PYRTM,2024,125.083530182569,16.193177592708
$GNGGA,020017.00,3510.46444423,N,12138.43207188,W,2,10,1.0,6.044,M,-37.976,M,4.0,0131*67
$PYRTM,2024,125.083530182569,16.193177592708
$GNHDT,267.812,T*23
$PYRTM,2024,125.083535921829,16.193183331968
$GNGGA,020017.50,3510.46441610,N,12138.43332896,W,2,10,1.0,5.888,M,-37.976,M,4.4,0131*6B
$PYRTM,2024,125.083535921829,16.193183331968
$GNHDT,267.819,T*28
$PYRTM,2024,125.083541758403,16.193189168542
$GNGGA,020018.00,3510.46436474,N,12138.43454825,W,2,10,1.0,5.855,M,-37.976,M,5.0,0131*6B
$PYRTM,2024,125.083541758403,16.193189168542
$GNHDT,267.884,T*2C
$PYRTM,2024,125.083547494444,16.193194904595
$GNGGA,020018.50,3510.46427645,N,12138.43574309,W,2,10,1.0,5.945,M,-37.976,M,5.4,0131*6C
$PYRTM,2024,125.083547494444,16.193194904595
$GNHDT,267.702,T*2D
$PYRTM,2024,125.083553330579,16.193200740718
$GNGGA,020019.00,3510.46417107,N,12138.43692880,W,2,10,1.0,6.111,M,-37.976,M,6.0,0131*66
$PYRTM,2024,125.083553330579,16.193200740718
$GNHDT,267.851,T*24
$PYRTM,2024,125.083559069248,16.193206479398
$GNGGA,020019.50,3510.46408934,N,12138.43813851,W,2,10,1.0,6.184,M,-37.976,M,6.4,0131*66
$PYRTM,2024,125.083559069248,16.193206479398
$GNHDT,267.327,T*2E
$PYRTM,2024,125.083564908958,16.193212319109
$GNGGA,020020.00,3510.46404255,N,12138.43939463,W,2,10,1.0,6.106,M,-37.976,M,7.0,0131*62
$PYRTM,2024,125.083564908958,16.193212319109
$GNHDT,267.290,T*23
$PYRTM,2024,125.083570649155,16.193218059294
$GNGGA,020020.50,3510.46401182,N,12138.44068170,W,2,10,1.0,5.911,M,-37.976,M,7.4,0131*6F
$PYRTM,2024,125.083570649155,16.193218059294
$GNHDT,267.653,T*28
$PYRTM,2024,125.083576482025,16.193223892164
$GNGGA,020021.00,3510.46398371,N,12138.44197605,W,2,10,1.0,5.638,M,-37.976,M,7.0,0131*66
$PYRTM,2024,125.083576482025,16.193223892164
$GNHDT,267.520,T*2F
$PYRTM,2024,125.083582219248,16.193229629398
$GNGGA,020021.50,3510.46393466,N,12138.44327794,W,2,10,1.0,5.398,M,-37.976,M,7.4,0131*62
$PYRTM,2024,125.083582219248,16.193229629398
$GNHDT,267.207,T*2D
$PYRTM,2024,125.083588053889,16.193235464028
$GNGGA,020022.00,3510.46384356,N,12138.44456754,W,2,10,1.0,5.297,M,-37.976,M,7.0,0131*61
$PYRTM,2024,125.083588053889,16.193235464028
$GNHDT,267.031,T*2A
$PYRTM,2024,125.083593793391,16.193241203542
$GNGGA,020022.50,3510.46370727,N,12138.44583254,W,2,10,1.0,5.384,M,-37.976,M,7.4,0131*66
$PYRTM,2024,125.083593793391,16.193241203542
$GNHDT,267.156,T*2A
$PYRTM,2024,125.083599630706,16.193247040845
$GNGGA,020023.00,3510.46354537,N,12138.44706623,W,2,10,1.0,5.621,M,-37.976,M,4.0,0131*61
$PYRTM,2024,125.083599630706,16.193247040845
$GNHDT,267.313,T*29
$PYRTM,2024,125.083605372454,16.193252782593
$GNGGA,020023.50,3510.46339592,N,12138.44826063,W,2,10,1.0,5.970,M,-37.977,M,4.4,0131*61
$PYRTM,2024,125.083605372454,16.193252782593
$GNHDT,267.527,T*28
$PYRTM,2024,125.083611203461,16.193258613600
$GNGGA,020024.00,3510.46328422,N,12138.44945126,W,2,10,1.0,6.284,M,-37.977,M,5.0,0131*6B
$PYRTM,2024,125.083611203461,16.193258613600
$GNHDT,267.650,T*2B
$PYRTM,2024,125.083616939421,16.193264349560
$GNGGA,020024.50,3510.46322567,N,12138.45069961,W,2,10,1.0,6.380,M,-37.977,M,5.4,0131*68
$PYRTM,2024,125.083616939421,16.193264349560
$GNHDT,266.827,T*24
$PYRTM,2024,125.083622780312,16.193270190451
$GNGGA,020025.00,3510.46321580,N,12138.45204978,W,2,10,1.0,6.128,M,-37.977,M,6.0,0131*60
$PYRTM,2024,125.083622780312,16.193270190451
$GNHDT,266.518,T*25
$PYRTM,2024,125.083628517535,16.193275927674
$GNGGA,020025.50,3510.46321105,N,12138.45344665,W,2,10,1.0,5.679,M,-37.977,M,6.4,0131*6E
$PYRTM,2024,125.083628517535,16.193275927674
$GNHDT,266.701,T*2F
$PYRTM,2024,125.083634352361,16.193281762500
$GNGGA,020026.00,3510.46317081,N,12138.45482603,W,2,10,1.0,5.250,M,-37.977,M,7.0,0131*67
$PYRTM,2024,125.083634352361,16.193281762500
$GNHDT,267.008,T*20
$PYRTM,2024,125.083640090949,16.193287501088
$GNGGA,020026.50,3510.46309073,N,12138.45611676,W,2,10,1.0,5.101,M,-37.977,M,7.4,0131*69
$PYRTM,2024,125.083640090949,16.193287501088
$GNHDT,266.744,T*2E
$PYRTM,2024,125.083645928380,16.193293338519
$GNGGA,020027.00,3510.46298432,N,12138.45731207,W,2,10,1.0,5.352,M,-37.977,M,7.0,0131*64
$PYRTM,2024,125.083645928380,16.193293338519
$GNHDT,267.182,T*23
$PYRTM,2024,125.083651664664,16.193299074815
$GNGGA,020027.50,3510.46287620,N,12138.45842470,W,2,10,1.0,5.907,M,-37.977,M,7.4,0131*6D
$PYRTM,2024,125.083651664664,16.193299074815
$GNHDT,266.948,T*2C
$PYRTM,2024,125.083657502535,16.193304912674
$GNGGA,020028.00,3510.46275132,N,12138.45953336,W,2,10,1.0,6.596,M,-37.977,M,7.0,0131*69
$PYRTM,2024,125.083657502535,16.193304912674
$GNHDT,266.720,T*2C
$PYRTM,2024,125.083663236632,16.193310646782
$GNGGA,020028.50,3510.46257303,N,12138.46069328,W,2,10,1.0,7.188,M,-37.977,M,7.4,0131*6E
$PYRTM,2024,125.083663236632,16.193310646782
$GNHDT,266.419,T*25
$PYRTM,2024,125.083669076910,16.193316487049
$GNGGA,020029.00,3510.46233544,N,12138.46197526,W,2,10,1.0,7.397,M,-37.977,M,4.0,0131*6E
$PYRTM,2024,125.083669076910,16.193316487049
$GNHDT,266.377,T*2A
$PYRTM,2024,125.083674813252,16.193322223391
$GNGGA,020029.50,3510.46212309,N,12138.46332893,W,2,10,1.0,7.168,M,-37.977,M,4.4,0131*6F
$PYRTM,2024,125.083674813252,16.193322223391
$GNHDT,266.514,T*29
$PYRTM,2024,125.083680651111,16.193328061250
$GNGGA,020030.00,3510.46201854,N,12138.46468076,W,2,10,1.0,6.544,M,-37.977,M,5.0,0131*66
$PYRTM,2024,125.083680651111,16.193328061250
$GNHDT,266.815,T*25
$PYRTM,2024,125.083686386655,16.193333796794
$GNGGA,020030.50,3510.46205120,N,12138.46594167,W,2,10,1.0,5.849,M,-37.978,M,5.4,0131*66
$PYRTM,2024,125.083686386655,16.193333796794
$GNHDT,267.339,T*21
$PYRTM,2024,125.083692223657,16.193339633796
$GNGGA,020031.00,3510.46215870,N,12138.46714392,W,2,10,1.0,5.288,M,-37.978,M,6.0,0131*6D
$PYRTM,2024,125.083692223657,16.193339633796
$GNHDT,267.656,T*2D
$PYRTM,2024,125.083697960671,16.193345370810
$GNGGA,020031.50,3510.46226634,N,12138.46831735,W,2,10,1.0,5.035,M,-37.978,M,6.4,0131*67
$PYRTM,2024,125.083697960671,16.193345370810
$GNHDT,267.962,T*25
$PYRTM,2024,125.083703799745,16.193351209884
$GNGGA,020032.00,3510.46229648,N,12138.46951490,W,2,10,1.0,5.124,M,-37.978,M,7.0,0131*6A
$PYRTM,2024,125.083703799745,16.193351209884
$GNHDT,268.245,T*24
$PYRTM,2024,125.083709535706,16.193356945845
$GNGGA,020032.50,3510.46222168,N,12138.47073028,W,2,10,1.0,5.523,M,-37.978,M,7.4,0131*69
$PYRTM,2024,125.083709535706,16.193356945845
$GNHDT,268.589,T*23
$PYRTM,2024,125.083715374931,16.193362785069
$GNGGA,020033.00,3510.46201704,N,12138.47193764,W,2,10,1.0,6.108,M,-37.978,M,7.0,0131*6A
$PYRTM,2024,125.083715374931,16.193362785069
$GNHDT,268.647,T*22
$PYRTM,2024,125.083721108924,16.193368519062
$GNGGA,020033.50,3510.46173441,N,12138.47311368,W,2,10,1.0,6.754,M,-37.978,M,7.4,0131*60
$PYRTM,2024,125.083721108924,16.193368519062
$GNHDT,268.803,T*2C
$PYRTM,2024,125.083726948137,16.193374358275
$GNGGA,020034.00,3510.46144075,N,12138.47429562,W,2,10,1.0,7.267,M,-37.978,M,7.0,0131*65
$PYRTM,2024,125.083726948137,16.193374358275
$GNHDT,268.680,T*29
$PYRTM,2024,125.083732680475,16.193380090613
$GNGGA,020034.50,3510.46123340,N,12138.47553252,W,2,10,1.0,7.354,M,-37.978,M,7.4,0131*69
$PYRTM,2024,125.083732680475,16.193380090613
$GNHDT,268.331,T*26
$PYRTM,2024,125.083738521308,16.193385931447
$GNGGA,020035.00,3510.46116588,N,12138.47684571,W,2,10,1.0,6.987,M,-37.979,M,4.0,0131*65
$PYRTM,2024,125.083738521308,16.193385931447
$GNHDT,268.531,T*20
$PYRTM,2024,125.083744264329,16.193391674468
$GNGGA,020035.50,3510.46121643,N,12138.47819121,W,2,10,1.0,6.253,M,-37.979,M,4.4,0131*6D
$PYRTM,2024,125.083744264329,16.193391674468
$GNHDT,268.532,T*23
$PYRTM,2024,125.083750093681,16.193397503819
$GNGGA,020036.00,3510.46134048,N,12138.47951078,W,2,10,1.0,5.442,M,-37.979,M,5.0,0131*62
$PYRTM,2024,125.083750093681,16.193397503819
$GNHDT,268.444,T*23
$PYRTM,2024,125.083755835220,16.193403245359
$GNGGA,020036.50,3510.46148213,N,12138.48075941,W,2,10,1.0,4.825,M,-37.979,M,5.4,0131*6B
$PYRTM,2024,125.083755835220,16.193403245359
$GNHDT,268.409,T*2A
$PYRTM,2024,125.083761669606,16.193409079745
$GNGGA,020037.00,3510.46157366,N,12138.48191322,W,2,10,1.0,4.725,M,-37.979,M,6.0,0131*6E
$PYRTM,2024,125.083761669606,16.193409079745
$GNHDT,268.389,T*25
$PYRTM,2024,125.083767407477,16.193414817616
$GNGGA,020037.50,3510.46154857,N,12138.48299321,W,2,10,1.0,5.147,M,-37.979,M,6.4,0131*6E
$PYRTM,2024,125.083767407477,16.193414817616
$GNHDT,268.918,T*27
$PYRTM,2024,125.083773241204,16.193420651343
$GNGGA,020038.00,3510.46141027,N,12138.48406592,W,2,10,1.0,5.939,M,-37.979,M,7.0,0131*65
$PYRTM,2024,125.083773241204,16.193420651343
$GNHDT,268.715,T*24
$PYRTM,2024,125.083778984213,16.193426394352
$GNGGA,020038.50,3510.46118633,N,12138.48519295,W,2,10,1.0,6.726,M,-37.979,M,7.4,0131*67
$PYRTM,2024,125.083778984213,16.193426394352
$GNHDT,268.795,T*2C
$PYRTM,2024,125.083784813785,16.193432223924
$GNGGA,020039.00,3510.46094137,N,12138.48642219,W,2,10,1.0,7.237,M,-37.979,M,7.0,0131*6C
$PYRTM,2024,125.083784813785,16.193432223924
$GNHDT,268.577,T*22
$PYRTM,2024,125.083790559259,16.193437969398
$GNGGA,020039.50,3510.46071394,N,12138.48776389,W,2,10,1.0,7.250,M,-37.979,M,7.4,0131*62
$PYRTM,2024,125.083790559259,16.193437969398
$GNHDT,268.023,T*26
$PYRTM,2024,125.083796395833,16.193443805972
$GNGGA,020040.00,3510.46057473,N,12138.48913475,W,2,10,1.0,6.785,M,-37.979,M,7.0,0131*62
$PYRTM,2024,125.083796395833,16.193443805972
$GNHDT,267.965,T*22
$PYRTM,2024,125.083802125498,16.193449535637
$GNGGA,020040.50,3510.46056016,N,12138.49045647,W,2,10,1.0,6.143,M,-37.979,M,7.4,0131*61
$PYRTM,2024,125.083802125498,16.193449535637
$GNHDT,268.133,T*26
$PYRTM,2024,125.083807959005,16.193455369144
$GNGGA,020041.00,3510.46065031,N,12138.49168786,W,2,10,1.0,5.618,M,-37.979,M,4.0,0131*6F
$PYRTM,2024,125.083807959005,16.193455369144
$GNHDT,267.974,T*22
$PYRTM,2024,125.083813704560,16.193461114711
$GNGGA,020041.50,3510.46078260,N,12138.49281486,W,2,10,1.0,5.424,M,-37.979,M,4.4,0131*6E
$PYRTM,2024,125.083813704560,16.193461114711
$GNHDT,267.889,T*21
$PYRTM,2024,125.083819540521,16.193466950660
$GNGGA,020042.00,3510.46088021,N,12138.49387286,W,2,10,1.0,5.623,M,-37.979,M,5.0,0131*61
$PYRTM,2024,125.083819540521,16.193466950660
$GNHDT,267.855,T*20
$PYRTM,2024,125.083825279606,16.193472689745
$GNGGA,020042.50,3510.46088311,N,12138.49493766,W,2,10,1.0,6.151,M,-37.980,M,5.4,0131*6E
$PYRTM,2024,125.083825279606,16.193472689745
$GNHDT,267.721,T*2C
$PYRTM,2024,125.083831110405,16.193478520544
$GNGGA,020043.00,3510.46080036,N,12138.49606166,W,2,10,1.0,6.660,M,-37.980,M,6.0,0131*6E
$PYRTM,2024,125.083831110405,16.193478520544
$GNHDT,267.794,T*22
$PYRTM,2024,125.083836851632,16.193484261771
$GNGGA,020043.50,3510.46065794,N,12138.49727710,W,2,10,1.0,7.003,M,-37.980,M,6.4,0131*6C
$PYRTM,2024,125.083836851632,16.193484261771
$GNHDT,267.835,T*26
$PYRTM,2024,125.083842683495,16.193490093634
$GNGGA,020044.00,3510.46049848,N,12138.49856137,W,2,10,1.0,7.027,M,-37.980,M,7.0,0131*67
$PYRTM,2024,125.083842683495,16.193490093634
$GNHDT,268.043,T*20
$PYRTM,2024,125.083848424363,16.193495834502
$GNGGA,020044.50,3510.46034821,N,12138.49987457,W,2,10,1.0,6.797,M,-37.980,M,7.4,0131*60
$PYRTM,2024,125.083848424363,16.193495834502
$GNHDT,267.852,T*27
$PYRTM,2024,125.083854257905,16.193501668044
$GNGGA,020045.00,3510.46024209,N,12138.50115684,W,2,10,1.0,6.467,M,-37.980,M,7.0,0131*6A
$PYRTM,2024,125.083854257905,16.193501668044
$GNHDT,267.823,T*21
$PYRTM,2024,125.083859998495,16.193507408646
$GNGGA,020045.50,3510.46018069,N,12138.50237479,W,2,10,1.0,6.214,M,-37.980,M,7.4,0131*61
$PYRTM,2024,125.083859998495,16.193507408646
$GNHDT,267.828,T*2A
$PYRTM,2024,125.083865833530,16.193513243669
$GNGGA,020046.00,3510.46016827,N,12138.50352508,W,2,10,1.0,6.120,M,-37.980,M,7.0,0131*6E
$PYRTM,2024,125.083865833530,16.193513243669
$GNHDT,267.785,T*22
$PYRTM,2024,125.083871572581,16.193518982731
$GNGGA,020046.50,3510.46019970,N,12138.50462777,W,2,10,1.0,6.218,M,-37.980,M,7.4,0131*65
$PYRTM,2024,125.083871572581,16.193518982731
$GNHDT,268.021,T*24
$PYRTM,2024,125.083877404132,16.193524814271
$GNGGA,020047.00,3510.46026893,N,12138.50573762,W,2,10,1.0,6.370,M,-37.980,M,4.0,0131*6C
$PYRTM,2024,125.083877404132,16.193524814271
$GNHDT,268.224,T*23
$PYRTM,2024,125.083883144653,16.193530554792
$GNGGA,020047.50,3510.46033107,N,12138.50689024,W,2,10,1.0,6.479,M,-37.980,M,4.4,0131*60
$PYRTM,2024,125.083883144653,16.193530554792
$GNHDT,267.780,T*27
$PYRTM,2024,125.083888980984,16.193536391123
$GNGGA,020048.00,3510.46034175,N,12138.50811629,W,2,10,1.0,6.474,M,-37.980,M,5.0,0131*64
$PYRTM,2024,125.083888980984,16.193536391123
$GNHDT,267.652,T*29
$PYRTM,2024,125.083894720174,16.193542130313
$GNGGA,020048.50,3510.46026771,N,12138.50939361,W,2,10,1.0,6.341,M,-37.980,M,5.4,0131*67
$PYRTM,2024,125.083894720174,16.193542130313
$GNHDT,267.630,T*2D
$PYRTM,2024,125.083900556493,16.193547966632
$GNGGA,020049.00,3510.46010270,N,12138.51066655,W,2,10,1.0,6.210,M,-37.980,M,6.0,0131*60
$PYRTM,2024,125.083900556493,16.193547966632
$GNHDT,267.645,T*2F
$PYRTM,2024,125.083906294595,16.193553704734
$GNGGA,020049.50,3510.45991845,N,12138.51190641,W,2,10,1.0,6.114,M,-37.980,M,6.4,0131*64
$PYRTM,2024,125.083906294595,16.193553704734
$GNHDT,268.056,T*24
$PYRTM,2024,125.083912126157,16.193559536296
$GNGGA,020050.00,3510.45977492,N,12138.51311235,W,2,10,1.0,6.079,M,-37.981,M,7.0,0131*65
$PYRTM,2024,125.083912126157,16.193559536296
$GNHDT,268.505,T*27
$PYRTM,2024,125.083917868067,16.193565278206
$GNGGA,020050.50,3510.45973815,N,12138.51428917,W,2,10,1.0,6.068,M,-37.981,M,7.4,0131*65
$PYRTM,2024,125.083917868067,16.193565278206
$GNHDT,268.326,T*20
$PYRTM,2024,125.083923699815,16.193571109954
$GNGGA,020051.00,3510.45978504,N,12138.51545555,W,2,10,1.0,6.102,M,-37.981,M,7.0,0131*6E
$PYRTM,2024,125.083923699815,16.193571109954
$GNHDT,268.503,T*21
$PYRTM,2024,125.083929438981,16.193576849120
$GNGGA,020051.50,3510.45983636,N,12138.51663808,W,2,10,1.0,6.163,M,-37.981,M,7.4,0131*6C
$PYRTM,2024,125.083929438981,16.193576849120
$GNHDT,268.137,T*22
$PYRTM,2024,125.083935276123,16.193582686262
$GNGGA,020052.00,3510.45982937,N,12138.51783338,W,2,10,1.0,6.245,M,-37.981,M,7.0,0131*61
$PYRTM,2024,125.083935276123,16.193582686262
$GNHDT,267.979,T*2F
$PYRTM,2024,125.083941012199,16.193588422338
$GNGGA,020052.50,3510.45974033,N,12138.51903518,W,2,10,1.0,6.346,M,-37.981,M,7.4,0131*64
$PYRTM,2024,125.083941012199,16.193588422338
$GNHDT,268.211,T*25
$PYRTM,2024,125.083946849722,16.193594259861
$GNGGA,020053.00,3510.45960339,N,12138.52025720,W,2,10,1.0,6.389,M,-37.981,M,4.0,0131*6F
$PYRTM,2024,125.083946849722,16.193594259861
$GNHDT,268.140,T*22
$PYRTM,2024,125.083952590683,16.193600000822
$GNGGA,020053.50,3510.45948199,N,12138.52151806,W,2,10,1.0,6.292,M,-37.981,M,4.4,0131*6E
$PYRTM,2024,125.083952590683,16.193600000822
$GNHDT,268.090,T*2E
$PYRTM,2024,125.083958423565,16.193605833704
$GNGGA,020054.00,3510.45941138,N,12138.52280482,W,2,10,1.0,6.061,M,-37.981,M,5.0,0131*6A
$PYRTM,2024,125.083958423565,16.193605833704
$GNHDT,268.360,T*22
$PYRTM,2024,125.083964163368,16.193611573507
$GNGGA,020054.50,3510.45938491,N,12138.52407195,W,2,10,1.0,5.836,M,-37.981,M,5.4,0131*60
$PYRTM,2024,125.083964163368,16.193611573507
$GNHDT,268.142,T*20
$PYRTM,2024,125.083969999479,16.193617409618
$GNGGA,020055.00,3510.45937623,N,12138.52529413,W,2,10,1.0,5.773,M,-37.981,M,6.0,0131*6F
$PYRTM,2024,125.083969999479,16.193617409618
$GNHDT,268.007,T*20
$PYRTM,2024,125.083975737234,16.193623147373
$GNGGA,020055.50,3510.45935941,N,12138.52648262,W,2,10,1.0,5.906,M,-37.981,M,6.4,0131*6F
$PYRTM,2024,125.083975737234,16.193623147373
$GNHDT,267.826,T*24
$PYRTM,2024,125.083981570185,16.193628980324
$GNGGA,020056.00,3510.45932382,N,12138.52764928,W,2,10,1.0,6.192,M,-37.981,M,7.0,0131*62
$PYRTM,2024,125.083981570185,16.193628980324
$GNHDT,267.794,T*22
$PYRTM,2024,125.083987314468,16.193634724606
$GNGGA,020056.50,3510.45923652,N,12138.52883520,W,2,10,1.0,6.515,M,-37.981,M,7.4,0131*62
$PYRTM,2024,125.083987314468,16.193634724606
$GNHDT,267.637,T*2A
$PYRTM,2024,125.083993146782,16.193640556933
$GNGGA,020057.00,3510.45910036,N,12138.53005449,W,2,10,1.0,6.778,M,-37.982,M,7.0,0131*65
$PYRTM,2024,125.083993146782,16.193640556933
$GNHDT,267.272,T*2F
$PYRTM,2024,125.083998886875,16.193646297014
$GNGGA,020057.50,3510.45896025,N,12138.53130309,W,2,10,1.0,6.859,M,-37.982,M,7.4,0131*61
$PYRTM,2024,125.083998886875,16.193646297014
$GNHDT,267.193,T*23
$PYRTM,2024,125.084004723924,16.193652134062
$GNGGA,020058.00,3510.45885157,N,12138.53258908,W,2,10,1.0,6.747,M,-37.982,M,7.0,0131*6F
$PYRTM,2024,125.084004723924,16.193652134062
$GNHDT,266.956,T*23
$PYRTM,2024,125.084010459560,16.193657869699
$GNGGA,020058.50,3510.45880533,N,12138.53388820,W,2,10,1.0,6.442,M,-37.982,M,7.4,0131*6C
$PYRTM,2024,125.084010459560,16.193657869699
$GNHDT,267.441,T*29
$PYRTM,2024,125.084016292234,16.193663702373
$GNGGA,020059.00,3510.45882180,N,12138.53517749,W,2,10,1.0,6.105,M,-37.982,M,4.0,0131*67
$PYRTM,2024,125.084016292234,16.193663702373
$GNHDT,267.602,T*2C
$PYRTM,2024,125.084022036794,16.193669446933
$GNGGA,020059.50,3510.45885891,N,12138.53640834,W,2,10,1.0,5.959,M,-37.982,M,4.4,0131*6E
$PYRTM,2024,125.084022036794,16.193669446933
$GNHDT,267.754,T*2E
$PYRTM,2024,125.084027875868,16.193675286007
$GNGGA,020100.00,3510.45886456,N,12138.53759281,W,2,10,1.0,6.062,M,-37.982,M,5.0,0131*68
$PYRTM,2024,125.084027875868,16.193675286007
$GNHDT,267.566,T*2D
$PYRTM,2024,125.084033609248,16.193681019398
$GNGGA,020100.50,3510.45881446,N,12138.53876673,W,2,10,1.0,6.371,M,-37.982,M,5.4,0131*65
$PYRTM,2024,125.084033609248,16.193681019398
$GNHDT,267.498,T*2D
$PYRTM,2024,125.084039444745,16.193686854884
$GNGGA,020101.00,3510.45869525,N,12138.53996742,W,2,10,1.0,6.734,M,-37.982,M,6.0,0131*6D
$PYRTM,2024,125.084039444745,16.193686854884
$GNHDT,267.265,T*29
$PYRTM,2024,125.084045181505,16.193692591644
$GNGGA,020101.50,3510.45851953,N,12138.54123221,W,2,10,1.0,6.973,M,-37.982,M,6.4,0131*66
$PYRTM,2024,125.084045181505,16.193692591644
$GNHDT,266.789,T*2F
$PYRTM,2024,125.084051015093,16.193698425231
$GNGGA,020102.00,3510.45833360,N,12138.54254445,W,2,10,1.0,7.007,M,-37.982,M,7.0,0131*67
$PYRTM,2024,125.084051015093,16.193698425231
$GNHDT,266.679,T*21
$PYRTM,2024,125.084056758715,16.193704168866
$GNGGA,020102.50,3510.45818707,N,12138.54386010,W,2,10,1.0,6.882,M,-37.982,M,7.4,0131*64
$PYRTM,2024,125.084056758715,16.193704168866
$GNHDT,267.167,T*28
$PYRTM,2024,125.084062590486,16.193710000625
$GNGGA,020103.00,3510.45811262,N,12138.54514963,W,2,10,1.0,6.630,M,-37.982,M,7.0,0131*6C
$PYRTM,2024,125.084062590486,16.193710000625
$GNHDT,267.232,T*2B
$PYRTM,2024,125.084068330127,16.193715740266
$GNGGA,020103.50,3510.45810156,N,12138.54641236,W,2,10,1.0,6.353,M,-37.982,M,7.4,0131*60
$PYRTM,2024,125.084068330127,16.193715740266
$GNHDT,266.990,T*29
$PYRTM,2024,125.084074166725,16.193721576863
$GNGGA,020104.00,3510.45811851,N,12138.54765348,W,2,10,1.0,6.145,M,-37.983,M,7.0,0131*62
$PYRTM,2024,125.084074166725,16.193721576863
$GNHDT,266.971,T*26
$PYRTM,2024,125.084079905775,16.193727315914
$GNGGA,020104.50,3510.45811990,N,12138.54888084,W,2,10,1.0,6.048,M,-37.983,M,7.4,0131*6C
$PYRTM,2024,125.084079905775,16.193727315914
$GNHDT,267.013,T*2A
$PYRTM,2024,125.084085738681,16.193733148819
$GNGGA,020105.00,3510.45809215,N,12138.55009302,W,2,10,1.0,6.087,M,-37.983,M,4.0,0131*6E
$PYRTM,2024,125.084085738681,16.193733148819
$GNHDT,267.065,T*2B
$PYRTM,2024,125.084091480683,16.193738890822
$GNGGA,020105.50,3510.45802753,N,12138.55131615,W,2,10,1.0,6.225,M,-37.983,M,4.4,0131*60
$PYRTM,2024,125.084091480683,16.193738890822
$GNHDT,267.602,T*2C
$PYRTM,2024,125.084097315671,16.193744725810
$GNGGA,020106.00,3510.45790506,N,12138.55253121,W,2,10,1.0,6.442,M,-37.983,M,5.0,0131*65
$PYRTM,2024,125.084097315671,16.193744725810
$GNHDT,267.516,T*2A
$PYRTM,2024,125.084103051343,16.193750461493
$GNGGA,020106.50,3510.45773870,N,12138.55374518,W,2,10,1.0,6.679,M,-37.983,M,5.4,0131*65
$PYRTM,2024,125.084103051343,16.193750461493
$GNHDT,267.468,T*22
$PYRTM,2024,125.084108888044,16.193756298194
$GNGGA,020107.00,3510.45755899,N,12138.55498630,W,2,10,1.0,6.833,M,-37.983,M,6.0,0131*69
$PYRTM,2024,125.084108888044,16.193756298194
$GNHDT,267.253,T*2C
$PYRTM,2024,125.084114628530,16.193762038669
$GNGGA,020107.50,3510.45741048,N,12138.55627537,W,2,10,1.0,6.800,M,-37.983,M,6.4,0131*6B
$PYRTM,2024,125.084114628530,16.193762038669
$GNHDT,267.038,T*23
$PYRTM,2024,125.084120467558,16.193767877697
$GNGGA,020108.00,3510.45731882,N,12138.55759156,W,2,10,1.0,6.571,M,-37.983,M,7.0,0131*6D
$PYRTM,2024,125.084120467558,16.193767877697
$GNHDT,267.018,T*21
$PYRTM,2024,125.084126202060,16.193773612199
$GNGGA,020108.50,3510.45728298,N,12138.55891046,W,2,10,1.0,6.267,M,-37.983,M,7.4,0131*6E
$PYRTM,2024,125.084126202060,16.193773612199
$GNHDT,267.716,T*28
$PYRTM,2024,125.084132037118,16.193779447257
$GNGGA,020109.00,3510.45728931,N,12138.56020550,W,2,10,1.0,5.990,M,-37.983,M,7.0,0131*65
$PYRTM,2024,125.084132037118,16.193779447257
$GNHDT,267.498,T*2D
$PYRTM,2024,125.084137772824,16.193785182975
$GNGGA,020109.50,3510.45730239,N,12138.56144951,W,2,10,1.0,5.916,M,-37.983,M,7.4,0131*6E
$PYRTM,2024,125.084137772824,16.193785182975
$GNHDT,267.671,T*28
$PYRTM,2024,125.084143614630,16.193791024769
$GNGGA,020110.00,3510.45728182,N,12138.56265785,W,2,10,1.0,6.091,M,-37.983,M,7.0,0131*6F
$PYRTM,2024,125.084143614630,16.193791024769
$GNHDT,267.438,T*27
$PYRTM,2024,125.084149351968,16.193796762106
$GNGGA,020110.50,3510.45721921,N,12138.56384938,W,2,10,1.0,6.423,M,-37.983,M,7.4,0131*6D
$PYRTM,2024,125.084149351968,16.193796762106
$GNHDT,267.119,T*21
$PYRTM,2024,125.084155181771,16.193802591910
$GNGGA,020111.00,3510.45711005,N,12138.56507141,W,2,10,1.0,6.809,M,-37.984,M,4.0,0131*6A
$PYRTM,2024,125.084155181771,16.193802591910
$GNHDT,267.173,T*2D
$PYRTM,2024,125.084160925150,16.193808335289
$GNGGA,020111.50,3510.45697448,N,12138.56634151,W,2,10,1.0,7.076,M,-37.984,M,4.4,0131*6A
$PYRTM,2024,125.084160925150,16.193808335289
$GNHDT,267.057,T*2A
$PYRTM,2024,125.084166761458,16.193814171597
$GNGGA,020112.00,3510.45683205,N,12138.56765549,W,2,10,1.0,7.153,M,-37.984,M,5.0,0131*6D
$PYRTM,2024,125.084166761458,16.193814171597
$GNHDT,267.422,T*2C
$PYRTM,2024,125.084172495012,16.193819905150
$GNGGA,020112.50,3510.45672353,N,12138.56897769,W,2,10,1.0,7.054,M,-37.984,M,5.4,0131*64
$PYRTM,2024,125.084172495012,16.193819905150
$GNHDT,267.350,T*2E
$PYRTM,2024,125.084178333090,16.193825743229
$GNGGA,020113.00,3510.45664245,N,12138.57028912,W,2,10,1.0,6.843,M,-37.984,M,6.0,0131*66
$PYRTM,2024,125.084178333090,16.193825743229
$GNHDT,267.276,T*2B
$PYRTM,2024,125.084184068681,16.193831478819
$GNGGA,020113.50,3510.45660405,N,12138.57160443,W,2,10,1.0,6.584,M,-37.984,M,6.4,0131*63
$PYRTM,2024,125.084184068681,16.193831478819
$GNHDT,267.190,T*20
$PYRTM,2024,125.084189906748,16.193837316887
$GNGGA,020114.00,3510.45659621,N,12138.57292090,W,2,10,1.0,6.324,M,-37.984,M,7.0,0131*62
$PYRTM,2024,125.084189906748,16.193837316887
$GNHDT,267.006,T*2E
$PYRTM,2024,125.084195645914,16.193843056053
$GNGGA,020114.50,3510.45658074,N,12138.57419739,W,2,10,1.0,6.181,M,-37.984,M,7.4,0131*68
$PYRTM,2024,125.084195645914,16.193843056053
$GNHDT,267.092,T*23
$PYRTM,2024,125.084201483472,16.193848893611
$GNGGA,020115.00,3510.45655860,N,12138.57545769,W,2,10,1.0,6.138,M,-37.984,M,7.0,0131*67
$PYRTM,2024,125.084201483472,16.193848893611
$GNHDT,267.059,T*24
$PYRTM,2024,125.084207219294,16.193854629433
$GNGGA,020115.50,3510.45649504,N,12138.57667326,W,2,10,1.0,6.257,M,-37.984,M,7.4,0131*62
$PYRTM,2024,125.084207219294,16.193854629433
$GNHDT,267.291,T*22
$PYRTM,2024,125.084213055984,16.193860466134
$GNGGA,020116.00,3510.45640068,N,12138.57788760,W,2,10,1.0,6.420,M,-37.984,M,7.0,0131*66
$PYRTM,2024,125.084213055984,16.193860466134
$GNHDT,267.110,T*28
$PYRTM,2024,125.084218793056,16.193866203194
$GNGGA,020116.50,3510.45629988,N,12138.57916927,W,2,10,1.0,6.493,M,-37.984,M,7.4,0131*63
$PYRTM,2024,125.084218793056,16.193866203194
$GNHDT,267.062,T*2C
$PYRTM,2024,125.084224627512,16.193872037650
$GNGGA,020117.00,3510.45620322,N,12138.58052889,W,2,10,1.0,6.342,M,-37.984,M,4.0,0131*6B
$PYRTM,2024,125.084224627512,16.193872037650
$GNHDT,267.032,T*29
$PYRTM,2024,125.084230368102,16.193877778241
$GNGGA,020117.50,3510.45611354,N,12138.58191227,W,2,10,1.0,6.119,M,-37.984,M,4.4,0131*65
$PYRTM,2024,125.084230368102,16.193877778241
$GNHDT,266.964,T*22
$PYRTM,2024,125.084236202176,16.193883612315
$GNGGA,020118.00,3510.45600397,N,12138.58322644,W,2,10,1.0,6.002,M,-37.985,M,5.0,0131*64
$PYRTM,2024,125.084236202176,16.193883612315
$GNHDT,266.625,T*28
$PYRTM,2024,125.084241942118,16.193889352257
$GNGGA,020118.50,3510.45588430,N,12138.58442468,W,2,10,1.0,6.162,M,-37.985,M,5.4,0131*66
$PYRTM,2024,125.084241942118,16.193889352257
$GNHDT,266.560,T*2A
$PYRTM,2024,125.084247777905,16.193895188044
$GNGGA,020119.00,3510.45575968,N,12138.58555532,W,2,10,1.0,6.515,M,-37.985,M,6.0,0131*6A
$PYRTM,2024,125.084247777905,16.193895188044
$GNHDT,266.343,T*2D
$PYRTM,2024,125.084253517361,16.193900927500
$GNGGA,020119.50,3510.45563762,N,12138.58668104,W,2,10,1.0,6.921,M,-37.985,M,6.4,0131*6F
$PYRTM,2024,125.084253517361,16.193900927500
$GNHDT,266.243,T*2C
$PYRTM,2024,125.084259351053,16.193906761192
$GNGGA,020120.00,3510.45550449,N,12138.58791134,W,2,10,1.0,7.102,M,-37.985,M,7.0,0131*63
$PYRTM,2024,125.084259351053,16.193906761192
$GNHDT,266.005,T*2C
$PYRTM,2024,125.084265096481,16.193912506620
$GNGGA,020120.50,3510.45536346,N,12138.58925356,W,2,10,1.0,6.916,M,-37.985,M,7.4,0131*61
$PYRTM,2024,125.084265096481,16.193912506620
$GNHDT,265.819,T*2A
$PYRTM,2024,125.084270927674,16.193918337812
$GNGGA,020121.00,3510.45525978,N,12138.59065056,W,2,10,1.0,6.350,M,-37.985,M,7.0,0131*63
$PYRTM,2024,125.084270927674,16.193918337812
$GNHDT,266.229,T*20
$PYRTM,2024,125.084276660451,16.193924070590
$GNGGA,020121.50,3510.45521696,N,12138.59203667,W,2,10,1.0,5.725,M,-37.985,M,7.4,0131*6A
$PYRTM,2024,125.084276660451,16.193924070590
$GNHDT,266.602,T*2D
$PYRTM,2024,125.084282500984,16.193929911123
$GNGGA,020122.00,3510.45522036,N,12138.59332571,W,2,10,1.0,5.304,M,-37.985,M,7.0,0131*67
$PYRTM,2024,125.084282500984,16.193929911123
$GNHDT,266.896,T*2E
$PYRTM,2024,125.084288235370,16.193935645509
$GNGGA,020122.50,3510.45521288,N,12138.59448089,W,2,10,1.0,5.360,M,-37.985,M,7.4,0131*68
$PYRTM,2024,125.084288235370,16.193935645509
$GNHDT,266.808,T*29
$PYRTM,2024,125.084294080463,16.193941490602
$GNGGA,020123.00,3510.45512989,N,12138.59553385,W,2,10,1.0,5.901,M,-37.985,M,4.0,0131*68
$PYRTM,2024,125.084294080463,16.193941490602
$GNHDT,266.464,T*2F
$PYRTM,2024,125.084299822593,16.193947232731
$GNGGA,020123.50,3510.45495248,N,12138.59657952,W,2,10,1.0,6.686,M,-37.985,M,4.4,0131*65
$PYRTM,2024,125.084299822593,16.193947232731
$GNHDT,266.755,T*2E
$PYRTM,2024,125.084305648634,16.193953058773
$GNGGA,020124.00,3510.45471729,N,12138.59768590,W,2,10,1.0,7.389,M,-37.985,M,5.0,0131*6E
$PYRTM,2024,125.084305648634,16.193953058773
$GNHDT,266.210,T*2A
$PYRTM,2024,125.084311386979,16.193958797118
$GNGGA,020124.50,3510.45447608,N,12138.59894262,W,2,10,1.0,7.639,M,-37.985,M,5.4,0131*60
$PYRTM,2024,125.084311386979,16.193958797118
$GNHDT,265.991,T*2B
$PYRTM,2024,125.084317226968,16.193964637106
$GNGGA,020125.00,3510.45427994,N,12138.60028940,W,2,10,1.0,7.396,M,-37.986,M,6.0,0131*62
$PYRTM,2024,125.084317226968,16.193964637106
$GNHDT,266.033,T*29
$PYRTM,2024,125.084322960266,16.193970370405
$GNGGA,020125.50,3510.45416024,N,12138.60163642,W,2,10,1.0,6.806,M,-37.986,M,6.4,0131*63
$PYRTM,2024,125.084322960266,16.193970370405
$GNHDT,266.420,T*2F
$PYRTM,2024,125.084328797014,16.193976207153
$GNGGA,020126.00,3510.45409944,N,12138.60289507,W,2,10,1.0,6.208,M,-37.986,M,7.0,0131*60
$PYRTM,2024,125.084328797014,16.193976207153
$GNHDT,266.620,T*2D
$PYRTM,2024,125.084334533750,16.193981943900
$GNGGA,020126.50,3510.45407067,N,12138.60406204,W,2,10,1.0,5.859,M,-37.986,M,7.4,0131*6F
$PYRTM,2024,125.084334533750,16.193981943900
$GNHDT,266.865,T*22
$PYRTM,2024,125.084340374641,16.193987784780
$GNGGA,020127.00,3510.45405791,N,12138.60514350,W,2,10,1.0,5.890,M,-37.986,M,7.0,0131*64
$PYRTM,2024,125.084340374641,16.193987784780
$GNHDT,267.182,T*23
$PYRTM,2024,125.084346109039,16.193993519178
$GNGGA,020127.50,3510.45404566,N,12138.60620243,W,2,10,1.0,6.172,M,-37.986,M,7.4,0131*6F
$PYRTM,2024,125.084346109039,16.193993519178
$GNHDT,267.150,T*2C
$PYRTM,2024,125.084351943924,16.193999354074
$GNGGA,020128.00,3510.45402109,N,12138.60728738,W,2,10,1.0,6.530,M,-37.986,M,7.0,0131*68
$PYRTM,2024,125.084351943924,16.193999354074
$GNHDT,267.054,T*29
$PYRTM,2024,125.084357680984,16.194005091123
$GNGGA,020128.50,3510.45396826,N,12138.60841508,W,2,10,1.0,6.867,M,-37.986,M,7.4,0131*69
$PYRTM,2024,125.084357680984,16.194005091123
$GNHDT,267.408,T*24
$PYRTM,2024,125.084363518287,16.194010928426
$GNGGA,020129.00,3510.45386321,N,12138.60962173,W,2,10,1.0,7.046,M,-37.986,M,4.0,0131*65
$PYRTM,2024,125.084363518287,16.194010928426
$GNHDT,267.549,T*20
$PYRTM,2024,125.084369255428,16.194016665567
$GNGGA,020129.50,3510.45371385,N,12138.61091524,W,2,10,1.0,6.960,M,-37.986,M,4.4,0131*6C
$PYRTM,2024,125.084369255428,16.194016665567
$GNHDT,267.627,T*2B
$PYRTM,2024,125.084375093738,16.194022503877
$GNGGA,020130.00,3510.45353602,N,12138.61223159,W,2,10,1.0,6.737,M,-37.987,M,5.0,0131*66
$PYRTM,2024,125.084375093738,16.194022503877
$GNHDT,267.859,T*2C
$PYRTM,2024,125.084380828079,16.194028238218
$GNGGA,020130.50,3510.45336800,N,12138.61349025,W,2,10,1.0,6.542,M,-37.987,M,5.4,0131*6F
$PYRTM,2024,125.084380828079,16.194028238218
$GNHDT,268.099,T*27
$PYRTM,2024,125.084386662164,16.194034072303
$GNGGA,020131.00,3510.45324183,N,12138.61462313,W,2,10,1.0,6.526,M,-37.987,M,6.0,0131*67
$PYRTM,2024,125.084386662164,16.194034072303
$GNHDT,267.856,T*23
$PYRTM,2024,125.084392411875,16.194039822025
$GNGGA,020131.50,3510.45315863,N,12138.61566992,W,2,10,1.0,6.711,M,-37.987,M,6.4,0131*63
$PYRTM,2024,125.084392411875,16.194039822025
$GNHDT,267.428,T*26
$PYRTM,2024,125.084398244687,16.194045654826
$GNGGA,020132.00,3510.45311126,N,12138.61668532,W,2,10,1.0,6.997,M,-37.987,M,7.0,0131*67
$PYRTM,2024,125.084398244687,16.194045654826
$GNHDT,267.491,T*24
$PYRTM,2024,125.084403982917,16.194051393056
$GNGGA,020132.50,3510.45308332,N,12138.61779834,W,2,10,1.0,7.121,M,-37.987,M,7.4,0131*67
$PYRTM,2024,125.084403982917,16.194051393056
$GNHDT,267.443,T*2B
$PYRTM,2024,125.084409813623,16.194057223762
$GNGGA,020133.00,3510.45307534,N,12138.61904825,W,2,10,1.0,6.872,M,-37.987,M,7.0,0131*62
$PYRTM,2024,125.084409813623,16.194057223762
$GNHDT,267.565,T*2E
$PYRTM,2024,125.084415555417,16.194062965556
$GNGGA,020133.50,3510.45307384,N,12138.62037440,W,2,10,1.0,6.370,M,-37.987,M,7.4,0131*62
$PYRTM,2024,125.084415555417,16.194062965556
$GNHDT,268.284,T*29
$PYRTM,2024,125.084421384086,16.194068794225
$GNGGA,020134.00,3510.45305008,N,12138.62167304,W,2,10,1.0,5.940,M,-37.987,M,7.0,0131*68
$PYRTM,2024,125.084421384086,16.194068794225
$GNHDT,268.503,T*21
$PYRTM,2024,125.084427125903,16.194074536053
$GNGGA,020134.50,3510.45295532,N,12138.62285700,W,2,10,1.0,5.877,M,-37.987,M,7.4,0131*67
$PYRTM,2024,125.084427125903,16.194074536053
$GNHDT,267.745,T*2E
$PYRTM,2024,125.084432965521,16.194080375660
$GNGGA,020135.00,3510.45277278,N,12138.62392215,W,2,10,1.0,6.269,M,-37.987,M,4.0,0131*61
$PYRTM,2024,125.084432965521,16.194080375660
$GNHDT,267.492,T*27
$PYRTM,2024,125.084438697685,16.194086107824
$GNGGA,020135.50,3510.45252866,N,12138.62492965,W,2,10,1.0,6.909,M,-37.987,M,4.4,0131*64
$PYRTM,2024,125.084438697685,16.194086107824
$GNHDT,267.053,T*2E
$PYRTM,2024,125.084444534363,16.194091944502
$GNGGA,020136.00,3510.45228121,N,12138.62599412,W,2,10,1.0,7.499,M,-37.987,M,5.0,0131*62
$PYRTM,2024,125.084444534363,16.194091944502
$GNHDT,266.767,T*2F
$PYRTM,2024,125.084450278530,16.194097688669
$GNGGA,020136.50,3510.45209510,N,12138.62717854,W,2,10,1.0,7.679,M,-37.987,M,5.4,0131*60
$PYRTM,2024,125.084450278530,16.194097688669
$GNHDT,266.497,T*23
$PYRTM,2024,125.084456114248,16.194103524387
$GNGGA,020137.00,3510.45200089,N,12138.62847253,W,2,10,1.0,7.379,M,-37.987,M,6.0,0131*6D
$PYRTM,2024,125.084456114248,16.194103524387
$GNHDT,266.594,T*21
$PYRTM,2024,125.084461849225,16.194109259363
$GNGGA,020137.50,3510.45199314,N,12138.62976615,W,2,10,1.0,6.794,M,-37.988,M,6.4,0131*64
$PYRTM,2024,125.084461849225,16.194109259363
$GNHDT,266.748,T*22
$PYRTM,2024,125.084467681435,16.194115091574
$GNGGA,020138.00,3510.45202744,N,12138.63099675,W,2,10,1.0,6.275,M,-37.988,M,7.0,0131*6E
$PYRTM,2024,125.084467681435,16.194115091574
$GNHDT,266.655,T*2F
$PYRTM,2024,125.084473426620,16.194120836759
$GNGGA,020138.50,3510.45204427,N,12138.63216034,W,2,10,1.0,5.980,M,-37.988,M,7.4,0131*6B
$PYRTM,2024,125.084473426620,16.194120836759
$GNHDT,266.174,T*2B
$PYRTM,2024,125.084479256424,16.194126666574
$GNGGA,020139.00,3510.45198008,N,12138.63325085,W,2,10,1.0,6.090,M,-37.988,M,7.0,0131*64
$PYRTM,2024,125.084479256424,16.194126666574
$GNHDT,265.950,T*26
$PYRTM,2024,125.084484999271,16.194132409410
$GNGGA,020139.50,3510.45183417,N,12138.63432978,W,2,10,1.0,6.491,M,-37.988,M,7.4,0131*6A
$PYRTM,2024,125.084484999271,16.194132409410
$GNHDT,265.764,T*2F
$PYRTM,2024,125.084490834306,16.194138244444
$GNGGA,020140.00,3510.45164654,N,12138.63541414,W,2,10,1.0,6.965,M,-37.988,M,7.0,0131*6D
$PYRTM,2024,125.084490834306,16.194138244444
$GNHDT,265.671,T*2A
$PYRTM,2024,125.084496571516,16.194143981655
$GNGGA,020140.50,3510.45144960,N,12138.63653804,W,2,10,1.0,7.357,M,-37.988,M,7.4,0131*61
$PYRTM,2024,125.084496571516,16.194143981655
$GNHDT,265.899,T*22
$PYRTM,2024,125.084502407118,16.194149817257
$GNGGA,020141.00,3510.45127135,N,12138.63772613,W,2,10,1.0,7.476,M,-37.988,M,4.0,0131*61
$PYRTM,2024,125.084502407118,16.194149817257
$GNHDT,265.844,T*22
$PYRTM,2024,125.084508148600,16.194155558738
$GNGGA,020141.50,3510.45114279,N,12138.63896682,W,2,10,1.0,7.340,M,-37.988,M,4.4,0131*64
$PYRTM,2024,125.084508148600,16.194155558738
$GNHDT,266.112,T*2B
$PYRTM,2024,125.084513985938,16.194161396076
$GNGGA,020142.00,3510.45104546,N,12138.64020556,W,2,10,1.0,7.054,M,-37.988,M,5.0,0131*63
$PYRTM,2024,125.084513985938,16.194161396076
$GNHDT,266.041,T*2C
$PYRTM,2024,125.084519718831,16.194167128970
$GNGGA,020142.50,3510.45096909,N,12138.64141876,W,2,10,1.0,6.754,M,-37.988,M,5.4,0131*60
$PYRTM,2024,125.084519718831,16.194167128970
$GNHDT,265.740,T*29
$PYRTM,2024,125.084525559549,16.194172969688
$GNGGA,020143.00,3510.45088532,N,12138.64258723,W,2,10,1.0,6.579,M,-37.988,M,6.0,0131*61
$PYRTM,2024,125.084525559549,16.194172969688
$GNHDT,265.522,T*2F
$PYRTM,2024,125.084531297627,16.194178707766
$GNGGA,020143.50,3510.45077975,N,12138.64373077,W,2,10,1.0,6.524,M,-37.988,M,6.4,0131*69
$PYRTM,2024,125.084531297627,16.194178707766
$GNHDT,265.559,T*23
$PYRTM,2024,125.084537126620,16.194184536759
$GNGGA,020144.00,3510.45064715,N,12138.64487686,W,2,10,1.0,6.568,M,-37.988,M,7.0,0131*68
$PYRTM,2024,125.084537126620,16.194184536759
$GNHDT,265.778,T*22
$PYRTM,2024,125.084542868993,16.194190279132
$GNGGA,020144.50,3510.45051238,N,12138.64604970,W,2,10,1.0,6.610,M,-37.988,M,7.4,0131*66
$PYRTM,2024,125.084542868993,16.194190279132
$GNHDT,266.045,T*28
$PYRTM,2024,125.084548699907,16.194196110046
$GNGGA,020145.00,3510.45040275,N,12138.64725524,W,2,10,1.0,6.595,M,-37.989,M,7.0,0131*6F
$PYRTM,2024,125.084548699907,16.194196110046
$GNHDT,266.155,T*28
$PYRTM,2024,125.084554444919,16.194201855058
$GNGGA,020145.50,3510.45031848,N,12138.64847726,W,2,10,1.0,6.516,M,-37.989,M,7.4,0131*6C
$PYRTM,2024,125.084554444919,16.194201855058
$GNHDT,266.390,T*23
$PYRTM,2024,125.084560278519,16.194207688669
$GNGGA,020146.00,3510.45023526,N,12138.64969526,W,2,10,1.0,6.447,M,-37.989,M,7.0,0131*62
$PYRTM,2024,125.084560278519,16.194207688669
$GNHDT,266.394,T*27
$PYRTM,2024,125.084566018692,16.194213428831
$GNGGA,020146.50,3510.45011593,N,12138.65089706,W,2,10,1.0,6.459,M,-37.989,M,7.4,0131*65
$PYRTM,2024,125.084566018692,16.194213428831
$GNHDT,266.141,T*2D
$PYRTM,2024,125.084571851366,16.194219261505
$GNGGA,020147.00,3510.44995321,N,12138.65206697,W,2,10,1.0,6.616,M,-37.989,M,4.0,0131*68
$PYRTM,2024,125.084571851366,16.194219261505
$GNHDT,266.447,T*2E
$PYRTM,2024,125.084577589792,16.194224999931
$GNGGA,020147.50,3510.44975732,N,12138.65323724,W,2,10,1.0,6.849,M,-37.989,M,4.4,0131*6A
$PYRTM,2024,125.084577589792,16.194224999931
$GNHDT,266.387,T*25
$PYRTM,2024,125.084583422245,16.194230832384
$GNGGA,020148.00,3510.44956290,N,12138.65443281,W,2,10,1.0,7.050,M,-37.989,M,5.0,0131*63
$PYRTM,2024,125.084583422245,16.194230832384
$GNHDT,266.553,T*2A
$PYRTM,2024,125.084589160613,16.194236570752
$GNGGA,020148.50,3510.44941440,N,12138.65564684,W,2,10,1.0,7.107,M,-37.989,M,5.4,0131*69
$PYRTM,2024,125.084589160613,16.194236570752
$GNHDT,266.543,T*2B
$PYRTM,2024,125.084595000000,16.194242410139
$GNGGA,020149.00,3510.44932470,N,12138.65688286,W,2,10,1.0,6.977,M,-37.989,M,6.0,0131*64
$PYRTM,2024,125.084595000000,16.194242410139
$GNHDT,266.726,T*2A
$PYRTM,2024,125.084600733356,16.194248143495
$GNGGA,020149.50,3510.44928904,N,12138.65813086,W,2,10,1.0,6.721,M,-37.989,M,6.4,0131*63
$PYRTM,2024,125.084600733356,16.194248143495
$GNHDT,267.035,T*2E
$PYRTM,2024,125.084606569086,16.194253979225
$GNGGA,020150.00,3510.44932289,N,12138.65939752,W,2,10,1.0,6.435,M,-37.989,M,7.0,0131*6F
$PYRTM,2024,125.084606569086,16.194253979225
$GNHDT,267.405,T*29
$PYRTM,2024,125.084612322882,16.194259733021
$GNGGA,020150.50,3510.44936144,N,12138.66060191,W,2,10,1.0,6.265,M,-37.989,M,7.4,0131*64
$PYRTM,2024,125.084612322882,16.194259733021
$GNHDT,267.963,T*24
$PYRTM,2024,125.084618147477,16.194265557616
$GNGGA,020151.00,3510.44937968,N,12138.66177214,W,2,10,1.0,6.283,M,-37.989,M,7.0,0131*62
$PYRTM,2024,125.084618147477,16.194265557616
$GNHDT,268.085,T*2A
$PYRTM,2024,125.084623883137,16.194271293275
$GNGGA,020151.50,3510.44934111,N,12138.66293470,W,2,10,1.0,6.466,M,-37.989,M,7.4,0131*66
$PYRTM,2024,125.084623883137,16.194271293275
$GNHDT,268.239,T*2F
$PYRTM,2024,125.084629717894,16.194277128032
$GNGGA,020152.00,3510.44922530,N,12138.66411723,W,2,10,1.0,6.754,M,-37.989,M,7.0,0131*6F
$PYRTM,2024,125.084629717894,16.194277128032
$GNHDT,268.133,T*26
$PYRTM,2024,125.084635459560,16.194282869699
$GNGGA,020152.50,3510.44904634,N,12138.66533470,W,2,10,1.0,7.038,M,-37.990,M,7.4,0131*6D
$PYRTM,2024,125.084635459560,16.194282869699
$GNHDT,268.192,T*2D
$PYRTM,2024,125.084641299560,16.194288709711
$GNGGA,020153.00,3510.44882195,N,12138.66656214,W,2,10,1.0,7.249,M,-37.990,M,4.0,0131*6D
$PYRTM,2024,125.084641299560,16.194288709711
$GNHDT,268.352,T*23
$PYRTM,2024,125.084647034190,16.194294444329
$GNGGA,020153.50,3510.44861835,N,12138.66779929,W,2,10,1.0,7.302,M,-37.990,M,4.4,0131*65
$PYRTM,2024,125.084647034190,16.194294444329
$GNHDT,268.639,T*2B
$PYRTM,2024,125.084652864931,16.194300275069
$GNGGA,020154.00,3510.44848844,N,12138.66903681,W,2,10,1.0,7.183,M,-37.990,M,5.0,0131*6A
$PYRTM,2024,125.084652864931,16.194300275069
$GNHDT,268.967,T*2F
$PYRTM,2024,125.084658606424,16.194306016562
$GNGGA,020154.50,3510.44845745,N,12138.67026826,W,2,10,1.0,6.928,M,-37.990,M,5.4,0131*6C
$PYRTM,2024,125.084658606424,16.194306016562
$GNHDT,268.719,T*28
$PYRTM,2024,125.084664447940,16.194311858079
$GNGGA,020155.00,3510.44851028,N,12138.67149236,W,2,10,1.0,6.599,M,-37.990,M,6.0,0131*63
$PYRTM,2024,125.084664447940,16.194311858079
$GNHDT,268.804,T*2B
$PYRTM,2024,125.084670182662,16.194317592801
$GNGGA,020155.50,3510.44857968,N,12138.67269939,W,2,10,1.0,6.337,M,-37.990,M,6.4,0131*6E
$PYRTM,2024,125.084670182662,16.194317592801
$GNHDT,268.644,T*21
$PYRTM,2024,125.084676016539,16.194323426678
$GNGGA,020156.00,3510.44861655,N,12138.67389198,W,2,10,1.0,6.234,M,-37.990,M,7.0,0131*67
$PYRTM,2024,125.084676016539,16.194323426678
$GNHDT,268.405,T*26
$PYRTM,2024,125.084681756516,16.194329166655
$GNGGA,020156.50,3510.44860322,N,12138.67506036,W,2,10,1.0,6.329,M,-37.990,M,7.4,0131*6B
$PYRTM,2024,125.084681756516,16.194329166655
$GNHDT,269.125,T*20
$PYRTM,2024,125.084687589039,16.194334999178
$GNGGA,020157.00,3510.44854126,N,12138.67622166,W,2,10,1.0,6.591,M,-37.990,M,7.0,0131*6E
$PYRTM,2024,125.084687589039,16.194334999178
$GNHDT,269.533,T*23
$PYRTM,2024,125.084693332546,16.194340742685
$GNGGA,020157.50,3510.44843065,N,12138.67741597,W,2,10,1.0,6.880,M,-37.990,M,7.4,0131*6C
$PYRTM,2024,125.084693332546,16.194340742685
$GNHDT,269.598,T*22
$PYRTM,2024,125.084699168426,16.194346578576
$GNGGA,020158.00,3510.44827917,N,12138.67869388,W,2,10,1.0,7.011,M,-37.990,M,7.0,0131*60
$PYRTM,2024,125.084699168426,16.194346578576
$GNHDT,269.702,T*23
$PYRTM,2024,125.084704903009,16.194352313148
$GNGGA,020158.50,3510.44812368,N,12138.68004834,W,2,10,1.0,6.855,M,-37.990,M,7.4,0131*6C
$PYRTM,2024,125.084704903009,16.194352313148
$GNHDT,269.892,T*25
$PYRTM,2024,125.084710737488,16.194358147627
$GNGGA,020159.00,3510.44800017,N,12138.68140170,W,2,10,1.0,6.604,M,-37.990,M,4.0,0131*65
$PYRTM,2024,125.084710737488,16.194358147627
$GNHDT,269.778,T*2E
$PYRTM,2024,125.084716475660,16.194363885799
$GNGGA,020159.50,3510.44794935,N,12138.68267821,W,2,10,1.0,6.376,M,-37.991,M,4.4,0131*65
$PYRTM,2024,125.084716475660,16.194363885799
$GNHDT,269.889,T*2F
$PYRTM,2024,125.084722317535,16.194369727674
$GNGGA,020200.00,3510.44796178,N,12138.68385833,W,2,10,1.0,6.297,M,-37.991,M,5.0,0131*69
$PYRTM,2024,125.084722317535,16.194369727674
$GNHDT,269.980,T*27
$PYRTM,2024,125.084728056238,16.194375466377
$GNGGA,020200.50,3510.44800075,N,12138.68499762,W,2,10,1.0,6.417,M,-37.991,M,5.4,0131*6B
$PYRTM,2024,125.084728056238,16.194375466377
$GNHDT,269.957,T*2D
$PYRTM,2024,125.084733885417,16.194381295556
$GNGGA,020201.00,3510.44801079,N,12138.68615264,W,2,10,1.0,6.648,M,-37.991,M,6.0,0131*68
$PYRTM,2024,125.084733885417,16.194381295556
$GNHDT,269.645,T*21
$PYRTM,2024,125.084739623542,16.194387033692
$GNGGA,020201.50,3510.44797243,N,12138.68739235,W,2,10,1.0,6.871,M,-37.991,M,6.4,0131*6D
$PYRTM,2024,125.084739623542,16.194387033692
$GNHDT,269.621,T*23
$PYRTM,2024,125.084745464190,16.194392874329
$GNGGA,020202.00,3510.44789539,N,12138.68868235,W,2,10,1.0,7.012,M,-37.991,M,7.0,0131*6C
$PYRTM,2024,125.084745464190,16.194392874329
$GNHDT,269.851,T*2A
$PYRTM,2024,125.084751201933,16.194398612072
$GNGGA,020202.50,3510.44781022,N,12138.68997271,W,2,10,1.0,7.042,M,-37.991,M,7.4,0131*6E
$PYRTM,2024,125.084751201933,16.194398612072
$GNHDT,269.852,T*29
$PYRTM,2024,125.084757033669,16.194404443808
$GNGGA,020203.00,3510.44773971,N,12138.69122419,W,2,10,1.0,6.994,M,-37.991,M,7.0,0131*60
$PYRTM,2024,125.084757033669,16.194404443808
$GNHDT,270.207,T*2B
$PYRTM,2024,125.084762778102,16.194410188241
$GNGGA,020203.50,3510.44769800,N,12138.69244850,W,2,10,1.0,6.910,M,-37.991,M,7.4,0131*63
$PYRTM,2024,125.084762778102,16.194410188241
$GNHDT,270.595,T*27
$PYRTM,2024,125.084768611354,16.194416021493
$GNGGA,020204.00,3510.44767563,N,12138.69365534,W,2,10,1.0,6.858,M,-37.991,M,7.0,0131*63
$PYRTM,2024,125.084768611354,16.194416021493
$GNHDT,270.544,T*2B
$PYRTM,2024,125.084774353021,16.194421763160
$GNGGA,020204.50,3510.44764508,N,12138.69485233,W,2,10,1.0,6.890,M,-37.991,M,7.4,0131*61
$PYRTM,2024,125.084774353021,16.194421763160
$GNHDT,270.075,T*2C
$PYRTM,2024,125.084780184676,16.194427594815
$GNGGA,020205.00,3510.44760178,N,12138.69605098,W,2,10,1.0,6.987,M,-37.991,M,4.0,0131*6B
$PYRTM,2024,125.084780184676,16.194427594815
$GNHDT,269.903,T*2C
$PYRTM,2024,125.084785922569,16.194433332708
$GNGGA,020205.50,3510.44756813,N,12138.69727002,W,2,10,1.0,7.070,M,-37.991,M,4.4,0131*69
$PYRTM,2024,125.084785922569,16.194433332708
$GNHDT,270.641,T*2D
$PYRTM,2024,125.084791754641,16.194439164780
$GNGGA,020206.00,3510.44756087,N,12138.69851730,W,2,10,1.0,7.078,M,-37.991,M,5.0,0131*6F
$PYRTM,2024,125.084791754641,16.194439164780
$GNHDT,270.640,T*2C
$PYRTM,2024,125.084797498368,16.194444908507
$GNGGA,020206.50,3510.44757300,N,12138.69977781,W,2,10,1.0,7.021,M,-37.992,M,5.4,0131*63
$PYRTM,2024,125.084797498368,16.194444908507
$GNHDT,270.626,T*2C
$PYRTM,2024,125.084803328090,16.194450738229
$GNGGA,020207.00,3510.44759004,N,12138.70103854,W,2,10,1.0,6.945,M,-37.992,M,6.0,0131*67
$PYRTM,2024,125.084803328090,16.194450738229
$GNHDT,270.339,T*27
$PYRTM,2024,125.084809073438,16.194456483576
$GNGGA,020207.50,3510.44760372,N,12138.70228987,W,2,10,1.0,6.867,M,-37.992,M,6.4,0131*6A
$PYRTM,2024,125.084809073438,16.194456483576
$GNHDT,270.107,T*28
$PYRTM,2024,125.084814902083,16.194462312234
$GNGGA,020208.00,3510.44760558,N,12138.70354054,W,2,10,1.0,6.803,M,-37.992,M,7.0,0131*64
$PYRTM,2024,125.084814902083,16.194462312234
$GNHDT,270.021,T*2D
$PYRTM,2024,125.084820648264,16.194468058403
$GNGGA,020208.50,3510.44758090,N,12138.70479896,W,2,10,1.0,6.760,M,-37.992,M,7.4,0131*6B
$PYRTM,2024,125.084820648264,16.194468058403
$GNHDT,269.806,T*28
$PYRTM,2024,125.084826480301,16.194473890440
$GNGGA,020209.00,3510.44753221,N,12138.70607816,W,2,10,1.0,6.729,M,-37.992,M,7.0,0131*66
$PYRTM,2024,125.084826480301,16.194473890440
$GNHDT,270.055,T*2E
$PYRTM,2024,125.084832217743,16.194479627882
$GNGGA,020209.50,3510.44748070,N,12138.70737565,W,2,10,1.0,6.704,M,-37.992,M,7.4,0131*6F
$PYRTM,2024,125.084832217743,16.194479627882
$GNHDT,270.189,T*2E
$PYRTM,2024,125.084838051968,16.194485462106
$GNGGA,020210.00,3510.44743692,N,12138.70866046,W,2,10,1.0,6.754,M,-37.992,M,7.0,0131*6D
$PYRTM,2024,125.084838051968,16.194485462106
$GNHDT,270.190,T*26
$PYRTM,2024,125.084843795845,16.194491205984
$GNGGA,020210.50,3510.44740702,N,12138.70991270,W,2,10,1.0,6.884,M,-37.992,M,7.4,0131*6B
$PYRTM,2024,125.084843795845,16.194491205984
$GNHDT,270.234,T*2B
$PYRTM,2024,125.084849626829,16.194497036979
$GNGGA,020211.00,3510.44739154,N,12138.71112846,W,2,10,1.0,7.100,M,-37.992,M,4.0,0131*6A
$PYRTM,2024,125.084849626829,16.194497036979
$GNHDT,270.281,T*25
$PYRTM,2024,125.084855369769,16.194502779907
$GNGGA,020211.50,3510.44738141,N,12138.71233324,W,2,10,1.0,7.317,M,-37.992,M,4.4,0131*65
$PYRTM,2024,125.084855369769,16.194502779907
$GNHDT,269.706,T*27
$PYRTM,2024,125.084861202870,16.194508613009
$GNGGA,020212.00,3510.44735975,N,12138.71356937,W,2,10,1.0,7.477,M,-37.992,M,5.0,0131*6F
$PYRTM,2024,125.084861202870,16.194508613009
$GNHDT,269.369,T*2A
$PYRTM,2024,125.084866943634,16.194514353773
$GNGGA,020212.50,3510.44731144,N,12138.71487786,W,2,10,1.0,7.381,M,-37.992,M,5.4,0131*61
$PYRTM,2024,125.084866943634,16.194514353773
$GNHDT,268.831,T*2D
$PYRTM,2024,125.084872777720,16.194520187859
$GNGGA,020213.00,3510.44724976,N,12138.71623604,W,2,10,1.0,7.075,M,-37.992,M,6.0,0131*60
$PYRTM,2024,125.084872777720,16.194520187859
$GNHDT,268.775,T*22
$PYRTM,2024,125.084878513657,16.194525923796
$GNGGA,020213.50,3510.44717909,N,12138.71760681,W,2,10,1.0,6.669,M,-37.993,M,6.4,0131*69
$PYRTM,2024,125.084878513657,16.194525923796
$GNHDT,268.626,T*25
$PYRTM,2024,125.084884348542,16.194531758681
$GNGGA,020214.00,3510.44712549,N,12138.71894130,W,2,10,1.0,6.309,M,-37.993,M,7.0,0131*69
$PYRTM,2024,125.084884348542,16.194531758681
$GNHDT,268.975,T*2C
$PYRTM,2024,125.084890087199,16.194537497338
$GNGGA,020214.50,3510.44710311,N,12138.72020567,W,2,10,1.0,6.188,M,-37.993,M,7.4,0131*68
$PYRTM,2024,125.084890087199,16.194537497338
$GNHDT,269.253,T*22
$PYRTM,2024,125.084895927859,16.194543337998
$GNGGA,020215.00,3510.44710233,N,12138.72138587,W,2,10,1.0,6.421,M,-37.993,M,7.0,0131*69
$PYRTM,2024,125.084895927859,16.194543337998
$GNHDT,269.442,T*24
$PYRTM,2024,125.084901669641,16.194549079780
$GNGGA,020215.50,3510.44708132,N,12138.72253347,W,2,10,1.0,6.915,M,-37.993,M,7.4,0131*6D
$PYRTM,2024,125.084901669641,16.194549079780
$GNHDT,269.102,T*25
$PYRTM,2024,125.084907495810,16.194554905949
$GNGGA,020216.00,3510.44702491,N,12138.72368978,W,2,10,1.0,7.483,M,-37.993,M,7.0,0131*65
$PYRTM,2024,125.084907495810,16.194554905949
$GNHDT,268.590,T*2B
$PYRTM,2024,125.084913236354,16.194560646493
$GNGGA,020216.50,3510.44692995,N,12138.72492824,W,2,10,1.0,7.901,M,-37.993,M,7.4,0131*68
$PYRTM,2024,125.084913236354,16.194560646493
$GNHDT,268.257,T*27
$PYRTM,2024,125.084919074965,16.194566485104
$GNGGA,020217.00,3510.44682247,N,12138.72627188,W,2,10,1.0,7.981,M,-37.993,M,4.0,0131*65
$PYRTM,2024,125.084919074965,16.194566485104
$GNHDT,268.152,T*21
$PYRTM,2024,125.084924809225,16.194572219363
$GNGGA,020217.50,3510.44672922,N,12138.72767153,W,2,10,1.0,7.657,M,-37.993,M,4.4,0131*64
$PYRTM,2024,125.084924809225,16.194572219363
$GNHDT,268.140,T*22
$PYRTM,2024,125.084930646146,16.194578056285
$GNGGA,020218.00,3510.44667216,N,12138.72905029,W,2,10,1.0,7.152,M,-37.993,M,5.0,0131*67
$PYRTM,2024,125.084930646146,16.194578056285
$GNHDT,268.100,T*26
$PYRTM,2024,125.084936383194,16.194583793333
$GNGGA,020218.50,3510.44664583,N,12138.73034736,W,2,10,1.0,6.711,M,-37.993,M,5.4,0131*6D
$PYRTM,2024,125.084936383194,16.194583793333
$GNHDT,268.359,T*28
$PYRTM,2024,125.084942219063,16.194589629201
$GNGGA,020219.00,3510.44663432,N,12138.73156108,W,2,10,1.0,6.532,M,-37.993,M,6.0,0131*6F
$PYRTM,2024,125.084942219063,16.194589629201
$GNHDT,268.432,T*22
$PYRTM,2024,125.084947956308,16.194595366447
$GNGGA,020219.50,3510.44662090,N,12138.73270176,W,2,10,1.0,6.680,M,-37.993,M,6.4,0131*67
$PYRTM,2024,125.084947956308,16.194595366447
$GNHDT,268.250,T*20
$PYRTM,2024,125.084953797396,16.194601207535
$GNGGA,020220.00,3510.44658520,N,12138.73383132,W,2,10,1.0,7.044,M,-37.993,M,7.0,0131*68
$PYRTM,2024,125.084953797396,16.194601207535
$GNHDT,267.807,T*27
$PYRTM,2024,125.084959531262,16.194606941400
$GNGGA,020220.50,3510.44654223,N,12138.73499187,W,2,10,1.0,7.410,M,-37.994,M,7.4,0131*61
$PYRTM,2024,125.084959531262,16.194606941400
$GNHDT,267.500,T*2D
$PYRTM,2024,125.084965371030,16.194612781181
$GNGGA,020221.00,3510.44648746,N,12138.73623605,W,2,10,1.0,7.632,M,-37.994,M,7.0,0131*66
$PYRTM,2024,125.084965371030,16.194612781181
$GNHDT,267.551,T*29
$PYRTM,2024,125.084971110197,16.194618520336
$GNGGA,020221.50,3510.44641106,N,12138.73756436,W,2,10,1.0,7.598,M,-37.994,M,7.4,0131*6E
$PYRTM,2024,125.084971110197,16.194618520336
$GNHDT,267.566,T*2D
$PYRTM,2024,125.084976945741,16.194624355891
$GNGGA,020222.00,3510.44631748,N,12138.73890718,W,2,10,1.0,7.450,M,-37.994,M,7.0,0131*68
$PYRTM,2024,125.084976945741,16.194624355891
$GNHDT,267.632,T*2F
$PYRTM,2024,125.084982678056,16.194630088194
$GNGGA,020222.50,3510.44622353,N,12138.74021861,W,2,10,1.0,7.231,M,-37.994,M,7.4,0131*60
$PYRTM,2024,125.084982678056,16.194630088194
$GNHDT,267.465,T*2F
$PYRTM,2024,125.084988519167,16.194635929317
$GNGGA,020223.00,3510.44614925,N,12138.74149364,W,2,10,1.0,7.049,M,-37.994,M,4.0,0131*61
$PYRTM,2024,125.084988519167,16.194635929317
$GNHDT,267.688,T*2E
$PYRTM,2024,125.084994252917,16.194641663056
$GNGGA,020223.50,3510.44609700,N,12138.74273172,W,2,10,1.0,6.973,M,-37.994,M,4.4,0131*6B
$PYRTM,2024,125.084994252917,16.194641663056
$GNHDT,267.645,T*2F
$PYRTM,2024,125.085000092326,16.194647502465
$GNGGA,020224.00,3510.44604597,N,12138.74395633,W,2,10,1.0,7.019,M,-37.994,M,5.0,0131*62
$PYRTM,2024,125.085000092326,16.194647502465
$GNHDT,267.547,T*2E
$PYRTM,2024,125.085005829931,16.194653240069
$GNGGA,020224.50,3510.44597798,N,12138.74518659,W,2,10,1.0,7.152,M,-37.994,M,5.4,0131*66
$PYRTM,2024,125.085005829931,16.194653240069
$GNHDT,267.160,T*2F
$PYRTM,2024,125.085011668391,16.194659078530
$GNGGA,020225.00,3510.44589868,N,12138.74642021,W,2,10,1.0,7.256,M,-37.994,M,6.0,0131*68
$PYRTM,2024,125.085011668391,16.194659078530
$GNHDT,267.155,T*29
$PYRTM,2024,125.085017403588,16.194664813727
$GNGGA,020225.50,3510.44581286,N,12138.74766079,W,2,10,1.0,7.329,M,-37.994,M,6.4,0131*68
$PYRTM,2024,125.085017403588,16.194664813727
$GNHDT,267.051,T*2C
$PYRTM,2024,125.085023244630,16.194670654780
$GNGGA,020226.00,3510.44572561,N,12138.74891809,W,2,10,1.0,7.310,M,-37.994,M,7.0,0131*6B
$PYRTM,2024,125.085023244630,16.194670654780
$GNHDT,267.170,T*2E
$PYRTM,2024,125.085028976609,16.194676386748
$GNGGA,020226.50,3510.44563398,N,12138.75021112,W,2,10,1.0,7.212,M,-37.994,M,7.4,0131*68
$PYRTM,2024,125.085028976609,16.194676386748
$GNHDT,267.170,T*2E
$PYRTM,2024,125.085034814861,16.194682225012
$GNGGA,020227.00,3510.44553217,N,12138.75153650,W,2,10,1.0,7.032,M,-37.994,M,7.0,0131*68
$PYRTM,2024,125.085034814861,16.194682225012
$GNHDT,267.221,T*29
$PYRTM,2024,125.085040553044,16.194687963183
$GNGGA,020227.50,3510.44542124,N,12138.75287000,W,2,10,1.0,6.823,M,-37.995,M,7.4,0131*6B
$PYRTM,2024,125.085040553044,16.194687963183
$GNHDT,267.408,T*24
$PYRTM,2024,125.085046392188,16.194693802326
$GNGGA,020228.00,3510.44529842,N,12138.75418472,W,2,10,1.0,6.699,M,-37.995,M,7.0,0131*6F
$PYRTM,2024,125.085046392188,16.194693802326
$GNHDT,267.147,T*2A
$PYRTM,2024,125.085052127986,16.194699538125
$GNGGA,020228.50,3510.44519639,N,12138.75544735,W,2,10,1.0,6.751,M,-37.995,M,7.4,0131*62
$PYRTM,2024,125.085052127986,16.194699538125
$GNHDT,267.372,T*2E
$PYRTM,2024,125.085057966505,16.194705376644
