$PYRTM,2024,124.750000080243,15.859647490394
$GNGGA,180000.00,3521.48404108,N,12053.82536478,W,2,11,0.9,5.473,M,-35.036,M,5.0,0131*64
$PYRTM,2024,124.750000080243,15.859647490394
$GNHDT,248.155,T*24
$PYRTM,2024,124.750005812072,15.859653222211
$GNGGA,180000.50,3521.48404725,N,12053.82561526,W,2,11,0.9,5.364,M,-35.036,M,5.4,0131*65
$PYRTM,2024,124.750005812072,15.859653222211
$GNHDT,248.301,T*27
$PYRTM,2024,124.750011648715,15.859659058866
$GNGGA,180001.00,3521.48401974,N,12053.82582146,W,2,11,0.9,5.372,M,-35.036,M,6.0,0131*61
$PYRTM,2024,124.750011648715,15.859659058866
$GNHDT,248.245,T*26
$PYRTM,2024,124.750017387778,15.859664797917
$GNGGA,180001.50,3521.48397281,N,12053.82599810,W,2,11,0.9,5.491,M,-35.036,M,6.4,0131*63
$PYRTM,2024,124.750017387778,15.859664797917
$GNHDT,248.166,T*24
$PYRTM,2024,124.750023223507,15.859670633646
$GNGGA,180002.00,3521.48391030,N,12053.82616288,W,2,11,0.9,5.694,M,-35.036,M,7.0,0131*66
$PYRTM,2024,124.750023223507,15.859670633646
$GNHDT,248.189,T*25
$PYRTM,2024,124.750028964259,15.859676374398
$GNGGA,180002.50,3521.48384836,N,12053.82633336,W,2,11,0.9,5.905,M,-35.036,M,7.4,0131*69
$PYRTM,2024,124.750028964259,15.859676374398
$GNHDT,247.908,T*2B
$PYRTM,2024,124.750034800208,15.859682210359
$GNGGA,180003.00,3521.48379616,N,12053.82652795,W,2,11,0.9,6.070,M,-35.036,M,7.0,0131*65
$PYRTM,2024,124.750034800208,15.859682210359
$GNHDT,247.992,T*28
$PYRTM,2024,124.750040535185,15.859687945324
$GNGGA,180003.50,3521.48376589,N,12053.82674587,W,2,11,0.9,6.152,M,-35.036,M,7.4,0131*6A
$PYRTM,2024,124.750040535185,15.859687945324
$GNHDT,247.920,T*21
$PYRTM,2024,124.750046374560,15.859693784699
$GNGGA,180004.00,3521.48375935,N,12053.82697697,W,2,11,0.9,6.150,M,-35.036,M,7.0,0131*69
$PYRTM,2024,124.750046374560,15.859693784699
$GNHDT,247.823,T*23
$PYRTM,2024,124.750052107940,15.859699518079
$GNGGA,180004.50,3521.48377286,N,12053.82721449,W,2,11,0.9,6.065,M,-35.036,M,7.4,0131*63
$PYRTM,2024,124.750052107940,15.859699518079
$GNHDT,247.865,T*21
$PYRTM,2024,124.750057945093,15.859705355231
$GNGGA,180005.00,3521.48380332,N,12053.82744806,W,2,11,0.9,5.962,M,-35.036,M,4.0,0131*6F
$PYRTM,2024,124.750057945093,15.859705355231
$GNHDT,247.887,T*2D
$PYRTM,2024,124.750063681053,15.859711091192
$GNGGA,180005.50,3521.48381830,N,12053.82765817,W,2,11,0.9,5.866,M,-35.036,M,4.4,0131*60
$PYRTM,2024,124.750063681053,15.859711091192
$GNHDT,247.783,T*26
$PYRTM,2024,124.750069519086,15.859716929225
$GNGGA,180006.00,3521.48382026,N,12053.82785670,W,2,11,0.9,5.783,M,-35.036,M,5.0,0131*6A
$PYRTM,2024,124.750069519086,15.859716929225
$GNHDT,247.778,T*22
$PYRTM,2024,124.750075258495,15.859722668646
$GNGGA,180006.50,3521.48380193,N,12053.82804721,W,2,11,0.9,5.731,M,-35.036,M,5.4,0131*6C
$PYRTM,2024,124.750075258495,15.859722668646
$GNHDT,247.701,T*2C
$PYRTM,2024,124.750081092095,15.859728502234
$GNGGA,180007.00,3521.48377167,N,12053.82823862,W,2,11,0.9,5.703,M,-35.036,M,6.0,0131*60
$PYRTM,2024,124.750081092095,15.859728502234
$GNHDT,247.647,T*2F
$PYRTM,2024,124.750086830197,15.859734240336
$GNGGA,180007.50,3521.48373372,N,12053.82842531,W,2,11,0.9,5.730,M,-35.036,M,6.4,0131*6F
$PYRTM,2024,124.750086830197,15.859734240336
$GNHDT,247.736,T*28
$PYRTM,2024,124.750092670347,15.859740080486
$GNGGA,180008.00,3521.48368596,N,12053.82860924,W,2,11,0.9,5.796,M,-35.036,M,7.0,0131*62
$PYRTM,2024,124.750092670347,15.859740080486
$GNHDT,247.772,T*28
$PYRTM,2024,124.750098412940,15.859745823079
$GNGGA,180008.50,3521.48364324,N,12053.82879836,W,2,11,0.9,5.883,M,-35.036,M,7.4,0131*61
$PYRTM,2024,124.750098412940,15.859745823079
$GNHDT,247.494,T*23
$PYRTM,2024,124.750104240845,15.859751650984
$GNGGA,180009.00,3521.48361089,N,12053.82900063,W,2,11,0.9,5.964,M,-35.036,M,7.0,0131*6F
$PYRTM,2024,124.750104240845,15.859751650984
$GNHDT,247.514,T*2A
$PYRTM,2024,124.750109979259,15.859757389410
$GNGGA,180009.50,3521.48359885,N,12053.82922606,W,2,11,0.9,5.999,M,-35.036,M,7.4,0131*66
$PYRTM,2024,124.750109979259,15.859757389410
$GNHDT,247.375,T*2B
$PYRTM,2024,124.750115816285,15.859763226424
$GNGGA,180010.00,3521.48360872,N,12053.82946905,W,2,11,0.9,5.972,M,-35.036,M,7.0,0131*66
$PYRTM,2024,124.750115816285,15.859763226424
$GNHDT,247.415,T*2A
$PYRTM,2024,124.750121553252,15.859768963403
$GNGGA,180010.50,3521.48363348,N,12053.82971470,W,2,11,0.9,5.914,M,-35.036,M,7.4,0131*6D
$PYRTM,2024,124.750121553252,15.859768963403
$GNHDT,247.438,T*25
$PYRTM,2024,124.750127391042,15.859774801181
$GNGGA,180011.00,3521.48366814,N,12053.82995243,W,2,11,0.9,5.856,M,-35.036,M,4.0,0131*62
$PYRTM,2024,124.750127391042,15.859774801181
$GNHDT,247.542,T*29
$PYRTM,2024,124.750133127755,15.859780537894
$GNGGA,180011.50,3521.48368993,N,12053.83016452,W,2,11,0.9,5.839,M,-35.036,M,4.4,0131*6F
$PYRTM,2024,124.750133127755,15.859780537894
$GNHDT,247.681,T*25
$PYRTM,2024,124.750138966898,15.859786377049
$GNGGA,180012.00,3521.48368214,N,12053.83035159,W,2,11,0.9,5.857,M,-35.036,M,5.0,0131*6F
$PYRTM,2024,124.750138966898,15.859786377049
$GNHDT,247.547,T*2C
$PYRTM,2024,124.750144706065,15.859792116204
$GNGGA,180012.50,3521.48363984,N,12053.83052568,W,2,11,0.9,5.901,M,-35.036,M,5.4,0131*62
$PYRTM,2024,124.750144706065,15.859792116204
$GNHDT,247.230,T*2B
$PYRTM,2024,124.750150540394,15.859797950532
$GNGGA,180013.00,3521.48355959,N,12053.83069377,W,2,11,0.9,5.939,M,-35.036,M,6.0,0131*6F
$PYRTM,2024,124.750150540394,15.859797950532
$GNHDT,247.187,T*24
$PYRTM,2024,124.750156274282,15.859803684421
$GNGGA,180013.50,3521.48346808,N,12053.83087422,W,2,11,0.9,5.959,M,-35.036,M,6.4,0131*68
$PYRTM,2024,124.750156274282,15.859803684421
$GNHDT,247.006,T*2C
$PYRTM,2024,124.750162111794,15.859809521933
$GNGGA,180014.00,3521.48338389,N,12053.83106475,W,2,11,0.9,5.979,M,-35.036,M,7.0,0131*6C
$PYRTM,2024,124.750162111794,15.859809521933
$GNHDT,247.158,T*26
$PYRTM,2024,124.750167854086,15.859815264225
$GNGGA,180014.50,3521.48333295,N,12053.83126179,W,2,11,0.9,5.992,M,-35.036,M,7.4,0131*64
$PYRTM,2024,124.750167854086,15.859815264225
$GNHDT,247.020,T*28
$PYRTM,2024,124.750173687905,15.859821098044
$GNGGA,180015.00,3521.48332420,N,12053.83146358,W,2,11,0.9,6.000,M,-35.036,M,7.0,0131*6B
$PYRTM,2024,124.750173687905,15.859821098044
$GNHDT,247.440,T*2A
$PYRTM,2024,124.750179423738,15.859826833877
$GNGGA,180015.50,3521.48335977,N,12053.83167172,W,2,11,0.9,5.997,M,-35.036,M,7.4,0131*6F
$PYRTM,2024,124.750179423738,15.859826833877
$GNHDT,247.474,T*2D
$PYRTM,2024,124.750185259572,15.859832669711
$GNGGA,180016.00,3521.48341780,N,12053.83188703,W,2,11,0.9,5.949,M,-35.036,M,7.0,0131*6A
$PYRTM,2024,124.750185259572,15.859832669711
$GNHDT,247.464,T*2C
$PYRTM,2024,124.750190997025,15.859838407176
$GNGGA,180016.50,3521.48348910,N,12053.83212811,W,2,11,0.9,5.868,M,-35.036,M,7.4,0131*6B
$PYRTM,2024,124.750190997025,15.859838407176
$GNHDT,247.524,T*29
$PYRTM,2024,124.750196834745,15.859844244884
$GNGGA,180017.00,3521.48352973,N,12053.83237274,W,2,11,0.9,5.772,M,-35.036,M,4.0,0131*6C
$PYRTM,2024,124.750196834745,15.859844244884
$GNHDT,247.128,T*21
$PYRTM,2024,124.750202571053,15.859849981204
$GNGGA,180017.50,3521.48351832,N,12053.83260791,W,2,11,0.9,5.703,M,-35.036,M,4.4,0131*60
$PYRTM,2024,124.750202571053,15.859849981204
$GNHDT,246.942,T*24
$PYRTM,2024,124.750208411192,15.859855821343
$GNGGA,180018.00,3521.48345566,N,12053.83281974,W,2,11,0.9,5.696,M,-35.036,M,5.0,0131*61
$PYRTM,2024,124.750208411192,15.859855821343
$GNHDT,246.775,T*2E
$PYRTM,2024,124.750214149178,15.859861559317
$GNGGA,180018.50,3521.48335141,N,12053.83300499,W,2,11,0.9,5.766,M,-35.036,M,5.4,0131*6E
$PYRTM,2024,124.750214149178,15.859861559317
$GNHDT,246.819,T*2B
$PYRTM,2024,124.750219981123,15.859867391262
$GNGGA,180019.00,3521.48323937,N,12053.83317806,W,2,11,0.9,5.885,M,-35.036,M,6.0,0131*6D
$PYRTM,2024,124.750219981123,15.859867391262
$GNHDT,246.797,T*22
$PYRTM,2024,124.750225724352,15.859873134491
$GNGGA,180019.50,3521.48315780,N,12053.83335010,W,2,11,0.9,6.013,M,-35.036,M,6.4,0131*60
$PYRTM,2024,124.750225724352,15.859873134491
$GNHDT,246.721,T*2F
$PYRTM,2024,124.750231559063,15.859878969201
$GNGGA,180020.00,3521.48312348,N,12053.83353552,W,2,11,0.9,6.129,M,-35.036,M,7.0,0131*66
$PYRTM,2024,124.750231559063,15.859878969201
$GNHDT,246.698,T*2C
$PYRTM,2024,124.750237293380,15.859884703519
$GNGGA,180020.50,3521.48314044,N,12053.83373996,W,2,11,0.9,6.183,M,-35.036,M,7.4,0131*68
$PYRTM,2024,124.750237293380,15.859884703519
$GNHDT,246.975,T*20
$PYRTM,2024,124.750243131910,15.859890542049
$GNGGA,180021.00,3521.48320401,N,12053.83397074,W,2,11,0.9,6.169,M,-35.036,M,7.0,0131*61
$PYRTM,2024,124.750243131910,15.859890542049
$GNHDT,246.996,T*2D
$PYRTM,2024,124.750248869097,15.859896279248
$GNGGA,180021.50,3521.48327901,N,12053.83421261,W,2,11,0.9,6.105,M,-35.036,M,7.4,0131*6C
$PYRTM,2024,124.750248869097,15.859896279248
$GNHDT,246.865,T*20
$PYRTM,2024,124.750254705706,15.859902115845
$GNGGA,180022.00,3521.48334814,N,12053.83446883,W,2,11,0.9,6.011,M,-35.036,M,7.0,0131*6A
$PYRTM,2024,124.750254705706,15.859902115845
$GNHDT,246.671,T*2B
$PYRTM,2024,124.750260443831,15.859907853970
$GNGGA,180022.50,3521.48337492,N,12053.83469864,W,2,11,0.9,5.940,M,-35.036,M,7.4,0131*60
$PYRTM,2024,124.750260443831,15.859907853970
$GNHDT,246.732,T*2D
$PYRTM,2024,124.750266278646,15.859913688785
$GNGGA,180023.00,3521.48334500,N,12053.83489999,W,2,11,0.9,5.909,M,-35.036,M,4.0,0131*6A
$PYRTM,2024,124.750266278646,15.859913688785
$GNHDT,246.776,T*2D
$PYRTM,2024,124.750272015764,15.859919425903
$GNGGA,180023.50,3521.48327163,N,12053.83506834,W,2,11,0.9,5.931,M,-35.036,M,4.4,0131*63
$PYRTM,2024,124.750272015764,15.859919425903
$GNHDT,246.634,T*2A
$PYRTM,2024,124.750277852847,15.859925262986
$GNGGA,180024.00,3521.48316132,N,12053.83522126,W,2,11,0.9,5.982,M,-35.036,M,5.0,0131*66
$PYRTM,2024,124.750277852847,15.859925262986
$GNHDT,246.834,T*24
$PYRTM,2024,124.750283591690,15.859931001829
$GNGGA,180024.50,3521.48305792,N,12053.83537181,W,2,11,0.9,6.037,M,-35.036,M,5.4,0131*64
$PYRTM,2024,124.750283591690,15.859931001829
$GNHDT,246.979,T*2C
$PYRTM,2024,124.750289425359,15.859936835498
$GNGGA,180025.00,3521.48299133,N,12053.83553673,W,2,11,0.9,6.091,M,-35.036,M,6.0,0131*6A
$PYRTM,2024,124.750289425359,15.859936835498
$GNHDT,246.957,T*20
$PYRTM,2024,124.750295166852,15.859942576991
$GNGGA,180025.50,3521.48297022,N,12053.83572431,W,2,11,0.9,6.133,M,-35.036,M,6.4,0131*6A
$PYRTM,2024,124.750295166852,15.859942576991
$GNHDT,246.679,T*23
$PYRTM,2024,124.750301001065,15.859948411204
$GNGGA,180026.00,3521.48299518,N,12053.83594626,W,2,11,0.9,6.138,M,-35.036,M,7.0,0131*6C
$PYRTM,2024,124.750301001065,15.859948411204
$GNHDT,246.581,T*27
$PYRTM,2024,124.750306737951,15.859954148090
$GNGGA,180026.50,3521.48304571,N,12053.83618984,W,2,11,0.9,6.104,M,-35.036,M,7.4,0131*68
$PYRTM,2024,124.750306737951,15.859954148090
$GNHDT,246.575,T*2C
$PYRTM,2024,124.750312574560,15.859959984699
$GNGGA,180027.00,3521.48310115,N,12053.83644791,W,2,11,0.9,6.044,M,-35.036,M,7.0,0131*6D
$PYRTM,2024,124.750312574560,15.859959984699
$GNHDT,246.570,T*29
$PYRTM,2024,124.750318313843,15.859965723981
$GNGGA,180027.50,3521.48314192,N,12053.83670333,W,2,11,0.9,5.960,M,-35.036,M,7.4,0131*60
$PYRTM,2024,124.750318313843,15.859965723981
$GNHDT,246.192,T*21
$PYRTM,2024,124.750324148704,15.859971558843
$GNGGA,180028.00,3521.48314052,N,12053.83693283,W,2,11,0.9,5.909,M,-35.036,M,7.0,0131*6B
$PYRTM,2024,124.750324148704,15.859971558843
$GNHDT,246.220,T*2B
$PYRTM,2024,124.750329889421,15.859977299560
$GNGGA,180028.50,3521.48309788,N,12053.83713124,W,2,11,0.9,5.916,M,-35.036,M,7.4,0131*6F
$PYRTM,2024,124.750329889421,15.859977299560
$GNHDT,246.470,T*28
$PYRTM,2024,124.750335723241,15.859983133380
$GNGGA,180029.00,3521.48301452,N,12053.83729710,W,2,11,0.9,5.960,M,-35.036,M,4.0,0131*69
$PYRTM,2024,124.750335723241,15.859983133380
$GNHDT,246.547,T*2D
$PYRTM,2024,124.750341460961,15.859988871100
$GNGGA,180029.50,3521.48291404,N,12053.83745573,W,2,11,0.9,6.018,M,-35.036,M,4.4,0131*6B
$PYRTM,2024,124.750341460961,15.859988871100
$GNHDT,246.577,T*2E
$PYRTM,2024,124.750347300324,15.859994710463
$GNGGA,180030.00,3521.48281762,N,12053.83762032,W,2,11,0.9,6.070,M,-35.036,M,5.0,0131*6A
$PYRTM,2024,124.750347300324,15.859994710463
$GNHDT,246.432,T*2E
$PYRTM,2024,124.750353042384,15.860000452523
$GNGGA,180030.50,3521.48275814,N,12053.83780995,W,2,11,0.9,6.092,M,-35.036,M,5.4,0131*6A
$PYRTM,2024,124.750353042384,15.860000452523
$GNHDT,246.447,T*2C
$PYRTM,2024,124.750358873032,15.860006283171
$GNGGA,180031.00,3521.48273948,N,12053.83802063,W,2,11,0.9,6.082,M,-35.036,M,6.0,0131*63
$PYRTM,2024,124.750358873032,15.860006283171
$GNHDT,246.289,T*28
$PYRTM,2024,124.750364608634,15.860012018773
$GNGGA,180031.50,3521.48276199,N,12053.83825155,W,2,11,0.9,6.067,M,-35.036,M,6.4,0131*69
$PYRTM,2024,124.750364608634,15.860012018773
$GNHDT,246.447,T*2C
$PYRTM,2024,124.750370443993,15.860017854144
$GNGGA,180032.00,3521.48280760,N,12053.83849255,W,2,11,0.9,6.026,M,-35.036,M,7.0,0131*6F
$PYRTM,2024,124.750370443993,15.860017854144
$GNHDT,246.556,T*2D
$PYRTM,2024,124.750376186296,15.860023596435
$GNGGA,180032.50,3521.48286051,N,12053.83872441,W,2,11,0.9,6.007,M,-35.036,M,7.4,0131*65
$PYRTM,2024,124.750376186296,15.860023596435
$GNHDT,246.668,T*23
$PYRTM,2024,124.750382021470,15.860029431609
$GNGGA,180033.00,3521.48289956,N,12053.83894312,W,2,11,0.9,6.011,M,-35.036,M,7.0,0131*6A
$PYRTM,2024,124.750382021470,15.860029431609
$GNHDT,246.494,T*22
$PYRTM,2024,124.750387756921,15.860035167060
$GNGGA,180033.50,3521.48290819,N,12053.83914202,W,2,11,0.9,6.054,M,-35.036,M,7.4,0131*61
$PYRTM,2024,124.750387756921,15.860035167060
$GNHDT,246.297,T*27
$PYRTM,2024,124.750393596609,15.860041006748
$GNGGA,180034.00,3521.48287504,N,12053.83932467,W,2,11,0.9,6.115,M,-35.036,M,7.0,0131*65
$PYRTM,2024,124.750393596609,15.860041006748
$GNHDT,246.297,T*27
$PYRTM,2024,124.750399334120,15.860046744259
$GNGGA,180034.50,3521.48281376,N,12053.83950841,W,2,11,0.9,6.157,M,-35.036,M,7.4,0131*6B
$PYRTM,2024,124.750399334120,15.860046744259
$GNHDT,246.346,T*2A
$PYRTM,2024,124.750405174178,15.860052584317
$GNGGA,180035.00,3521.48272599,N,12053.83969995,W,2,11,0.9,6.151,M,-35.036,M,4.0,0131*67
$PYRTM,2024,124.750405174178,15.860052584317
$GNHDT,246.290,T*20
$PYRTM,2024,124.750410904479,15.860058314618
$GNGGA,180035.50,3521.48263487,N,12053.83990198,W,2,11,0.9,6.101,M,-35.037,M,4.4,0131*6F
$PYRTM,2024,124.750410904479,15.860058314618
$GNHDT,245.914,T*24
$PYRTM,2024,124.750416741377,15.860064151516
$GNGGA,180036.00,3521.48256973,N,12053.84011567,W,2,11,0.9,6.018,M,-35.037,M,5.0,0131*66
$PYRTM,2024,124.750416741377,15.860064151516
$GNHDT,246.298,T*28
$PYRTM,2024,124.750422481736,15.860069891875
$GNGGA,180036.50,3521.48254043,N,12053.84033566,W,2,11,0.9,5.938,M,-35.037,M,5.4,0131*66
$PYRTM,2024,124.750422481736,15.860069891875
$GNHDT,246.518,T*27
$PYRTM,2024,124.750428313611,15.860075723762
$GNGGA,180037.00,3521.48255004,N,12053.84055035,W,2,11,0.9,5.879,M,-35.037,M,6.0,0131*60
$PYRTM,2024,124.750428313611,15.860075723762
$GNHDT,246.335,T*2E
$PYRTM,2024,124.750434055926,15.860081466065
$GNGGA,180037.50,3521.48258315,N,12053.84074763,W,2,11,0.9,5.903,M,-35.037,M,6.4,0131*64
$PYRTM,2024,124.750434055926,15.860081466065
$GNHDT,246.297,T*27
$PYRTM,2024,124.750439888912,15.860087299051
$GNGGA,180038.00,3521.48262221,N,12053.84093090,W,2,11,0.9,6.003,M,-35.037,M,7.0,0131*6C
$PYRTM,2024,124.750439888912,15.860087299051
$GNHDT,246.034,T*2C
$PYRTM,2024,124.750445626562,15.860093036701
$GNGGA,180038.50,3521.48263853,N,12053.84110687,W,2,11,0.9,6.112,M,-35.037,M,7.4,0131*68
$PYRTM,2024,124.750445626562,15.860093036701
$GNHDT,245.623,T*2F
$PYRTM,2024,124.750451466563,15.860098876701
$GNGGA,180039.00,3521.48261566,N,12053.84129482,W,2,11,0.9,6.199,M,-35.037,M,7.0,0131*6F
$PYRTM,2024,124.750451466563,15.860098876701
$GNHDT,245.586,T*23
$PYRTM,2024,124.750457203993,15.860104614132
$GNGGA,180039.50,3521.48255832,N,12053.84150011,W,2,11,0.9,6.222,M,-35.037,M,7.4,0131*66
$PYRTM,2024,124.750457203993,15.860104614132
$GNHDT,245.676,T*2F
$PYRTM,2024,124.750463040324,15.860110450463
$GNGGA,180040.00,3521.48247071,N,12053.84170499,W,2,11,0.9,6.150,M,-35.037,M,7.0,0131*65
$PYRTM,2024,124.750463040324,15.860110450463
$GNHDT,245.821,T*23
$PYRTM,2024,124.750468776181,15.860116186319
$GNGGA,180040.50,3521.48237580,N,12053.84189088,W,2,11,0.9,6.065,M,-35.037,M,7.4,0131*6D
$PYRTM,2024,124.750468776181,15.860116186319
$GNHDT,246.028,T*21
$PYRTM,2024,124.750474615231,15.860122025382
$GNGGA,180041.00,3521.48230069,N,12053.84205803,W,2,11,0.9,5.983,M,-35.037,M,4.0,0131*65
$PYRTM,2024,124.750474615231,15.860122025382
$GNHDT,246.164,T*28
$PYRTM,2024,124.750480349699,15.860127759838
$GNGGA,180041.50,3521.48226712,N,12053.84220613,W,2,11,0.9,5.965,M,-35.037,M,4.4,0131*68
$PYRTM,2024,124.750480349699,15.860127759838
$GNHDT,245.999,T*21
$PYRTM,2024,124.750486188079,15.860133598218
$GNGGA,180042.00,3521.48226864,N,12053.84235640,W,2,11,0.9,5.997,M,-35.037,M,5.0,0131*6A
$PYRTM,2024,124.750486188079,15.860133598218
$GNHDT,245.841,T*25
$PYRTM,2024,124.750491926933,15.860139337072
$GNGGA,180042.50,3521.48229441,N,12053.84253372,W,2,11,0.9,6.029,M,-35.037,M,5.4,0131*64
$PYRTM,2024,124.750491926933,15.860139337072
$GNHDT,245.750,T*2A
$PYRTM,2024,124.750497763206,15.860145173345
$GNGGA,180043.00,3521.48231999,N,12053.84274336,W,2,11,0.9,6.034,M,-35.037,M,6.0,0131*6F
$PYRTM,2024,124.750497763206,15.860145173345
$GNHDT,245.651,T*2A
$PYRTM,2024,124.750503498461,15.860150908600
$GNGGA,180043.50,3521.48232944,N,12053.84299020,W,2,11,0.9,5.959,M,-35.037,M,6.4,0131*6B
$PYRTM,2024,124.750503498461,15.860150908600
$GNHDT,245.743,T*28
$PYRTM,2024,124.750509336991,15.860156747130
$GNGGA,180044.00,3521.48230013,N,12053.84324569,W,2,11,0.9,5.844,M,-35.037,M,7.0,0131*67
$PYRTM,2024,124.750509336991,15.860156747130
$GNHDT,245.498,T*2D
$PYRTM,2024,124.750515070255,15.860162480394
$GNGGA,180044.50,3521.48224609,N,12053.84348036,W,2,11,0.9,5.771,M,-35.037,M,7.4,0131*62
$PYRTM,2024,124.750515070255,15.860162480394
$GNHDT,245.575,T*2F
$PYRTM,2024,124.750520908310,15.860168318449
$GNGGA,180045.00,3521.48217772,N,12053.84367539,W,2,11,0.9,5.779,M,-35.037,M,7.0,0131*60
$PYRTM,2024,124.750520908310,15.860168318449
$GNHDT,245.482,T*26
$PYRTM,2024,124.750526648993,15.860174059132
$GNGGA,180045.50,3521.48211375,N,12053.84383344,W,2,11,0.9,5.890,M,-35.037,M,7.4,0131*6A
$PYRTM,2024,124.750526648993,15.860174059132
$GNHDT,245.496,T*23
$PYRTM,2024,124.750532481470,15.860179891609
$GNGGA,180046.00,3521.48206855,N,12053.84396892,W,2,11,0.9,6.063,M,-35.037,M,7.0,0131*64
$PYRTM,2024,124.750532481470,15.860179891609
$GNHDT,245.516,T*2A
$PYRTM,2024,124.750538223322,15.860185633461
$GNGGA,180046.50,3521.48204503,N,12053.84410915,W,2,11,0.9,6.230,M,-35.037,M,7.4,0131*6A
$PYRTM,2024,124.750538223322,15.860185633461
$GNHDT,245.597,T*23
$PYRTM,2024,124.750544060104,15.860191470243
$GNGGA,180047.00,3521.48204052,N,12053.84427682,W,2,11,0.9,6.323,M,-35.037,M,4.0,0131*6E
$PYRTM,2024,124.750544060104,15.860191470243
$GNHDT,245.651,T*2A
$PYRTM,2024,124.750549792755,15.860197202894
$GNGGA,180047.50,3521.48203860,N,12053.84448259,W,2,11,0.9,6.307,M,-35.037,M,4.4,0131*6C
$PYRTM,2024,124.750549792755,15.860197202894
$GNHDT,245.344,T*2B
$PYRTM,2024,124.750555634028,15.860203044167
$GNGGA,180048.00,3521.48203424,N,12053.84472726,W,2,11,0.9,6.154,M,-35.037,M,5.0,0131*6F
$PYRTM,2024,124.750555634028,15.860203044167
$GNHDT,245.485,T*21
$PYRTM,2024,124.750561370961,15.860208781100
$GNGGA,180048.50,3521.48201979,N,12053.84498055,W,2,11,0.9,5.943,M,-35.037,M,5.4,0131*63
$PYRTM,2024,124.750561370961,15.860208781100
$GNHDT,245.350,T*2E
$PYRTM,2024,124.750567202813,15.860214612951
$GNGGA,180049.00,3521.48199882,N,12053.84522616,W,2,11,0.9,5.712,M,-35.037,M,6.0,0131*6C
$PYRTM,2024,124.750567202813,15.860214612951
$GNHDT,245.322,T*2B
$PYRTM,2024,124.750572942558,15.860220352697
$GNGGA,180049.50,3521.48196316,N,12053.84543480,W,2,11,0.9,5.589,M,-35.037,M,6.4,0131*6E
$PYRTM,2024,124.750572942558,15.860220352697
$GNHDT,245.407,T*2B
$PYRTM,2024,124.750578782037,15.860226192176
$GNGGA,180050.00,3521.48192034,N,12053.84560665,W,2,11,0.9,5.601,M,-35.037,M,7.0,0131*6A
$PYRTM,2024,124.750578782037,15.860226192176
$GNHDT,245.482,T*26
$PYRTM,2024,124.750584518785,15.860231928924
$GNGGA,180050.50,3521.48188239,N,12053.84575210,W,2,11,0.9,5.740,M,-35.037,M,7.4,0131*69
$PYRTM,2024,124.750584518785,15.860231928924
$GNHDT,245.292,T*21
$PYRTM,2024,124.750590355023,15.860237765162
$GNGGA,180051.00,3521.48184433,N,12053.84587340,W,2,11,0.9,5.977,M,-35.037,M,7.0,0131*6A
$PYRTM,2024,124.750590355023,15.860237765162
$GNHDT,245.224,T*2C
$PYRTM,2024,124.750596089757,15.860243499896
$GNGGA,180051.50,3521.48181418,N,12053.84601094,W,2,11,0.9,6.201,M,-35.037,M,7.4,0131*69
$PYRTM,2024,124.750596089757,15.860243499896
$GNHDT,245.239,T*20
$PYRTM,2024,124.750601928727,15.860249338866
$GNGGA,180052.00,3521.48178592,N,12053.84618949,W,2,11,0.9,6.338,M,-35.037,M,7.0,0131*64
$PYRTM,2024,124.750601928727,15.860249338866
$GNHDT,244.902,T*22
$PYRTM,2024,124.750607663426,15.860255073565
$GNGGA,180052.50,3521.48175975,N,12053.84641436,W,2,11,0.9,6.317,M,-35.037,M,7.4,0131*69
$PYRTM,2024,124.750607663426,15.860255073565
$GNHDT,244.894,T*2C
$PYRTM,2024,124.750613502095,15.860260912234
$GNGGA,180053.00,3521.48171928,N,12053.84665392,W,2,11,0.9,6.145,M,-35.037,M,4.0,0131*6C
$PYRTM,2024,124.750613502095,15.860260912234
$GNHDT,244.837,T*25
$PYRTM,2024,124.750619237639,15.860266647778
$GNGGA,180053.50,3521.48167901,N,12053.84688378,W,2,11,0.9,5.927,M,-35.037,M,4.4,0131*69
$PYRTM,2024,124.750619237639,15.860266647778
$GNHDT,245.072,T*2D
$PYRTM,2024,124.750625073252,15.860272483391
$GNGGA,180054.00,3521.48164752,N,12053.84707970,W,2,11,0.9,5.752,M,-35.037,M,5.0,0131*6D
$PYRTM,2024,124.750625073252,15.860272483391
$GNHDT,245.189,T*28
$PYRTM,2024,124.750630809687,15.860278219826
$GNGGA,180054.50,3521.48162051,N,12053.84723752,W,2,11,0.9,5.700,M,-35.037,M,5.4,0131*61
$PYRTM,2024,124.750630809687,15.860278219826
$GNHDT,245.395,T*27
$PYRTM,2024,124.750636651285,15.860284061424
$GNGGA,180055.00,3521.48160267,N,12053.84736659,W,2,11,0.9,5.764,M,-35.037,M,6.0,0131*6B
$PYRTM,2024,124.750636651285,15.860284061424
$GNHDT,245.234,T*2D
$PYRTM,2024,124.750642390162,15.860289800301
$GNGGA,180055.50,3521.48158762,N,12053.84749415,W,2,11,0.9,5.896,M,-35.037,M,6.4,0131*61
$PYRTM,2024,124.750642390162,15.860289800301
$GNHDT,244.962,T*24
$PYRTM,2024,124.750648226609,15.860295636748
$GNGGA,180056.00,3521.48156857,N,12053.84764316,W,2,11,0.9,6.041,M,-35.037,M,7.0,0131*6F
$PYRTM,2024,124.750648226609,15.860295636748
$GNHDT,244.902,T*22
$PYRTM,2024,124.750653959780,15.860301369919
$GNGGA,180056.50,3521.48155051,N,12053.84783365,W,2,11,0.9,6.129,M,-35.037,M,7.4,0131*61
$PYRTM,2024,124.750653959780,15.860301369919
$GNHDT,244.901,T*21
$PYRTM,2024,124.750659802975,15.860307213113
$GNGGA,180057.00,3521.48153173,N,12053.84805568,W,2,11,0.9,6.147,M,-35.037,M,7.0,0131*64
$PYRTM,2024,124.750659802975,15.860307213113
$GNHDT,244.842,T*27
$PYRTM,2024,124.750665538380,15.860312948519
$GNGGA,180057.50,3521.48150176,N,12053.84827825,W,2,11,0.9,6.110,M,-35.037,M,7.4,0131*65
$PYRTM,2024,124.750665538380,15.860312948519
$GNHDT,244.506,T*2A
$PYRTM,2024,124.750671369560,15.860318779699
$GNGGA,180058.00,3521.48145556,N,12053.84848649,W,2,11,0.9,6.058,M,-35.037,M,7.0,0131*69
$PYRTM,2024,124.750671369560,15.860318779699
$GNHDT,244.486,T*23
$PYRTM,2024,124.750677108970,15.860324519109
$GNGGA,180058.50,3521.48141365,N,12053.84866982,W,2,11,0.9,6.028,M,-35.037,M,7.4,0131*69
$PYRTM,2024,124.750677108970,15.860324519109
$GNHDT,244.634,T*28
$PYRTM,2024,124.750682945278,15.860330355417
$GNGGA,180059.00,3521.48137045,N,12053.84882848,W,2,11,0.9,6.039,M,-35.037,M,4.0,0131*67
$PYRTM,2024,124.750682945278,15.860330355417
$GNHDT,244.614,T*2A
$PYRTM,2024,124.750688683623,15.860336093762
$GNGGA,180059.50,3521.48133661,N,12053.84897726,W,2,11,0.9,6.061,M,-35.037,M,4.4,0131*6C
$PYRTM,2024,124.750688683623,15.860336093762
$GNHDT,244.464,T*2F
$PYRTM,2024,124.750694526725,15.860341936863
$GNGGA,180100.00,3521.48131131,N,12053.84913769,W,2,11,0.9,6.075,M,-35.037,M,5.0,0131*62
$PYRTM,2024,124.750694526725,15.860341936863
$GNHDT,244.429,T*26
$PYRTM,2024,124.750700255613,15.860347665752
$GNGGA,180100.50,3521.48130065,N,12053.84932186,W,2,11,0.9,6.065,M,-35.037,M,5.4,0131*67
$PYRTM,2024,124.750700255613,15.860347665752
$GNHDT,244.444,T*2D
$PYRTM,2024,124.750706094051,15.860353504190
$GNGGA,180101.00,3521.48128353,N,12053.84951501,W,2,11,0.9,6.005,M,-35.037,M,6.0,0131*63
$PYRTM,2024,124.750706094051,15.860353504190
$GNHDT,244.466,T*2D
$PYRTM,2024,124.750711832245,15.860359242384
$GNGGA,180101.50,3521.48127028,N,12053.84971036,W,2,11,0.9,5.945,M,-35.037,M,6.4,0131*6F
$PYRTM,2024,124.750711832245,15.860359242384
$GNHDT,244.524,T*2A
$PYRTM,2024,124.750717669421,15.860365079560
$GNGGA,180102.00,3521.48124896,N,12053.84988581,W,2,11,0.9,5.906,M,-35.037,M,7.0,0131*6A
$PYRTM,2024,124.750717669421,15.860365079560
$GNHDT,244.555,T*2C
$PYRTM,2024,124.750723403461,15.860370813600
$GNGGA,180102.50,3521.48122682,N,12053.85004681,W,2,11,0.9,5.918,M,-35.037,M,7.4,0131*66
$PYRTM,2024,124.750723403461,15.860370813600
$GNHDT,244.656,T*2C
$PYRTM,2024,124.750729243252,15.860376653391
$GNGGA,180103.00,3521.48119595,N,12053.85020213,W,2,11,0.9,5.949,M,-35.037,M,7.0,0131*66
$PYRTM,2024,124.750729243252,15.860376653391
$GNHDT,244.420,T*2F
$PYRTM,2024,124.750734980868,15.860382391007
$GNGGA,180103.50,3521.48116153,N,12053.85037390,W,2,11,0.9,5.965,M,-35.037,M,7.4,0131*64
$PYRTM,2024,124.750734980868,15.860382391007
$GNHDT,244.192,T*23
$PYRTM,2024,124.750740818067,15.860388228206
$GNGGA,180104.00,3521.48111527,N,12053.85056228,W,2,11,0.9,5.939,M,-35.037,M,7.0,0131*6E
$PYRTM,2024,124.750740818067,15.860388228206
$GNHDT,244.023,T*28
$PYRTM,2024,124.750746553287,15.860393963426
$GNGGA,180104.50,3521.48106699,N,12053.85076740,W,2,11,0.9,5.889,M,-35.037,M,7.4,0131*6C
$PYRTM,2024,124.750746553287,15.860393963426
$GNHDT,244.164,T*2A
$PYRTM,2024,124.750752388889,15.860399799028
$GNGGA,180105.00,3521.48102928,N,12053.85097889,W,2,11,0.9,5.863,M,-35.037,M,4.0,0131*6F
$PYRTM,2024,124.750752388889,15.860399799028
$GNHDT,244.190,T*21
$PYRTM,2024,124.750758124734,15.860405534873
$GNGGA,180105.50,3521.48098924,N,12053.85117089,W,2,11,0.9,5.878,M,-35.037,M,4.4,0131*6B
$PYRTM,2024,124.750758124734,15.860405534873
$GNHDT,244.406,T*2B
$PYRTM,2024,124.750763965822,15.860411375961
$GNGGA,180106.00,3521.48094971,N,12053.85133915,W,2,11,0.9,5.955,M,-35.037,M,5.0,0131*60
$PYRTM,2024,124.750763965822,15.860411375961
$GNHDT,244.206,T*2D
$PYRTM,2024,124.750769702141,15.860417112280
$GNGGA,180106.50,3521.48091131,N,12053.85149695,W,2,11,0.9,6.041,M,-35.037,M,5.4,0131*6D
$PYRTM,2024,124.750769702141,15.860417112280
$GNHDT,244.099,T*29
$PYRTM,2024,124.750775539329,15.860422949468
$GNGGA,180107.00,3521.48088194,N,12053.85166329,W,2,11,0.9,6.125,M,-35.037,M,6.0,0131*65
$PYRTM,2024,124.750775539329,15.860422949468
$GNHDT,243.943,T*20
$PYRTM,2024,124.750781275035,15.860428685174
$GNGGA,180107.50,3521.48086506,N,12053.85185317,W,2,11,0.9,6.160,M,-35.037,M,6.4,0131*64
$PYRTM,2024,124.750781275035,15.860428685174
$GNHDT,244.112,T*2B
$PYRTM,2024,124.750787111100,15.860434521238
$GNGGA,180108.00,3521.48084809,N,12053.85205240,W,2,11,0.9,6.150,M,-35.037,M,7.0,0131*60
$PYRTM,2024,124.750787111100,15.860434521238
$GNHDT,244.108,T*20
$PYRTM,2024,124.750792848495,15.860440258634
$GNGGA,180108.50,3521.48082453,N,12053.85224175,W,2,11,0.9,6.135,M,-35.037,M,7.4,0131*61
$PYRTM,2024,124.750792848495,15.860440258634
$GNHDT,243.943,T*20
$PYRTM,2024,124.750798689120,15.860446099259
$GNGGA,180109.00,3521.48078756,N,12053.85241170,W,2,11,0.9,6.131,M,-35.037,M,7.0,0131*60
$PYRTM,2024,124.750798689120,15.860446099259
$GNHDT,243.959,T*2B
$PYRTM,2024,124.750804423634,15.860451833773
$GNGGA,180109.50,3521.48073963,N,12053.85256707,W,2,11,0.9,6.144,M,-35.037,M,7.4,0131*60
$PYRTM,2024,124.750804423634,15.860451833773
$GNHDT,244.039,T*23
$PYRTM,2024,124.750810262060,15.860457672199
$GNGGA,180110.00,3521.48068207,N,12053.85271885,W,2,11,0.9,6.148,M,-35.037,M,7.0,0131*66
$PYRTM,2024,124.750810262060,15.860457672199
$GNHDT,243.718,T*20
$PYRTM,2024,124.750816001053,15.860463411192
$GNGGA,180110.50,3521.48062553,N,12053.85288297,W,2,11,0.9,6.119,M,-35.037,M,7.4,0131*60
$PYRTM,2024,124.750816001053,15.860463411192
$GNHDT,243.816,T*21
$PYRTM,2024,124.750821834190,15.860469244329
$GNGGA,180111.00,3521.48060000,N,12053.85309172,W,2,11,0.9,6.085,M,-35.037,M,4.0,0131*66
$PYRTM,2024,124.750821834190,15.860469244329
$GNHDT,243.908,T*2F
$PYRTM,2024,124.750827571169,15.860474981308
$GNGGA,180111.50,3521.48055759,N,12053.85327654,W,2,11,0.9,5.989,M,-35.037,M,4.4,0131*63
$PYRTM,2024,124.750827571169,15.860474981308
$GNHDT,243.928,T*2D
$PYRTM,2024,124.750833412535,15.860480822685
$GNGGA,180112.00,3521.48054266,N,12053.85346627,W,2,11,0.9,5.960,M,-35.037,M,5.0,0131*6C
$PYRTM,2024,124.750833412535,15.860480822685
$GNHDT,244.262,T*2F
$PYRTM,2024,124.750839147396,15.860486557535
$GNGGA,180112.50,3521.48053614,N,12053.85363375,W,2,11,0.9,6.007,M,-35.037,M,5.4,0131*65
$PYRTM,2024,124.750839147396,15.860486557535
$GNHDT,244.277,T*2B
$PYRTM,2024,124.750844985880,15.860492396019
$GNGGA,180113.00,3521.48053753,N,12053.85378721,W,2,11,0.9,6.158,M,-35.037,M,6.0,0131*60
$PYRTM,2024,124.750844985880,15.860492396019
$GNHDT,244.109,T*21
$PYRTM,2024,124.750850718970,15.860498129109
$GNGGA,180113.50,3521.48053259,N,12053.85392913,W,2,11,0.9,6.320,M,-35.037,M,6.4,0131*68
$PYRTM,2024,124.750850718970,15.860498129109
$GNHDT,244.089,T*28
$PYRTM,2024,124.750856560891,15.860503971030
$GNGGA,180114.00,3521.48049593,N,12053.85405789,W,2,11,0.9,6.452,M,-35.037,M,7.0,0131*63
$PYRTM,2024,124.750856560891,15.860503971030
$GNHDT,243.982,T*2D
$PYRTM,2024,124.750862298484,15.860509708623
$GNGGA,180114.50,3521.48043875,N,12053.85419700,W,2,11,0.9,6.518,M,-35.037,M,7.4,0131*6E
$PYRTM,2024,124.750862298484,15.860509708623
$GNHDT,243.466,T*2A
$PYRTM,2024,124.750868132998,15.860515543137
$GNGGA,180115.00,3521.48035735,N,12053.85434429,W,2,11,0.9,6.460,M,-35.037,M,7.0,0131*6D
$PYRTM,2024,124.750868132998,15.860515543137
$GNHDT,243.330,T*2E
$PYRTM,2024,124.750873869965,15.860521280104
$GNGGA,180115.50,3521.48027337,N,12053.85450929,W,2,11,0.9,6.333,M,-35.037,M,7.4,0131*67
$PYRTM,2024,124.750873869965,15.860521280104
$GNHDT,243.435,T*2C
$PYRTM,2024,124.750879703924,15.860527114062
$GNGGA,180116.00,3521.48020418,N,12053.85468896,W,2,11,0.9,6.164,M,-35.037,M,7.0,0131*66
$PYRTM,2024,124.750879703924,15.860527114062
$GNHDT,243.655,T*28
$PYRTM,2024,124.750885441840,15.860532851979
$GNGGA,180116.50,3521.48015913,N,12053.85485437,W,2,11,0.9,6.002,M,-35.037,M,7.4,0131*62
$PYRTM,2024,124.750885441840,15.860532851979
$GNHDT,243.687,T*27
$PYRTM,2024,124.750891277986,15.860538688125
$GNGGA,180117.00,3521.48014910,N,12053.85501371,W,2,11,0.9,5.901,M,-35.037,M,4.0,0131*62
$PYRTM,2024,124.750891277986,15.860538688125
$GNHDT,243.755,T*29
$PYRTM,2024,124.750897015741,15.860544425880
$GNGGA,180117.50,3521.48016495,N,12053.85517039,W,2,11,0.9,5.873,M,-35.037,M,4.4,0131*6D
$PYRTM,2024,124.750897015741,15.860544425880
$GNHDT,243.898,T*27
$PYRTM,2024,124.750902855428,15.860550265567
$GNGGA,180118.00,3521.48019322,N,12053.85533895,W,2,11,0.9,5.917,M,-35.037,M,5.0,0131*6D
$PYRTM,2024,124.750902855428,15.860550265567
$GNHDT,243.837,T*22
$PYRTM,2024,124.750908591111,15.860556001250
$GNGGA,180118.50,3521.48021315,N,12053.85552902,W,2,11,0.9,5.980,M,-35.037,M,5.4,0131*65
$PYRTM,2024,124.750908591111,15.860556001250
$GNHDT,243.940,T*23
$PYRTM,2024,124.750914428310,15.860561838449
$GNGGA,180119.00,3521.48020535,N,12053.85573994,W,2,11,0.9,6.040,M,-35.037,M,6.0,0131*69
$PYRTM,2024,124.750914428310,15.860561838449
$GNHDT,243.922,T*27
$PYRTM,2024,124.750920164190,15.860567574329
$GNGGA,180119.50,3521.48015522,N,12053.85594706,W,2,11,0.9,6.096,M,-35.037,M,6.4,0131*6F
$PYRTM,2024,124.750920164190,15.860567574329
$GNHDT,243.822,T*26
$PYRTM,2024,124.750925999444,15.860573409583
$GNGGA,180120.00,3521.48007254,N,12053.85613934,W,2,11,0.9,6.178,M,-35.037,M,7.0,0131*62
$PYRTM,2024,124.750925999444,15.860573409583
$GNHDT,243.781,T*20
$PYRTM,2024,124.750931741968,15.860579152106
$GNGGA,180120.50,3521.47997750,N,12053.85629667,W,2,11,0.9,6.274,M,-35.037,M,7.4,0131*62
$PYRTM,2024,124.750931741968,15.860579152106
$GNHDT,243.513,T*29
$PYRTM,2024,124.750937574178,15.860584984317
$GNGGA,180121.00,3521.47989544,N,12053.85642418,W,2,11,0.9,6.401,M,-35.037,M,7.0,0131*69
$PYRTM,2024,124.750937574178,15.860584984317
$GNHDT,243.739,T*23
$PYRTM,2024,124.750943312627,15.860590722766
$GNGGA,180121.50,3521.47984212,N,12053.85654108,W,2,11,0.9,6.504,M,-35.037,M,7.4,0131*66
$PYRTM,2024,124.750943312627,15.860590722766
$GNHDT,243.862,T*22
$PYRTM,2024,124.750949147720,15.860596557859
$GNGGA,180122.00,3521.47981452,N,12053.85666397,W,2,11,0.9,6.551,M,-35.037,M,7.0,0131*66
$PYRTM,2024,124.750949147720,15.860596557859
$GNHDT,244.045,T*28
$PYRTM,2024,124.750954886551,15.860602296690
$GNGGA,180122.50,3521.47980588,N,12053.85681879,W,2,11,0.9,6.506,M,-35.037,M,7.4,0131*60
$PYRTM,2024,124.750954886551,15.860602296690
$GNHDT,243.903,T*24
$PYRTM,2024,124.750960724016,15.860608134155
$GNGGA,180123.00,3521.47980648,N,12053.85701617,W,2,11,0.9,6.370,M,-35.037,M,4.0,0131*64
$PYRTM,2024,124.750960724016,15.860608134155
$GNHDT,243.994,T*2A
$PYRTM,2024,124.750966459468,15.860613869606
$GNGGA,180123.50,3521.47980719,N,12053.85723881,W,2,11,0.9,6.178,M,-35.038,M,4.4,0131*64
$PYRTM,2024,124.750966459468,15.860613869606
$GNHDT,244.229,T*20
$PYRTM,2024,124.750972295394,15.860619705532
$GNGGA,180124.00,3521.47979076,N,12053.85745370,W,2,11,0.9,6.008,M,-35.038,M,5.0,0131*68
$PYRTM,2024,124.750972295394,15.860619705532
$GNHDT,244.247,T*28
$PYRTM,2024,124.750978033623,15.860625443762
$GNGGA,180124.50,3521.47975806,N,12053.85763699,W,2,11,0.9,5.931,M,-35.038,M,5.4,0131*6C
$PYRTM,2024,124.750978033623,15.860625443762
$GNHDT,244.028,T*23
$PYRTM,2024,124.750983872593,15.860631282731
$GNGGA,180125.00,3521.47969818,N,12053.85777270,W,2,11,0.9,5.969,M,-35.038,M,6.0,0131*66
$PYRTM,2024,124.750983872593,15.860631282731
$GNHDT,244.180,T*20
$PYRTM,2024,124.750989608750,15.860637018889
$GNGGA,180125.50,3521.47963092,N,12053.85788677,W,2,11,0.9,6.101,M,-35.038,M,6.4,0131*61
$PYRTM,2024,124.750989608750,15.860637018889
$GNHDT,244.358,T*27
$PYRTM,2024,124.750995445139,15.860642855278
$GNGGA,180126.00,3521.47956353,N,12053.85799822,W,2,11,0.9,6.268,M,-35.038,M,7.0,0131*68
$PYRTM,2024,124.750995445139,15.860642855278
$GNHDT,244.458,T*20
$PYRTM,2024,124.751001182373,15.860648592512
$GNGGA,180126.50,3521.47952023,N,12053.85813953,W,2,11,0.9,6.378,M,-35.038,M,7.4,0131*63
$PYRTM,2024,124.751001182373,15.860648592512
$GNHDT,244.626,T*2B
$PYRTM,2024,124.751007023218,15.860654433356
$GNGGA,180127.00,3521.47949239,N,12053.85831739,W,2,11,0.9,6.399,M,-35.038,M,7.0,0131*6D
$PYRTM,2024,124.751007023218,15.860654433356
$GNHDT,244.717,T*28
$PYRTM,2024,124.751012759190,15.860660169329
$GNGGA,180127.50,3521.47948055,N,12053.85852552,W,2,11,0.9,6.344,M,-35.038,M,7.4,0131*6F
$PYRTM,2024,124.751012759190,15.860660169329
$GNHDT,244.687,T*20
$PYRTM,2024,124.751018597072,15.860666007211
$GNGGA,180128.00,3521.47946811,N,12053.85873760,W,2,11,0.9,6.256,M,-35.038,M,7.0,0131*65
$PYRTM,2024,124.751018597072,15.860666007211
$GNHDT,244.556,T*2F
$PYRTM,2024,124.751024330694,15.860671740833
$GNGGA,180128.50,3521.47945168,N,12053.85892644,W,2,11,0.9,6.192,M,-35.038,M,7.4,0131*63
$PYRTM,2024,124.751024330694,15.860671740833
$GNHDT,244.312,T*29
$PYRTM,2024,124.751030170718,15.860677580856
$GNGGA,180129.00,3521.47942613,N,12053.85908767,W,2,11,0.9,6.184,M,-35.038,M,4.0,0131*69
$PYRTM,2024,124.751030170718,15.860677580856
$GNHDT,244.362,T*2E
$PYRTM,2024,124.751035903611,15.860683313750
$GNGGA,180129.50,3521.47939397,N,12053.85921569,W,2,11,0.9,6.235,M,-35.038,M,4.4,0131*63
$PYRTM,2024,124.751035903611,15.860683313750
$GNHDT,244.446,T*2F
$PYRTM,2024,124.751041742245,15.860689152384
$GNGGA,180130.00,3521.47935788,N,12053.85932855,W,2,11,0.9,6.307,M,-35.038,M,5.0,0131*6D
$PYRTM,2024,124.751041742245,15.860689152384
$GNHDT,244.561,T*2B
$PYRTM,2024,124.751047479248,15.860694889398
$GNGGA,180130.50,3521.47932396,N,12053.85944399,W,2,11,0.9,6.361,M,-35.038,M,5.4,0131*6A
$PYRTM,2024,124.751047479248,15.860694889398
$GNHDT,244.720,T*2C
$PYRTM,2024,124.751053316829,15.860700726968
$GNGGA,180131.00,3521.47929405,N,12053.85957574,W,2,11,0.9,6.352,M,-35.038,M,6.0,0131*69
$PYRTM,2024,124.751053316829,15.860700726968
$GNHDT,244.929,T*2B
$PYRTM,2024,124.751059051678,15.860706461817
$GNGGA,180131.50,3521.47926166,N,12053.85972663,W,2,11,0.9,6.282,M,-35.038,M,6.4,0131*69
$PYRTM,2024,124.751059051678,15.860706461817
$GNHDT,245.077,T*28
$PYRTM,2024,124.751064889155,15.860712299294
$GNGGA,180132.00,3521.47923028,N,12053.85989621,W,2,11,0.9,6.153,M,-35.038,M,7.0,0131*69
$PYRTM,2024,124.751064889155,15.860712299294
$GNHDT,245.229,T*21
$PYRTM,2024,124.751070625382,15.860718035521
$GNGGA,180132.50,3521.47919736,N,12053.86006989,W,2,11,0.9,6.024,M,-35.038,M,7.4,0131*68
$PYRTM,2024,124.751070625382,15.860718035521
$GNHDT,244.999,T*20
$PYRTM,2024,124.751076464942,15.860723875093
$GNGGA,180133.00,3521.47916187,N,12053.86024546,W,2,11,0.9,5.913,M,-35.038,M,7.0,0131*6A
$PYRTM,2024,124.751076464942,15.860723875093
$GNHDT,244.969,T*2F
$PYRTM,2024,124.751082200255,15.860729610394
$GNGGA,180133.50,3521.47912880,N,12053.86042088,W,2,11,0.9,5.853,M,-35.038,M,7.4,0131*63
$PYRTM,2024,124.751082200255,15.860729610394
$GNHDT,245.180,T*21
$PYRTM,2024,124.751088041875,15.860735452014
$GNGGA,180134.00,3521.47909337,N,12053.86059305,W,2,11,0.9,5.839,M,-35.038,M,7.0,0131*68
$PYRTM,2024,124.751088041875,15.860735452014
$GNHDT,245.182,T*23
$PYRTM,2024,124.751093773391,15.860741183530
$GNGGA,180134.50,3521.47906373,N,12053.86075930,W,2,11,0.9,5.884,M,-35.038,M,7.4,0131*62
$PYRTM,2024,124.751093773391,15.860741183530
$GNHDT,245.361,T*2C
$PYRTM,2024,124.751099612060,15.860747022199
$GNGGA,180135.00,3521.47903964,N,12053.86091581,W,2,11,0.9,5.988,M,-35.038,M,4.0,0131*69
$PYRTM,2024,124.751099612060,15.860747022199
$GNHDT,245.522,T*2D
$PYRTM,2024,124.751105350440,15.860752760579
$GNGGA,180135.50,3521.47902550,N,12053.86105709,W,2,11,0.9,6.132,M,-35.038,M,4.4,0131*66
$PYRTM,2024,124.751105350440,15.860752760579
$GNHDT,245.613,T*2C
$PYRTM,2024,124.751111184988,15.860758595127
$GNGGA,180136.00,3521.47901872,N,12053.86119831,W,2,11,0.9,6.265,M,-35.038,M,5.0,0131*63
$PYRTM,2024,124.751111184988,15.860758595127
$GNHDT,245.613,T*2C
$PYRTM,2024,124.751116925336,15.860764335486
$GNGGA,180136.50,3521.47901457,N,12053.86135645,W,2,11,0.9,6.347,M,-35.038,M,5.4,0131*6B
$PYRTM,2024,124.751116925336,15.860764335486
$GNHDT,245.542,T*2B
$PYRTM,2024,124.751122760127,15.860770170266
$GNGGA,180137.00,3521.47899715,N,12053.86153540,W,2,11,0.9,6.328,M,-35.038,M,6.0,0131*62
$PYRTM,2024,124.751122760127,15.860770170266
$GNHDT,245.405,T*29
$PYRTM,2024,124.751128496713,15.860775906852
$GNGGA,180137.50,3521.47896352,N,12053.86172837,W,2,11,0.9,6.228,M,-35.038,M,6.4,0131*64
$PYRTM,2024,124.751128496713,15.860775906852
$GNHDT,245.572,T*28
$PYRTM,2024,124.751134334456,15.860781744595
$GNGGA,180138.00,3521.47891212,N,12053.86191567,W,2,11,0.9,6.091,M,-35.038,M,7.0,0131*6C
$PYRTM,2024,124.751134334456,15.860781744595
$GNHDT,245.509,T*24
$PYRTM,2024,124.751140071343,15.860787481481
$GNGGA,180138.50,3521.47885590,N,12053.86208313,W,2,11,0.9,5.982,M,-35.038,M,7.4,0131*6B
$PYRTM,2024,124.751140071343,15.860787481481
$GNHDT,245.677,T*2E
$PYRTM,2024,124.751145908900,15.860793319039
$GNGGA,180139.00,3521.47879970,N,12053.86222494,W,2,11,0.9,5.937,M,-35.038,M,7.0,0131*64
$PYRTM,2024,124.751145908900,15.860793319039
$GNHDT,245.819,T*28
$PYRTM,2024,124.751151646690,15.860799056840
$GNGGA,180139.50,3521.47876286,N,12053.86235141,W,2,11,0.9,5.974,M,-35.038,M,7.4,0131*64
$PYRTM,2024,124.751151646690,15.860799056840
$GNHDT,245.982,T*2B
$PYRTM,2024,124.751157480880,15.860804891019
$GNGGA,180140.00,3521.47873769,N,12053.86247555,W,2,11,0.9,6.061,M,-35.038,M,7.0,0131*60
$PYRTM,2024,124.751157480880,15.860804891019
$GNHDT,246.123,T*2B
$PYRTM,2024,124.751163218854,15.860810628993
$GNGGA,180140.50,3521.47872416,N,12053.86261307,W,2,11,0.9,6.134,M,-35.038,M,7.4,0131*6F
$PYRTM,2024,124.751163218854,15.860810628993
$GNHDT,245.643,T*29
$PYRTM,2024,124.751169059988,15.860816470127
$GNGGA,180141.00,3521.47872161,N,12053.86278214,W,2,11,0.9,6.158,M,-35.038,M,4.0,0131*68
$PYRTM,2024,124.751169059988,15.860816470127
$GNHDT,245.903,T*22
$PYRTM,2024,124.751174792824,15.860822202975
$GNGGA,180141.50,3521.47872060,N,12053.86298616,W,2,11,0.9,6.108,M,-35.038,M,4.4,0131*64
$PYRTM,2024,124.751174792824,15.860822202975
$GNHDT,245.975,T*23
$PYRTM,2024,124.751180630660,15.860828040799
$GNGGA,180142.00,3521.47871762,N,12053.86320382,W,2,11,0.9,5.996,M,-35.038,M,5.0,0131*67
$PYRTM,2024,124.751180630660,15.860828040799
$GNHDT,246.065,T*28
$PYRTM,2024,124.751186369109,15.860833779259
$GNGGA,180142.50,3521.47870315,N,12053.86340933,W,2,11,0.9,5.908,M,-35.038,M,5.4,0131*62
$PYRTM,2024,124.751186369109,15.860833779259
$GNHDT,246.402,T*2D
$PYRTM,2024,124.751192209155,15.860839619294
$GNGGA,180143.00,3521.47867432,N,12053.86358040,W,2,11,0.9,5.911,M,-35.038,M,6.0,0131*69
$PYRTM,2024,124.751192209155,15.860839619294
$GNHDT,246.390,T*21
$PYRTM,2024,124.751197940347,15.860845350486
$GNGGA,180143.50,3521.47863053,N,12053.86371230,W,2,11,0.9,6.005,M,-35.038,M,6.4,0131*6E
$PYRTM,2024,124.751197940347,15.860845350486
$GNHDT,246.366,T*28
$PYRTM,2024,124.751203778032,15.860851188171
$GNGGA,180144.00,3521.47858069,N,12053.86381986,W,2,11,0.9,6.166,M,-35.038,M,7.0,0131*65
$PYRTM,2024,124.751203778032,15.860851188171
$GNHDT,246.318,T*21
$PYRTM,2024,124.751209515741,15.860856925891
$GNGGA,180144.50,3521.47852801,N,12053.86392773,W,2,11,0.9,6.317,M,-35.038,M,7.4,0131*6A
$PYRTM,2024,124.751209515741,15.860856925891
$GNHDT,246.225,T*2E
$PYRTM,2024,124.751215355613,15.860862765752
$GNGGA,180145.00,3521.47848536,N,12053.86405526,W,2,11,0.9,6.413,M,-35.038,M,7.0,0131*60
$PYRTM,2024,124.751215355613,15.860862765752
$GNHDT,246.064,T*29
$PYRTM,2024,124.751221088889,15.860868499028
$GNGGA,180145.50,3521.47845974,N,12053.86421486,W,2,11,0.9,6.408,M,-35.038,M,7.4,0131*61
$PYRTM,2024,124.751221088889,15.860868499028
$GNHDT,246.317,T*2E
$PYRTM,2024,124.751226927153,15.860874337292
$GNGGA,180146.00,3521.47845198,N,12053.86439816,W,2,11,0.9,6.319,M,-35.038,M,7.0,0131*62
$PYRTM,2024,124.751226927153,15.860874337292
$GNHDT,246.404,T*2B
$PYRTM,2024,124.751232668924,15.860880079063
$GNGGA,180146.50,3521.47845862,N,12053.86458636,W,2,11,0.9,6.209,M,-35.038,M,7.4,0131*64
$PYRTM,2024,124.751232668924,15.860880079063
$GNHDT,246.520,T*2C
$PYRTM,2024,124.751238499988,15.860885910127
$GNGGA,180147.00,3521.47846918,N,12053.86476064,W,2,11,0.9,6.106,M,-35.038,M,4.0,0131*69
$PYRTM,2024,124.751238499988,15.860885910127
$GNHDT,246.354,T*29
$PYRTM,2024,124.751244236863,15.860891647002
$GNGGA,180147.50,3521.47847144,N,12053.86491133,W,2,11,0.9,6.063,M,-35.038,M,4.4,0131*60
$PYRTM,2024,124.751244236863,15.860891647002
$GNHDT,246.408,T*27
$PYRTM,2024,124.751250076377,15.860897486516
$GNGGA,180148.00,3521.47844952,N,12053.86504182,W,2,11,0.9,6.042,M,-35.038,M,5.0,0131*67
$PYRTM,2024,124.751250076377,15.860897486516
$GNHDT,246.399,T*28
$PYRTM,2024,124.751255814468,15.860903224606
$GNGGA,180148.50,3521.47842271,N,12053.86518054,W,2,11,0.9,6.031,M,-35.038,M,5.4,0131*69
$PYRTM,2024,124.751255814468,15.860903224606
$GNHDT,246.399,T*28
$PYRTM,2024,124.751261647465,15.860909057604
$GNGGA,180149.00,3521.47838113,N,12053.86533362,W,2,11,0.9,5.988,M,-35.038,M,6.0,0131*67
$PYRTM,2024,124.751261647465,15.860909057604
$GNHDT,246.555,T*2E
$PYRTM,2024,124.751267389086,15.860914799225
$GNGGA,180149.50,3521.47833935,N,12053.86550222,W,2,11,0.9,5.939,M,-35.038,M,6.4,0131*6B
$PYRTM,2024,124.751267389086,15.860914799225
$GNHDT,246.918,T*2B
$PYRTM,2024,124.751273226516,15.860920636655
$GNGGA,180150.00,3521.47829659,N,12053.86567637,W,2,11,0.9,5.914,M,-35.038,M,7.0,0131*66
$PYRTM,2024,124.751273226516,15.860920636655
$GNHDT,247.010,T*2B
$PYRTM,2024,124.751278960301,15.860926370440
$GNGGA,180150.50,3521.47826380,N,12053.86583721,W,2,11,0.9,5.963,M,-35.038,M,7.4,0131*65
$PYRTM,2024,124.751278960301,15.860926370440
$GNHDT,247.039,T*20
$PYRTM,2024,124.751284796690,15.860932206829
$GNGGA,180151.00,3521.47823050,N,12053.86597556,W,2,11,0.9,6.077,M,-35.038,M,7.0,0131*66
$PYRTM,2024,124.751284796690,15.860932206829
$GNHDT,246.873,T*27
$PYRTM,2024,124.751290533426,15.860937943576
$GNGGA,180151.50,3521.47819997,N,12053.86610037,W,2,11,0.9,6.232,M,-35.038,M,7.4,0131*61
$PYRTM,2024,124.751290533426,15.860937943576
$GNHDT,246.707,T*2B
$PYRTM,2024,124.751296373229,15.860943783380
$GNGGA,180152.00,3521.47816691,N,12053.86621862,W,2,11,0.9,6.371,M,-35.038,M,7.0,0131*69
$PYRTM,2024,124.751296373229,15.860943783380
$GNHDT,246.500,T*2E
$PYRTM,2024,124.751302108218,15.860949518356
$GNGGA,180152.50,3521.47813259,N,12053.86635000,W,2,11,0.9,6.438,M,-35.038,M,7.4,0131*6E
$PYRTM,2024,124.751302108218,15.860949518356
$GNHDT,246.366,T*28
$PYRTM,2024,124.751307945521,15.860955355660
$GNGGA,180153.00,3521.47809566,N,12053.86650270,W,2,11,0.9,6.380,M,-35.038,M,4.0,0131*6F
$PYRTM,2024,124.751307945521,15.860955355660
$GNHDT,246.415,T*2B
$PYRTM,2024,124.751313681481,15.860961091620
$GNGGA,180153.50,3521.47805950,N,12053.86667085,W,2,11,0.9,6.238,M,-35.038,M,4.4,0131*65
$PYRTM,2024,124.751313681481,15.860961091620
$GNHDT,246.390,T*21
$PYRTM,2024,124.751319520787,15.860966930926
$GNGGA,180154.00,3521.47802244,N,12053.86684501,W,2,11,0.9,6.049,M,-35.038,M,5.0,0131*6B
$PYRTM,2024,124.751319520787,15.860966930926
$GNHDT,246.540,T*2A
$PYRTM,2024,124.751325255544,15.860972665683
$GNGGA,180154.50,3521.47798465,N,12053.86700791,W,2,11,0.9,5.870,M,-35.038,M,5.4,0131*64
$PYRTM,2024,124.751325255544,15.860972665683
$GNHDT,246.629,T*26
$PYRTM,2024,124.751331091968,15.860978502118
$GNGGA,180155.00,3521.47795830,N,12053.86715429,W,2,11,0.9,5.725,M,-35.038,M,6.0,0131*6D
$PYRTM,2024,124.751331091968,15.860978502118
$GNHDT,247.035,T*2C
$PYRTM,2024,124.751336833414,15.860984243553
$GNGGA,180155.50,3521.47795759,N,12053.86730630,W,2,11,0.9,5.652,M,-35.038,M,6.4,0131*60
$PYRTM,2024,124.751336833414,15.860984243553
$GNHDT,247.061,T*2D
$PYRTM,2024,124.751342669236,15.860990079387
$GNGGA,180156.00,3521.47797210,N,12053.86747922,W,2,11,0.9,5.629,M,-35.038,M,7.0,0131*69
$PYRTM,2024,124.751342669236,15.860990079387
$GNHDT,247.037,T*2E
$PYRTM,2024,124.751348405440,15.860995815579
$GNGGA,180156.50,3521.47797736,N,12053.86765890,W,2,11,0.9,5.672,M,-35.038,M,7.4,0131*6F
$PYRTM,2024,124.751348405440,15.860995815579
$GNHDT,247.142,T*2D
$PYRTM,2024,124.751354241586,15.861001651725
$GNGGA,180157.00,3521.47795932,N,12053.86784131,W,2,11,0.9,5.765,M,-35.038,M,7.0,0131*6D
$PYRTM,2024,124.751354241586,15.861001651725
$GNHDT,247.034,T*2D
$PYRTM,2024,124.751359982465,15.861007392604
$GNGGA,180157.50,3521.47791378,N,12053.86800840,W,2,11,0.9,5.909,M,-35.038,M,7.4,0131*64
$PYRTM,2024,124.751359982465,15.861007392604
$GNHDT,246.925,T*25
$PYRTM,2024,124.751365814456,15.861013224595
$GNGGA,180158.00,3521.47784693,N,12053.86816178,W,2,11,0.9,6.074,M,-35.038,M,7.0,0131*6B
$PYRTM,2024,124.751365814456,15.861013224595
$GNHDT,246.784,T*20
$PYRTM,2024,124.751371552512,15.861018962662
$GNGGA,180158.50,3521.47777462,N,12053.86829952,W,2,11,0.9,6.242,M,-35.038,M,7.4,0131*61
$PYRTM,2024,124.751371552512,15.861018962662
$GNHDT,246.797,T*22
$PYRTM,2024,124.751377394421,15.861024804560
$GNGGA,180159.00,3521.47770790,N,12053.86843552,W,2,11,0.9,6.362,M,-35.038,M,4.0,0131*68
$PYRTM,2024,124.751377394421,15.861024804560
$GNHDT,246.660,T*2B
$PYRTM,2024,124.751383129144,15.861030539282
$GNGGA,180159.50,3521.47765277,N,12053.86857231,W,2,11,0.9,6.396,M,-35.038,M,4.4,0131*6D
$PYRTM,2024,124.751383129144,15.861030539282
$GNHDT,246.576,T*2F
$PYRTM,2024,124.751388963947,15.861036374086
$GNGGA,180200.00,3521.47761714,N,12053.86872235,W,2,11,0.9,6.325,M,-35.038,M,5.0,0131*6D
$PYRTM,2024,124.751388963947,15.861036374086
$GNHDT,246.594,T*23
$PYRTM,2024,124.751394700949,15.861042111088
$GNGGA,180200.50,3521.47759738,N,12053.86888540,W,2,11,0.9,6.167,M,-35.038,M,5.4,0131*6D
$PYRTM,2024,124.751394700949,15.861042111088
$GNHDT,246.857,T*21
$PYRTM,2024,124.751400536713,15.861047946852
$GNGGA,180201.00,3521.47759070,N,12053.86905068,W,2,11,0.9,5.961,M,-35.038,M,6.0,0131*63
$PYRTM,2024,124.751400536713,15.861047946852
$GNHDT,247.071,T*2C
$PYRTM,2024,124.751406275972,15.861053686111
$GNGGA,180201.50,3521.47760641,N,12053.86921955,W,2,11,0.9,5.801,M,-35.038,M,6.4,0131*6A
$PYRTM,2024,124.751406275972,15.861053686111
$GNHDT,247.318,T*20
$PYRTM,2024,124.751412113310,15.861059523449
$GNGGA,180202.00,3521.47763141,N,12053.86938113,W,2,11,0.9,5.702,M,-35.038,M,7.0,0131*63
$PYRTM,2024,124.751412113310,15.861059523449
$GNHDT,247.436,T*2B
$PYRTM,2024,124.751417847859,15.861065257998
$GNGGA,180202.50,3521.47765993,N,12053.86953691,W,2,11,0.9,5.710,M,-35.038,M,7.4,0131*60
$PYRTM,2024,124.751417847859,15.861065257998
$GNHDT,247.338,T*22
$PYRTM,2024,124.751423686898,15.861071097037
$GNGGA,180203.00,3521.47766926,N,12053.86968128,W,2,11,0.9,5.816,M,-35.038,M,7.0,0131*69
$PYRTM,2024,124.751423686898,15.861071097037
$GNHDT,247.343,T*2E
$PYRTM,2024,124.751429422743,15.861076832882
$GNGGA,180203.50,3521.47764739,N,12053.86981221,W,2,11,0.9,6.000,M,-35.038,M,7.4,0131*6B
$PYRTM,2024,124.751429422743,15.861076832882
$GNHDT,247.431,T*2C
$PYRTM,2024,124.751435259248,15.861082669387
$GNGGA,180204.00,3521.47758786,N,12053.86992232,W,2,11,0.9,6.207,M,-35.038,M,7.0,0131*63
$PYRTM,2024,124.751435259248,15.861082669387
$GNHDT,247.251,T*2C
$PYRTM,2024,124.751440999722,15.861088409861
$GNGGA,180204.50,3521.47750155,N,12053.87001988,W,2,11,0.9,6.403,M,-35.038,M,7.4,0131*68
$PYRTM,2024,124.751440999722,15.861088409861
$GNHDT,246.990,T*2B
$PYRTM,2024,124.751446837778,15.861094247917
$GNGGA,180205.00,3521.47741736,N,12053.87013143,W,2,11,0.9,6.517,M,-35.038,M,4.0,0131*60
$PYRTM,2024,124.751446837778,15.861094247917
$GNHDT,246.824,T*25
$PYRTM,2024,124.751452573773,15.861099983912
$GNGGA,180205.50,3521.47735159,N,12053.87026130,W,2,11,0.9,6.516,M,-35.038,M,4.4,0131*6E
$PYRTM,2024,124.751452573773,15.861099983912
$GNHDT,246.811,T*23
$PYRTM,2024,124.751458410370,15.861105820509
$GNGGA,180206.00,3521.47732227,N,12053.87042426,W,2,11,0.9,6.382,M,-35.038,M,5.0,0131*6B
$PYRTM,2024,124.751458410370,15.861105820509
$GNHDT,246.828,T*29
$PYRTM,2024,124.751464145266,15.861111555405
$GNGGA,180206.50,3521.47733005,N,12053.87060859,W,2,11,0.9,6.148,M,-35.038,M,5.4,0131*69
$PYRTM,2024,124.751464145266,15.861111555405
$GNHDT,247.133,T*2B
$PYRTM,2024,124.751469989398,15.861117399537
$GNGGA,180207.00,3521.47736441,N,12053.87080640,W,2,11,0.9,5.873,M,-35.038,M,6.0,0131*61
$PYRTM,2024,124.751469989398,15.861117399537
$GNHDT,247.373,T*2D
$PYRTM,2024,124.751475724051,15.861123134190
$GNGGA,180207.50,3521.47740939,N,12053.87099461,W,2,11,0.9,5.663,M,-35.038,M,6.4,0131*65
$PYRTM,2024,124.751475724051,15.861123134190
$GNHDT,247.332,T*28
$PYRTM,2024,124.751481559780,15.861128969919
$GNGGA,180208.00,3521.47744478,N,12053.87115660,W,2,11,0.9,5.577,M,-35.038,M,7.0,0131*66
$PYRTM,2024,124.751481559780,15.861128969919
$GNHDT,247.203,T*2B
$PYRTM,2024,124.751487295162,15.861134705301
$GNGGA,180208.50,3521.47745094,N,12053.87129097,W,2,11,0.9,5.623,M,-35.038,M,7.4,0131*63
$PYRTM,2024,124.751487295162,15.861134705301
$GNHDT,247.109,T*22
$PYRTM,2024,124.751493135093,15.861140545231
$GNGGA,180209.00,3521.47741278,N,12053.87140826,W,2,11,0.9,5.779,M,-35.038,M,7.0,0131*64
$PYRTM,2024,124.751493135093,15.861140545231
$GNHDT,247.156,T*28
$PYRTM,2024,124.751498871771,15.861146281910
$GNGGA,180209.50,3521.47733068,N,12053.87153026,W,2,11,0.9,5.973,M,-35.038,M,7.4,0131*6D
$PYRTM,2024,124.751498871771,15.861146281910
$GNHDT,247.104,T*2F
$PYRTM,2024,124.751504710185,15.861152120336
$GNGGA,180210.00,3521.47721883,N,12053.87166527,W,2,11,0.9,6.106,M,-35.038,M,7.0,0131*61
$PYRTM,2024,124.751504710185,15.861152120336
$GNHDT,247.128,T*21
$PYRTM,2024,124.751510441586,15.861157851736
$GNGGA,180210.50,3521.47710958,N,12053.87183093,W,2,11,0.9,6.180,M,-35.038,M,7.4,0131*6A
$PYRTM,2024,124.751510441586,15.861157851736
$GNHDT,247.283,T*23
$PYRTM,2024,124.751516283079,15.861163693218
$GNGGA,180211.00,3521.47703091,N,12053.87201861,W,2,11,0.9,6.159,M,-35.038,M,4.0,0131*6F
$PYRTM,2024,124.751516283079,15.861163693218
$GNHDT,247.354,T*28
$PYRTM,2024,124.751522018819,15.861169428958
$GNGGA,180211.50,3521.47699599,N,12053.87222724,W,2,11,0.9,6.078,M,-35.038,M,4.4,0131*6C
$PYRTM,2024,124.751522018819,15.861169428958
$GNHDT,247.523,T*2E
$PYRTM,2024,124.751527857049,15.861175267187
$GNGGA,180212.00,3521.47700633,N,12053.87243484,W,2,11,0.9,5.978,M,-35.038,M,5.0,0131*69
$PYRTM,2024,124.751527857049,15.861175267187
$GNHDT,247.412,T*2D
$PYRTM,2024,124.751533589664,15.861180999803
$GNGGA,180212.50,3521.47703688,N,12053.87262169,W,2,11,0.9,5.919,M,-35.038,M,5.4,0131*69
$PYRTM,2024,124.751533589664,15.861180999803
$GNHDT,247.367,T*28
$PYRTM,2024,124.751539429965,15.861186840104
$GNGGA,180213.00,3521.47707174,N,12053.87279045,W,2,11,0.9,5.917,M,-35.038,M,6.0,0131*61
$PYRTM,2024,124.751539429965,15.861186840104
$GNHDT,247.242,T*2E
$PYRTM,2024,124.751545166400,15.861192576539
$GNGGA,180213.50,3521.47709088,N,12053.87293201,W,2,11,0.9,6.003,M,-35.038,M,6.4,0131*65
$PYRTM,2024,124.751545166400,15.861192576539
$GNHDT,247.146,T*29
$PYRTM,2024,124.751551000810,15.861198410961
$GNGGA,180214.00,3521.47708182,N,12053.87305540,W,2,11,0.9,6.115,M,-35.038,M,7.0,0131*62
$PYRTM,2024,124.751551000810,15.861198410961
$GNHDT,247.017,T*2C
$PYRTM,2024,124.751556738762,15.861204148900
$GNGGA,180214.50,3521.47704522,N,12053.87318571,W,2,11,0.9,6.223,M,-35.038,M,7.4,0131*69
$PYRTM,2024,124.751556738762,15.861204148900
$GNHDT,247.290,T*21
$PYRTM,2024,124.751562577940,15.861209988079
$GNGGA,180215.00,3521.47698554,N,12053.87332638,W,2,11,0.9,6.266,M,-35.038,M,7.0,0131*6B
$PYRTM,2024,124.751562577940,15.861209988079
$GNHDT,247.233,T*28
$PYRTM,2024,124.751568315440,15.861215725579
$GNGGA,180215.50,3521.47691605,N,12053.87347986,W,2,11,0.9,6.256,M,-35.038,M,7.4,0131*6F
$PYRTM,2024,124.751568315440,15.861215725579
$GNHDT,247.144,T*2B
$PYRTM,2024,124.751574150880,15.861221561019
$GNGGA,180216.00,3521.47684811,N,12053.87363172,W,2,11,0.9,6.194,M,-35.038,M,7.0,0131*6A
$PYRTM,2024,124.751574150880,15.861221561019
$GNHDT,247.313,T*2B
$PYRTM,2024,124.751579886424,15.861227296562
$GNGGA,180216.50,3521.47679158,N,12053.87377340,W,2,11,0.9,6.148,M,-35.038,M,7.4,0131*6A
$PYRTM,2024,124.751579886424,15.861227296562
$GNHDT,247.340,T*2D
$PYRTM,2024,124.751585722639,15.861233132778
$GNGGA,180217.00,3521.47675011,N,12053.87388901,W,2,11,0.9,6.137,M,-35.038,M,4.0,0131*6E
$PYRTM,2024,124.751585722639,15.861233132778
$GNHDT,247.263,T*2D
$PYRTM,2024,124.751591460046,15.861238870185
$GNGGA,180217.50,3521.47673012,N,12053.87398885,W,2,11,0.9,6.176,M,-35.038,M,4.4,0131*63
$PYRTM,2024,124.751591460046,15.861238870185
$GNHDT,247.333,T*29
$PYRTM,2024,124.751597302049,15.861244712187
$GNGGA,180218.00,3521.47673515,N,12053.87409114,W,2,11,0.9,6.235,M,-35.038,M,5.0,0131*64
$PYRTM,2024,124.751597302049,15.861244712187
$GNHDT,247.209,T*21
$PYRTM,2024,124.751603033900,15.861250444039
$GNGGA,180218.50,3521.47676081,N,12053.87421341,W,2,11,0.9,6.285,M,-35.038,M,5.4,0131*6B
$PYRTM,2024,124.751603033900,15.861250444039
$GNHDT,247.077,T*2A
$PYRTM,2024,124.751608870995,15.861256281134
$GNGGA,180219.00,3521.47680029,N,12053.87436826,W,2,11,0.9,6.271,M,-35.039,M,6.0,0131*65
$PYRTM,2024,124.751608870995,15.861256281134
$GNHDT,247.175,T*29
$PYRTM,2024,124.751614608345,15.861262018484
$GNGGA,180219.50,3521.47683248,N,12053.87454344,W,2,11,0.9,6.180,M,-35.039,M,6.4,0131*64
$PYRTM,2024,124.751614608345,15.861262018484
$GNHDT,247.351,T*2D
$PYRTM,2024,124.751620449317,15.861267859456
$GNGGA,180220.00,3521.47683333,N,12053.87472450,W,2,11,0.9,6.056,M,-35.039,M,7.0,0131*6F
$PYRTM,2024,124.751620449317,15.861267859456
$GNHDT,247.339,T*23
$PYRTM,2024,124.751626182199,15.861273592350
$GNGGA,180220.50,3521.47680199,N,12053.87489470,W,2,11,0.9,5.943,M,-35.039,M,7.4,0131*67
$PYRTM,2024,124.751626182199,15.861273592350
$GNHDT,247.497,T*20
$PYRTM,2024,124.751632018762,15.861279428900
$GNGGA,180221.00,3521.47674224,N,12053.87504070,W,2,11,0.9,5.892,M,-35.039,M,7.0,0131*64
$PYRTM,2024,124.751632018762,15.861279428900
$GNHDT,247.418,T*27
$PYRTM,2024,124.751637757870,15.861285168009
$GNGGA,180221.50,3521.47667108,N,12053.87515914,W,2,11,0.9,5.914,M,-35.039,M,7.4,0131*6E
$PYRTM,2024,124.751637757870,15.861285168009
$GNHDT,247.125,T*2C
$PYRTM,2024,124.751643598414,15.861291008565
$GNGGA,180222.00,3521.47660243,N,12053.87527374,W,2,11,0.9,5.980,M,-35.039,M,7.0,0131*67
$PYRTM,2024,124.751643598414,15.861291008565
$GNHDT,247.158,T*26
$PYRTM,2024,124.751649333009,15.861296743148
$GNGGA,180222.50,3521.47654969,N,12053.87539623,W,2,11,0.9,6.065,M,-35.039,M,7.4,0131*6B
$PYRTM,2024,124.751649333009,15.861296743148
$GNHDT,247.046,T*28
$PYRTM,2024,124.751655167801,15.861302577940
$GNGGA,180223.00,3521.47652071,N,12053.87555148,W,2,11,0.9,6.122,M,-35.039,M,4.0,0131*6C
$PYRTM,2024,124.751655167801,15.861302577940
$GNHDT,247.204,T*2C
$PYRTM,2024,124.751660903704,15.861308313843
$GNGGA,180223.50,3521.47651171,N,12053.87573697,W,2,11,0.9,6.122,M,-35.039,M,4.4,0131*6E
$PYRTM,2024,124.751660903704,15.861308313843
$GNHDT,247.296,T*27
$PYRTM,2024,124.751666743079,15.861314153218
$GNGGA,180224.00,3521.47650998,N,12053.87594529,W,2,11,0.9,6.088,M,-35.039,M,5.0,0131*69
$PYRTM,2024,124.751666743079,15.861314153218
$GNHDT,247.372,T*2C
$PYRTM,2024,124.751672480255,15.861319890394
$GNGGA,180224.50,3521.47650872,N,12053.87615754,W,2,11,0.9,6.031,M,-35.039,M,5.4,0131*6D
$PYRTM,2024,124.751672480255,15.861319890394
$GNHDT,246.865,T*20
$PYRTM,2024,124.751678316921,15.861325727060
$GNGGA,180225.00,3521.47649815,N,12053.87635964,W,2,11,0.9,5.978,M,-35.039,M,6.0,0131*6F
$PYRTM,2024,124.751678316921,15.861325727060
$GNHDT,246.920,T*20
$PYRTM,2024,124.751684052604,15.861331462743
$GNGGA,180225.50,3521.47647130,N,12053.87653266,W,2,11,0.9,5.948,M,-35.039,M,6.4,0131*64
$PYRTM,2024,124.751684052604,15.861331462743
$GNHDT,246.849,T*2E
$PYRTM,2024,124.751689891262,15.861337301400
$GNGGA,180226.00,3521.47642819,N,12053.87667750,W,2,11,0.9,5.958,M,-35.039,M,7.0,0131*66
$PYRTM,2024,124.751689891262,15.861337301400
$GNHDT,246.694,T*20
$PYRTM,2024,124.751695625926,15.861343036065
$GNGGA,180226.50,3521.47636822,N,12053.87679861,W,2,11,0.9,6.012,M,-35.039,M,7.4,0131*6A
$PYRTM,2024,124.751695625926,15.861343036065
$GNHDT,246.677,T*2D
$PYRTM,2024,124.751701462442,15.861348872581
$GNGGA,180227.00,3521.47629676,N,12053.87691296,W,2,11,0.9,6.078,M,-35.039,M,7.0,0131*63
$PYRTM,2024,124.751701462442,15.861348872581
$GNHDT,246.767,T*2D
$PYRTM,2024,124.751707201597,15.861354611736
$GNGGA,180227.50,3521.47622461,N,12053.87703761,W,2,11,0.9,6.128,M,-35.039,M,7.4,0131*6E
$PYRTM,2024,124.751707201597,15.861354611736
$GNHDT,246.670,T*2A
$PYRTM,2024,124.751713038380,15.861360448519
$GNGGA,180228.00,3521.47616200,N,12053.87717981,W,2,11,0.9,6.142,M,-35.039,M,7.0,0131*6F
$PYRTM,2024,124.751713038380,15.861360448519
$GNHDT,246.892,T*28
$PYRTM,2024,124.751718774769,15.861366184907
$GNGGA,180228.50,3521.47612168,N,12053.87735134,W,2,11,0.9,6.121,M,-35.039,M,7.4,0131*64
$PYRTM,2024,124.751718774769,15.861366184907
$GNHDT,247.169,T*24
$PYRTM,2024,124.751724616181,15.861372026319
