$PYRTM,2024,126.750000212431,17.859647622569
$GNGGA,180000.00,3358.69912038,N,11934.29265064,W,2,11,0.9,8.684,M,-37.455,M,4.0,0131*60
$PYRTM,2024,126.750000212431,17.859647622569
$GNHDT,250.498,T*29
$PYRTM,2024,126.750005940521,17.859653350671
$GNGGA,180000.50,3358.69905842,N,11934.29294064,W,2,11,0.9,8.626,M,-37.455,M,4.4,0131*64
$PYRTM,2024,126.750005940521,17.859653350671
$GNHDT,250.376,T*2E
$PYRTM,2024,126.750011784306,17.859659194444
$GNGGA,180001.00,3358.69899555,N,11934.29321834,W,2,11,0.9,8.587,M,-37.455,M,5.0,0131*60
$PYRTM,2024,126.750011784306,17.859659194444
$GNHDT,250.364,T*2D
$PYRTM,2024,126.750017516250,17.859664926389
$GNGGA,180001.50,3358.69893560,N,11934.29348728,W,2,11,0.9,8.576,M,-37.455,M,5.4,0131*6E
$PYRTM,2024,126.750017516250,17.859664926389
$GNHDT,250.348,T*23
$PYRTM,2024,126.750023357083,17.859670767222
$GNGGA,180002.00,3358.69886827,N,11934.29374840,W,2,11,0.9,8.580,M,-37.455,M,6.0,0131*62
$PYRTM,2024,126.750023357083,17.859670767222
$GNHDT,250.278,T*21
$PYRTM,2024,126.750029089595,17.859676499734
$GNGGA,180002.50,3358.69879707,N,11934.29401922,W,2,11,0.9,8.582,M,-37.455,M,6.4,0131*6C
$PYRTM,2024,126.750029089595,17.859676499734
$GNHDT,250.380,T*27
$PYRTM,2024,126.750034930440,17.859682340590
$GNGGA,180003.00,3358.69871537,N,11934.29430332,W,2,11,0.9,8.557,M,-37.455,M,7.0,0131*65
$PYRTM,2024,126.750034930440,17.859682340590
$GNHDT,250.436,T*2D
$PYRTM,2024,126.750040663218,17.859688073356
$GNGGA,180003.50,3358.69862310,N,11934.29460067,W,2,11,0.9,8.517,M,-37.455,M,7.4,0131*67
$PYRTM,2024,126.750040663218,17.859688073356
$GNHDT,250.484,T*24
$PYRTM,2024,126.750046502778,17.859693912917
$GNGGA,180004.00,3358.69851156,N,11934.29490049,W,2,11,0.9,8.469,M,-37.455,M,7.0,0131*6A
$PYRTM,2024,126.750046502778,17.859693912917
$GNHDT,250.466,T*28
$PYRTM,2024,126.750052240185,17.859699650324
$GNGGA,180004.50,3358.69839281,N,11934.29518711,W,2,11,0.9,8.456,M,-37.455,M,7.4,0131*6B
$PYRTM,2024,126.750052240185,17.859699650324
$GNHDT,250.415,T*2C
$PYRTM,2024,126.750058078785,17.859705488924
$GNGGA,180005.00,3358.69827833,N,11934.29545236,W,2,11,0.9,8.494,M,-37.455,M,7.0,0131*61
$PYRTM,2024,126.750058078785,17.859705488924
$GNHDT,250.448,T*24
$PYRTM,2024,126.750063821285,17.859711231424
$GNGGA,180005.50,3358.69818140,N,11934.29570260,W,2,11,0.9,8.563,M,-37.455,M,7.4,0131*6D
$PYRTM,2024,126.750063821285,17.859711231424
$GNHDT,250.257,T*2C
$PYRTM,2024,126.750069652384,17.859717062535
$GNGGA,180006.00,3358.69810023,N,11934.29594231,W,2,11,0.9,8.645,M,-37.455,M,4.0,0131*69
$PYRTM,2024,126.750069652384,17.859717062535
$GNHDT,250.327,T*2A
$PYRTM,2024,126.750075385093,17.859722795231
$GNGGA,180006.50,3358.69803397,N,11934.29619396,W,2,11,0.9,8.699,M,-37.455,M,4.4,0131*6D
$PYRTM,2024,126.750075385093,17.859722795231
$GNHDT,250.579,T*27
$PYRTM,2024,126.750081230544,17.859728640683
$GNGGA,180007.00,3358.69797051,N,11934.29647116,W,2,11,0.9,8.672,M,-37.455,M,5.0,0131*63
$PYRTM,2024,126.750081230544,17.859728640683
$GNHDT,250.482,T*22
$PYRTM,2024,126.750086960081,17.859734370220
$GNGGA,180007.50,3358.69789963,N,11934.29677742,W,2,11,0.9,8.590,M,-37.455,M,5.4,0131*6E
$PYRTM,2024,126.750086960081,17.859734370220
$GNHDT,250.356,T*2C
$PYRTM,2024,126.750092808194,17.859740218345
$GNGGA,180008.00,3358.69781429,N,11934.29709980,W,2,11,0.9,8.455,M,-37.455,M,6.0,0131*68
$PYRTM,2024,126.750092808194,17.859740218345
$GNHDT,250.316,T*28
$PYRTM,2024,126.750098535845,17.859745945984
$GNGGA,180008.50,3358.69771287,N,11934.29742202,W,2,11,0.9,8.352,M,-37.455,M,6.4,0131*6A
$PYRTM,2024,126.750098535845,17.859745945984
$GNHDT,250.326,T*2B
$PYRTM,2024,126.750104373125,17.859751783264
$GNGGA,180009.00,3358.69759950,N,11934.29772662,W,2,11,0.9,8.300,M,-37.455,M,7.0,0131*66
$PYRTM,2024,126.750104373125,17.859751783264
$GNHDT,250.340,T*2B
$PYRTM,2024,126.750110108160,17.859757518299
$GNGGA,180009.50,3358.69748101,N,11934.29799740,W,2,11,0.9,8.334,M,-37.455,M,7.4,0131*68
$PYRTM,2024,126.750110108160,17.859757518299
$GNHDT,250.272,T*2B
$PYRTM,2024,126.750115947025,17.859763357176
$GNGGA,180010.00,3358.69737121,N,11934.29824240,W,2,11,0.9,8.454,M,-37.455,M,7.0,0131*66
$PYRTM,2024,126.750115947025,17.859763357176
$GNHDT,250.342,T*29
$PYRTM,2024,126.750121681458,17.859769091597
$GNGGA,180010.50,3358.69728036,N,11934.29848231,W,2,11,0.9,8.605,M,-37.455,M,7.4,0131*64
$PYRTM,2024,126.750121681458,17.859769091597
$GNHDT,250.547,T*2A
$PYRTM,2024,126.750127520972,17.859774931111
$GNGGA,180011.00,3358.69720750,N,11934.29873504,W,2,11,0.9,8.744,M,-37.455,M,7.0,0131*66
$PYRTM,2024,126.750127520972,17.859774931111
$GNHDT,250.643,T*2D
$PYRTM,2024,126.750133258484,17.859780668623
$GNGGA,180011.50,3358.69714971,N,11934.29901290,W,2,11,0.9,8.813,M,-37.455,M,7.4,0131*6E
$PYRTM,2024,126.750133258484,17.859780668623
$GNHDT,250.480,T*20
$PYRTM,2024,126.750139095926,17.859786506076
$GNGGA,180012.00,3358.69710620,N,11934.29931676,W,2,11,0.9,8.801,M,-37.455,M,4.0,0131*6C
$PYRTM,2024,126.750139095926,17.859786506076
$GNHDT,250.540,T*2D
$PYRTM,2024,126.750144830579,17.859792240718
$GNGGA,180012.50,3358.69706210,N,11934.29962942,W,2,11,0.9,8.710,M,-37.455,M,4.4,0131*6C
$PYRTM,2024,126.750144830579,17.859792240718
$GNHDT,250.411,T*28
$PYRTM,2024,126.750150669294,17.859798079433
$GNGGA,180013.00,3358.69701741,N,11934.29994781,W,2,11,0.9,8.582,M,-37.455,M,5.0,0131*6A
$PYRTM,2024,126.750150669294,17.859798079433
$GNHDT,250.565,T*2A
$PYRTM,2024,126.750156404259,17.859803814398
$GNGGA,180013.50,3358.69695428,N,11934.30024065,W,2,11,0.9,8.494,M,-37.455,M,5.4,0131*6A
$PYRTM,2024,126.750156404259,17.859803814398
$GNHDT,250.429,T*23
$PYRTM,2024,126.750162244097,17.859809654236
$GNGGA,180014.00,3358.69687061,N,11934.30050742,W,2,11,0.9,8.450,M,-37.455,M,6.0,0131*6C
$PYRTM,2024,126.750162244097,17.859809654236
$GNHDT,250.408,T*20
$PYRTM,2024,126.750167982789,17.859815392940
$GNGGA,180014.50,3358.69676680,N,11934.30075267,W,2,11,0.9,8.485,M,-37.455,M,6.4,0131*67
$PYRTM,2024,126.750167982789,17.859815392940
$GNHDT,250.423,T*29
$PYRTM,2024,126.750173822188,17.859821232326
$GNGGA,180015.00,3358.69664651,N,11934.30098488,W,2,11,0.9,8.533,M,-37.455,M,7.0,0131*61
$PYRTM,2024,126.750173822188,17.859821232326
$GNHDT,250.502,T*2B
$PYRTM,2024,126.750179555428,17.859826965579
$GNGGA,180015.50,3358.69652203,N,11934.30122666,W,2,11,0.9,8.578,M,-37.455,M,7.4,0131*6B
$PYRTM,2024,126.750179555428,17.859826965579
$GNHDT,250.525,T*2E
$PYRTM,2024,126.750185391285,17.859832801424
$GNGGA,180016.00,3358.69639710,N,11934.30148821,W,2,11,0.9,8.571,M,-37.455,M,7.0,0131*6B
$PYRTM,2024,126.750185391285,17.859832801424
$GNHDT,250.533,T*29
$PYRTM,2024,126.750191128715,17.859838538854
$GNGGA,180016.50,3358.69628216,N,11934.30178058,W,2,11,0.9,8.501,M,-37.455,M,7.4,0131*6B
$PYRTM,2024,126.750191128715,17.859838538854
$GNHDT,250.261,T*29
$PYRTM,2024,126.750196966192,17.859844376331
$GNGGA,180017.00,3358.69618725,N,11934.30208480,W,2,11,0.9,8.404,M,-37.455,M,7.0,0131*6C
$PYRTM,2024,126.750196966192,17.859844376331
$GNHDT,250.221,T*2D
$PYRTM,2024,126.750202699965,17.859850110104
$GNGGA,180017.50,3358.69611561,N,11934.30238217,W,2,11,0.9,8.330,M,-37.455,M,7.4,0131*6D
$PYRTM,2024,126.750202699965,17.859850110104
$GNHDT,250.254,T*2F
$PYRTM,2024,126.750208541192,17.859855951343
$GNGGA,180018.00,3358.69605726,N,11934.30266184,W,2,11,0.9,8.300,M,-37.455,M,4.0,0131*65
$PYRTM,2024,126.750208541192,17.859855951343
$GNHDT,250.293,T*24
$PYRTM,2024,126.750214279641,17.859861689780
$GNGGA,180018.50,3358.69599894,N,11934.30292643,W,2,11,0.9,8.322,M,-37.455,M,4.4,0131*63
$PYRTM,2024,126.750214279641,17.859861689780
$GNHDT,250.181,T*24
$PYRTM,2024,126.750220113194,17.859867523333
$GNGGA,180019.00,3358.69592405,N,11934.30318628,W,2,11,0.9,8.370,M,-37.455,M,5.0,0131*64
$PYRTM,2024,126.750220113194,17.859867523333
$GNHDT,250.242,T*28
$PYRTM,2024,126.750225855046,17.859873265185
$GNGGA,180019.50,3358.69582883,N,11934.30345995,W,2,11,0.9,8.403,M,-37.455,M,5.4,0131*64
$PYRTM,2024,126.750225855046,17.859873265185
$GNHDT,250.263,T*2B
$PYRTM,2024,126.750231687407,17.859879097546
$GNGGA,180020.00,3358.69571825,N,11934.30375073,W,2,11,0.9,8.396,M,-37.455,M,6.0,0131*65
$PYRTM,2024,126.750231687407,17.859879097546
$GNHDT,250.624,T*2C
$PYRTM,2024,126.750237425995,17.859884836134
$GNGGA,180020.50,3358.69559142,N,11934.30404259,W,2,11,0.9,8.376,M,-37.455,M,6.4,0131*63
$PYRTM,2024,126.750237425995,17.859884836134
$GNHDT,250.446,T*2A
$PYRTM,2024,126.750243265324,17.859890675463
$GNGGA,180021.00,3358.69546826,N,11934.30433413,W,2,11,0.9,8.346,M,-37.455,M,7.0,0131*68
$PYRTM,2024,126.750243265324,17.859890675463
$GNHDT,250.520,T*2B
$PYRTM,2024,126.750249001644,17.859896411794
$GNGGA,180021.50,3358.69535229,N,11934.30461292,W,2,11,0.9,8.342,M,-37.455,M,7.4,0131*64
$PYRTM,2024,126.750249001644,17.859896411794
$GNHDT,250.388,T*2F
$PYRTM,2024,126.750254836447,17.859902246586
$GNGGA,180022.00,3358.69525194,N,11934.30488566,W,2,11,0.9,8.365,M,-37.455,M,7.0,0131*6C
$PYRTM,2024,126.750254836447,17.859902246586
$GNHDT,250.421,T*2B
$PYRTM,2024,126.750260571019,17.859907981157
$GNGGA,180022.50,3358.69517025,N,11934.30515454,W,2,11,0.9,8.418,M,-37.455,M,7.4,0131*6F
$PYRTM,2024,126.750260571019,17.859907981157
$GNHDT,250.200,T*2E
$PYRTM,2024,126.750266414884,17.859913825035
$GNGGA,180023.00,3358.69510382,N,11934.30543037,W,2,11,0.9,8.464,M,-37.455,M,7.0,0131*6F
$PYRTM,2024,126.750266414884,17.859913825035
$GNHDT,250.276,T*2F
$PYRTM,2024,126.750272144294,17.859919554433
$GNGGA,180023.50,3358.69504685,N,11934.30572290,W,2,11,0.9,8.496,M,-37.455,M,7.4,0131*69
$PYRTM,2024,126.750272144294,17.859919554433
$GNHDT,250.218,T*27
$PYRTM,2024,126.750277986539,17.859925396678
$GNGGA,180024.00,3358.69499128,N,11934.30602640,W,2,11,0.9,8.488,M,-37.455,M,4.0,0131*6B
$PYRTM,2024,126.750277986539,17.859925396678
$GNHDT,250.140,T*29
$PYRTM,2024,126.750283718819,17.859931128958
$GNGGA,180024.50,3358.69493417,N,11934.30634173,W,2,11,0.9,8.469,M,-37.455,M,4.4,0131*64
$PYRTM,2024,126.750283718819,17.859931128958
$GNHDT,250.145,T*2C
$PYRTM,2024,126.750289558843,17.859936968993
$GNGGA,180025.00,3358.69486356,N,11934.30664928,W,2,11,0.9,8.449,M,-37.455,M,5.0,0131*62
$PYRTM,2024,126.750289558843,17.859936968993
$GNHDT,250.233,T*2E
$PYRTM,2024,126.750295296273,17.859942706412
$GNGGA,180025.50,3358.69477703,N,11934.30694945,W,2,11,0.9,8.455,M,-37.455,M,5.4,0131*60
$PYRTM,2024,126.750295296273,17.859942706412
$GNHDT,250.520,T*2B
$PYRTM,2024,126.750301133854,17.859948543993
$GNGGA,180026.00,3358.69467054,N,11934.30723350,W,2,11,0.9,8.505,M,-37.455,M,6.0,0131*62
$PYRTM,2024,126.750301133854,17.859948543993
$GNHDT,250.494,T*25
$PYRTM,2024,126.750306871644,17.859954281782
$GNGGA,180026.50,3358.69455284,N,11934.30750164,W,2,11,0.9,8.584,M,-37.455,M,6.4,0131*65
$PYRTM,2024,126.750306871644,17.859954281782
$GNHDT,250.474,T*2B
$PYRTM,2024,126.750312713935,17.859960124074
$GNGGA,180027.00,3358.69444245,N,11934.30776500,W,2,11,0.9,8.653,M,-37.455,M,7.0,0131*62
$PYRTM,2024,126.750312713935,17.859960124074
$GNHDT,250.424,T*2E
$PYRTM,2024,126.750318441817,17.859965851968
$GNGGA,180027.50,3358.69434828,N,11934.30802544,W,2,11,0.9,8.697,M,-37.455,M,7.4,0131*61
$PYRTM,2024,126.750318441817,17.859965851968
$GNHDT,250.427,T*2D
$PYRTM,2024,126.750324279699,17.859971689838
$GNGGA,180028.00,3358.69427047,N,11934.30829481,W,2,11,0.9,8.679,M,-37.455,M,7.0,0131*6D
$PYRTM,2024,126.750324279699,17.859971689838
$GNHDT,250.463,T*2D
$PYRTM,2024,126.750330015405,17.859977425556
$GNGGA,180028.50,3358.69420942,N,11934.30857579,W,2,11,0.9,8.603,M,-37.455,M,7.4,0131*65
$PYRTM,2024,126.750330015405,17.859977425556
$GNHDT,250.448,T*24
$PYRTM,2024,126.750335858900,17.859983269039
$GNGGA,180029.00,3358.69415065,N,11934.30886474,W,2,11,0.9,8.463,M,-37.455,M,7.0,0131*6B
$PYRTM,2024,126.750335858900,17.859983269039
$GNHDT,250.580,T*21
$PYRTM,2024,126.750341589560,17.859988999711
$GNGGA,180029.50,3358.69409273,N,11934.30916167,W,2,11,0.9,8.311,M,-37.455,M,7.4,0131*6F
$PYRTM,2024,126.750341589560,17.859988999711
$GNHDT,250.242,T*28
$PYRTM,2024,126.750347428171,17.859994838310
$GNGGA,180030.00,3358.69401790,N,11934.30945138,W,2,11,0.9,8.186,M,-37.455,M,4.0,0131*65
$PYRTM,2024,126.750347428171,17.859994838310
$GNHDT,250.074,T*2F
$PYRTM,2024,126.750353169444,17.860000579583
$GNGGA,180030.50,3358.69392694,N,11934.30972078,W,2,11,0.9,8.144,M,-37.455,M,4.4,0131*63
$PYRTM,2024,126.750353169444,17.860000579583
$GNHDT,250.219,T*26
$PYRTM,2024,126.750359002384,17.860006412523
$GNGGA,180031.00,3358.69381067,N,11934.30995514,W,2,11,0.9,8.187,M,-37.455,M,5.0,0131*63
$PYRTM,2024,126.750359002384,17.860006412523
$GNHDT,250.192,T*26
$PYRTM,2024,126.750364739444,17.860012149595
$GNGGA,180031.50,3358.69368476,N,11934.31018078,W,2,11,0.9,8.291,M,-37.455,M,5.4,0131*67
$PYRTM,2024,126.750364739444,17.860012149595
$GNHDT,250.361,T*28
$PYRTM,2024,126.750370583854,17.860017993993
$GNGGA,180032.00,3358.69355061,N,11934.31042224,W,2,11,0.9,8.371,M,-37.455,M,6.0,0131*61
$PYRTM,2024,126.750370583854,17.860017993993
$GNHDT,250.475,T*2A
$PYRTM,2024,126.750376311563,17.860023721701
$GNGGA,180032.50,3358.69342287,N,11934.31070170,W,2,11,0.9,8.362,M,-37.455,M,6.4,0131*6D
$PYRTM,2024,126.750376311563,17.860023721701
$GNHDT,250.426,T*2C
$PYRTM,2024,126.750382151470,17.860029561609
$GNGGA,180033.00,3358.69330602,N,11934.31101828,W,2,11,0.9,8.279,M,-37.455,M,7.0,0131*68
$PYRTM,2024,126.750382151470,17.860029561609
$GNHDT,250.361,T*28
$PYRTM,2024,126.750387886019,17.860035296157
$GNGGA,180033.50,3358.69320759,N,11934.31134499,W,2,11,0.9,8.178,M,-37.455,M,7.4,0131*65
$PYRTM,2024,126.750387886019,17.860035296157
$GNHDT,250.259,T*22
$PYRTM,2024,126.750393725370,17.860041135509
$GNGGA,180034.00,3358.69312661,N,11934.31166127,W,2,11,0.9,8.110,M,-37.455,M,7.0,0131*61
$PYRTM,2024,126.750393725370,17.860041135509
$GNHDT,250.204,T*2A
$PYRTM,2024,126.750399464178,17.860046874317
$GNGGA,180034.50,3358.69305336,N,11934.31194578,W,2,11,0.9,8.128,M,-37.455,M,7.4,0131*69
$PYRTM,2024,126.750399464178,17.860046874317
$GNHDT,250.192,T*26
$PYRTM,2024,126.750405301678,17.860052711829
$GNGGA,180035.00,3358.69297368,N,11934.31220764,W,2,11,0.9,8.216,M,-37.455,M,7.0,0131*65
$PYRTM,2024,126.750405301678,17.860052711829
$GNHDT,250.187,T*22
$PYRTM,2024,126.750411034896,17.860058445035
$GNGGA,180035.50,3358.69288325,N,11934.31247172,W,2,11,0.9,8.340,M,-37.455,M,7.4,0131*61
$PYRTM,2024,126.750411034896,17.860058445035
$GNHDT,250.086,T*22
$PYRTM,2024,126.750416880035,17.860064290185
$GNGGA,180036.00,3358.69278192,N,11934.31274556,W,2,11,0.9,8.443,M,-37.455,M,4.0,0131*67
$PYRTM,2024,126.750416880035,17.860064290185
$GNHDT,250.252,T*29
$PYRTM,2024,126.750422612766,17.860070022905
$GNGGA,180036.50,3358.69267449,N,11934.31303465,W,2,11,0.9,8.510,M,-37.455,M,4.4,0131*6C
$PYRTM,2024,126.750422612766,17.860070022905
$GNHDT,250.160,T*2B
$PYRTM,2024,126.750428449375,17.860075859514
$GNGGA,180037.00,3358.69256720,N,11934.31333423,W,2,11,0.9,8.532,M,-37.455,M,5.0,0131*62
$PYRTM,2024,126.750428449375,17.860075859514
$GNHDT,250.226,T*2A
$PYRTM,2024,126.750434184444,17.860081594583
$GNGGA,180037.50,3358.69246481,N,11934.31363769,W,2,11,0.9,8.529,M,-37.455,M,5.4,0131*68
$PYRTM,2024,126.750434184444,17.860081594583
$GNHDT,250.171,T*2B
$PYRTM,2024,126.750440022581,17.860087432720
$GNGGA,180038.00,3358.69237740,N,11934.31394257,W,2,11,0.9,8.505,M,-37.455,M,6.0,0131*63
$PYRTM,2024,126.750440022581,17.860087432720
$GNHDT,250.196,T*22
$PYRTM,2024,126.750445756400,17.860093166539
$GNGGA,180038.50,3358.69230036,N,11934.31424053,W,2,11,0.9,8.477,M,-37.455,M,6.4,0131*6D
$PYRTM,2024,126.750445756400,17.860093166539
$GNHDT,250.241,T*2B
$PYRTM,2024,126.750451596655,17.860099006794
$GNGGA,180039.00,3358.69223206,N,11934.31453172,W,2,11,0.9,8.442,M,-37.455,M,7.0,0131*6B
$PYRTM,2024,126.750451596655,17.860099006794
$GNHDT,250.182,T*27
$PYRTM,2024,126.750457332500,17.860104742650
$GNGGA,180039.50,3358.69217035,N,11934.31480511,W,2,11,0.9,8.454,M,-37.455,M,7.4,0131*67
$PYRTM,2024,126.750457332500,17.860104742650
$GNHDT,250.269,T*21
$PYRTM,2024,126.750463170833,17.860110580972
$GNGGA,180040.00,3358.69211745,N,11934.31507314,W,2,11,0.9,8.482,M,-37.455,M,7.0,0131*68
$PYRTM,2024,126.750463170833,17.860110580972
$GNHDT,250.202,T*2C
$PYRTM,2024,126.750468908970,17.860116319120
$GNGGA,180040.50,3358.69206692,N,11934.31534248,W,2,11,0.9,8.544,M,-37.455,M,7.4,0131*67
$PYRTM,2024,126.750468908970,17.860116319120
$GNHDT,250.421,T*2B
$PYRTM,2024,126.750474743958,17.860122154109
$GNGGA,180041.00,3358.69200875,N,11934.31561577,W,2,11,0.9,8.606,M,-37.455,M,7.0,0131*68
$PYRTM,2024,126.750474743958,17.860122154109
$GNHDT,250.473,T*2C
$PYRTM,2024,126.750480479387,17.860127889525
$GNGGA,180041.50,3358.69193803,N,11934.31589390,W,2,11,0.9,8.645,M,-37.455,M,7.4,0131*6F
$PYRTM,2024,126.750480479387,17.860127889525
$GNHDT,250.381,T*26
$PYRTM,2024,126.750486317280,17.860133727419
$GNGGA,180042.00,3358.69185094,N,11934.31618066,W,2,11,0.9,8.616,M,-37.455,M,4.0,0131*68
$PYRTM,2024,126.750486317280,17.860133727419
$GNHDT,250.401,T*29
$PYRTM,2024,126.750492053148,17.860139463287
$GNGGA,180042.50,3358.69175022,N,11934.31647390,W,2,11,0.9,8.546,M,-37.455,M,4.4,0131*6D
$PYRTM,2024,126.750492053148,17.860139463287
$GNHDT,250.303,T*2C
$PYRTM,2024,126.750497893356,17.860145303507
$GNGGA,180043.00,3358.69164309,N,11934.31677114,W,2,11,0.9,8.422,M,-37.455,M,5.0,0131*68
$PYRTM,2024,126.750497893356,17.860145303507
$GNHDT,250.257,T*2C
$PYRTM,2024,126.750503634907,17.860151045046
$GNGGA,180043.50,3358.69153398,N,11934.31706724,W,2,11,0.9,8.302,M,-37.455,M,5.4,0131*62
$PYRTM,2024,126.750503634907,17.860151045046
$GNHDT,250.354,T*2E
$PYRTM,2024,126.750509466470,17.860156876620
$GNGGA,180044.00,3358.69143302,N,11934.31735656,W,2,11,0.9,8.209,M,-37.455,M,6.0,0131*6B
$PYRTM,2024,126.750509466470,17.860156876620
$GNHDT,250.291,T*26
$PYRTM,2024,126.750515203866,17.860162614005
$GNGGA,180044.50,3358.69134593,N,11934.31763155,W,2,11,0.9,8.179,M,-37.455,M,6.4,0131*67
$PYRTM,2024,126.750515203866,17.860162614005
$GNHDT,250.178,T*22
$PYRTM,2024,126.750521046759,17.860168456898
$GNGGA,180045.00,3358.69127269,N,11934.31789507,W,2,11,0.9,8.205,M,-37.455,M,7.0,0131*69
$PYRTM,2024,126.750521046759,17.860168456898
$GNHDT,249.961,T*2A
$PYRTM,2024,126.750526776736,17.860174186875
$GNGGA,180045.50,3358.69120482,N,11934.31815942,W,2,11,0.9,8.272,M,-37.455,M,7.4,0131*6B
$PYRTM,2024,126.750526776736,17.860174186875
$GNHDT,249.732,T*22
$PYRTM,2024,126.750532616644,17.860180026782
$GNGGA,180046.00,3358.69113909,N,11934.31844139,W,2,11,0.9,8.324,M,-37.455,M,7.0,0131*65
$PYRTM,2024,126.750532616644,17.860180026782
$GNHDT,249.650,T*27
$PYRTM,2024,126.750538348426,17.860185758565
$GNGGA,180046.50,3358.69106683,N,11934.31872877,W,2,11,0.9,8.365,M,-37.455,M,7.4,0131*6E
$PYRTM,2024,126.750538348426,17.860185758565
$GNHDT,249.973,T*29
$PYRTM,2024,126.750544188148,17.860191598299
$GNGGA,180047.00,3358.69099029,N,11934.31903702,W,2,11,0.9,8.363,M,-37.455,M,7.0,0131*63
$PYRTM,2024,126.750544188148,17.860191598299
$GNHDT,249.921,T*2E
$PYRTM,2024,126.750549923368,17.860197333507
$GNGGA,180047.50,3358.69089664,N,11934.31933592,W,2,11,0.9,8.334,M,-37.456,M,7.4,0131*65
$PYRTM,2024,126.750549923368,17.860197333507
$GNHDT,249.814,T*29
$PYRTM,2024,126.750555761806,17.860203171944
$GNGGA,180048.00,3358.69078704,N,11934.31962805,W,2,11,0.9,8.262,M,-37.456,M,4.0,0131*64
$PYRTM,2024,126.750555761806,17.860203171944
$GNHDT,249.999,T*2D
$PYRTM,2024,126.750561496979,17.860208907118
$GNGGA,180048.50,3358.69067042,N,11934.31990698,W,2,11,0.9,8.198,M,-37.456,M,4.4,0131*6F
$PYRTM,2024,126.750561496979,17.860208907118
$GNHDT,249.917,T*2B
$PYRTM,2024,126.750567336238,17.860214746377
$GNGGA,180049.00,3358.69054970,N,11934.32017367,W,2,11,0.9,8.135,M,-37.456,M,5.0,0131*61
$PYRTM,2024,126.750567336238,17.860214746377
$GNHDT,249.909,T*24
$PYRTM,2024,126.750573071470,17.860220481609
$GNGGA,180049.50,3358.69044062,N,11934.32043045,W,2,11,0.9,8.106,M,-37.456,M,5.4,0131*69
$PYRTM,2024,126.750573071470,17.860220481609
$GNHDT,249.858,T*21
$PYRTM,2024,126.750578911319,17.860226321458
$GNGGA,180050.00,3358.69034620,N,11934.32068559,W,2,11,0.9,8.098,M,-37.456,M,6.0,0131*63
$PYRTM,2024,126.750578911319,17.860226321458
$GNHDT,249.828,T*26
$PYRTM,2024,126.750584659815,17.860232069954
$GNGGA,180050.50,3358.69027354,N,11934.32095500,W,2,11,0.9,8.102,M,-37.456,M,6.4,0131*6A
$PYRTM,2024,126.750584659815,17.860232069954
$GNHDT,249.913,T*2F
$PYRTM,2024,126.750590487488,17.860237897639
$GNGGA,180051.00,3358.69021372,N,11934.32123608,W,2,11,0.9,8.114,M,-37.456,M,7.0,0131*69
$PYRTM,2024,126.750590487488,17.860237897639
$GNHDT,249.894,T*21
$PYRTM,2024,126.750596223160,17.860243633299
$GNGGA,180051.50,3358.69015395,N,11934.32153284,W,2,11,0.9,8.116,M,-37.456,M,7.4,0131*63
$PYRTM,2024,126.750596223160,17.860243633299
$GNHDT,249.736,T*26
$PYRTM,2024,126.750602058137,17.860249468287
$GNGGA,180052.00,3358.69008157,N,11934.32182735,W,2,11,0.9,8.130,M,-37.456,M,7.0,0131*66
$PYRTM,2024,126.750602058137,17.860249468287
$GNHDT,249.692,T*29
$PYRTM,2024,126.750607797326,17.860255207465
$GNGGA,180052.50,3358.68999055,N,11934.32211195,W,2,11,0.9,8.170,M,-37.456,M,7.4,0131*65
$PYRTM,2024,126.750607797326,17.860255207465
$GNHDT,249.618,T*2B
$PYRTM,2024,126.750613638218,17.860261048356
$GNGGA,180053.00,3358.68986953,N,11934.32237474,W,2,11,0.9,8.211,M,-37.456,M,7.0,0131*6E
$PYRTM,2024,126.750613638218,17.860261048356
$GNHDT,249.544,T*21
$PYRTM,2024,126.750619370405,17.860266780544
$GNGGA,180053.50,3358.68972965,N,11934.32262574,W,2,11,0.9,8.225,M,-37.456,M,7.4,0131*67
$PYRTM,2024,126.750619370405,17.860266780544
$GNHDT,249.480,T*28
$PYRTM,2024,126.750625208495,17.860272618646
$GNGGA,180054.00,3358.68957669,N,11934.32286795,W,2,11,0.9,8.221,M,-37.456,M,4.0,0131*65
$PYRTM,2024,126.750625208495,17.860272618646
$GNHDT,249.598,T*20
$PYRTM,2024,126.750630941262,17.860278351400
$GNGGA,180054.50,3358.68943620,N,11934.32311307,W,2,11,0.9,8.219,M,-37.456,M,4.4,0131*67
$PYRTM,2024,126.750630941262,17.860278351400
$GNHDT,249.524,T*27
$PYRTM,2024,126.750636781528,17.860284191678
$GNGGA,180055.00,3358.68932104,N,11934.32335008,W,2,11,0.9,8.248,M,-37.456,M,5.0,0131*6F
$PYRTM,2024,126.750636781528,17.860284191678
$GNHDT,249.465,T*23
$PYRTM,2024,126.750642515972,17.860289926123
$GNGGA,180055.50,3358.68924769,N,11934.32358056,W,2,11,0.9,8.317,M,-37.456,M,5.4,0131*6F
$PYRTM,2024,126.750642515972,17.860289926123
$GNHDT,249.671,T*24
$PYRTM,2024,126.750648356644,17.860295766782
$GNGGA,180056.00,3358.68920956,N,11934.32381574,W,2,11,0.9,8.403,M,-37.456,M,6.0,0131*6B
$PYRTM,2024,126.750648356644,17.860295766782
$GNHDT,249.735,T*25
$PYRTM,2024,126.750654089155,17.860301499294
$GNGGA,180056.50,3358.68918990,N,11934.32406862,W,2,11,0.9,8.476,M,-37.456,M,6.4,0131*6B
$PYRTM,2024,126.750654089155,17.860301499294
$GNHDT,249.614,T*27
$PYRTM,2024,126.750659932870,17.860307343009
$GNGGA,180057.00,3358.68916658,N,11934.32434551,W,2,11,0.9,8.484,M,-37.456,M,7.0,0131*6E
$PYRTM,2024,126.750659932870,17.860307343009
$GNHDT,249.563,T*24
$PYRTM,2024,126.750665663229,17.860313073368
$GNGGA,180057.50,3358.68912162,N,11934.32463350,W,2,11,0.9,8.467,M,-37.456,M,7.4,0131*6D
$PYRTM,2024,126.750665663229,17.860313073368
$GNHDT,249.696,T*2D
$PYRTM,2024,126.750671503009,17.860318913160
$GNGGA,180058.00,3358.68903562,N,11934.32490994,W,2,11,0.9,8.418,M,-37.456,M,7.0,0131*61
$PYRTM,2024,126.750671503009,17.860318913160
$GNHDT,249.586,T*2F
$PYRTM,2024,126.750677239155,17.860324649294
$GNGGA,180058.50,3358.68890962,N,11934.32517472,W,2,11,0.9,8.374,M,-37.456,M,7.4,0131*61
$PYRTM,2024,126.750677239155,17.860324649294
$GNHDT,249.429,T*2B
$PYRTM,2024,126.750683079178,17.860330489317
$GNGGA,180059.00,3358.68875991,N,11934.32544416,W,2,11,0.9,8.333,M,-37.456,M,7.0,0131*61
$PYRTM,2024,126.750683079178,17.860330489317
$GNHDT,249.252,T*21
$PYRTM,2024,126.750688817558,17.860336227697
$GNGGA,180059.50,3358.68860331,N,11934.32569568,W,2,11,0.9,8.325,M,-37.456,M,7.4,0131*64
$PYRTM,2024,126.750688817558,17.860336227697
$GNHDT,249.146,T*27
$PYRTM,2024,126.750694652824,17.860342062963
$GNGGA,180100.00,3358.68846816,N,11934.32594413,W,2,11,0.9,8.339,M,-37.456,M,4.0,0131*63
$PYRTM,2024,126.750694652824,17.860342062963
$GNHDT,249.232,T*27
$PYRTM,2024,126.750700385741,17.860347795880
$GNGGA,180100.50,3358.68837365,N,11934.32619319,W,2,11,0.9,8.383,M,-37.456,M,4.4,0131*61
$PYRTM,2024,126.750700385741,17.860347795880
$GNHDT,249.371,T*21
$PYRTM,2024,126.750706224907,17.860353635046
$GNGGA,180101.00,3358.68832313,N,11934.32644334,W,2,11,0.9,8.449,M,-37.456,M,5.0,0131*62
$PYRTM,2024,126.750706224907,17.860353635046
$GNHDT,249.306,T*21
$PYRTM,2024,126.750711964491,17.860359374630
$GNGGA,180101.50,3358.68830218,N,11934.32670856,W,2,11,0.9,8.516,M,-37.456,M,5.4,0131*68
$PYRTM,2024,126.750711964491,17.860359374630
$GNHDT,249.211,T*26
$PYRTM,2024,126.750717801273,17.860365211412
$GNGGA,180102.00,3358.68829336,N,11934.32700525,W,2,11,0.9,8.533,M,-37.456,M,6.0,0131*64
$PYRTM,2024,126.750717801273,17.860365211412
$GNHDT,249.336,T*22
$PYRTM,2024,126.750723538692,17.860370948831
$GNGGA,180102.50,3358.68827298,N,11934.32731618,W,2,11,0.9,8.495,M,-37.456,M,6.4,0131*6C
$PYRTM,2024,126.750723538692,17.860370948831
$GNHDT,249.347,T*24
$PYRTM,2024,126.750729373495,17.860376783646
$GNGGA,180103.00,3358.68822043,N,11934.32761914,W,2,11,0.9,8.442,M,-37.456,M,7.0,0131*60
$PYRTM,2024,126.750729373495,17.860376783646
$GNHDT,249.390,T*2E
$PYRTM,2024,126.750735110162,17.860382520301
$GNGGA,180103.50,3358.68813164,N,11934.32789115,W,2,11,0.9,8.409,M,-37.456,M,7.4,0131*67
$PYRTM,2024,126.750735110162,17.860382520301
$GNHDT,249.325,T*20
$PYRTM,2024,126.750740951620,17.860388361759
$GNGGA,180104.00,3358.68800777,N,11934.32812095,W,2,11,0.9,8.413,M,-37.456,M,7.0,0131*68
$PYRTM,2024,126.750740951620,17.860388361759
$GNHDT,249.360,T*21
$PYRTM,2024,126.750746684572,17.860394094711
$GNGGA,180104.50,3358.68786858,N,11934.32832727,W,2,11,0.9,8.459,M,-37.456,M,7.4,0131*68
$PYRTM,2024,126.750746684572,17.860394094711
$GNHDT,249.239,T*2C
$PYRTM,2024,126.750752526146,17.860399936285
$GNGGA,180105.00,3358.68772273,N,11934.32851719,W,2,11,0.9,8.508,M,-37.456,M,7.0,0131*6D
$PYRTM,2024,126.750752526146,17.860399936285
$GNHDT,249.309,T*2E
$PYRTM,2024,126.750758257188,17.860405667326
$GNGGA,180105.50,3358.68760334,N,11934.32873258,W,2,11,0.9,8.513,M,-37.456,M,7.4,0131*67
$PYRTM,2024,126.750758257188,17.860405667326
$GNHDT,249.327,T*22
$PYRTM,2024,126.750764096667,17.860411506806
$GNGGA,180106.00,3358.68750601,N,11934.32896762,W,2,11,0.9,8.466,M,-37.456,M,4.0,0131*62
$PYRTM,2024,126.750764096667,17.860411506806
$GNHDT,249.212,T*25
$PYRTM,2024,126.750769833380,17.860417243530
$GNGGA,180106.50,3358.68744159,N,11934.32922686,W,2,11,0.9,8.382,M,-37.456,M,4.4,0131*64
$PYRTM,2024,126.750769833380,17.860417243530
$GNHDT,249.111,T*25
$PYRTM,2024,126.750775669190,17.860423079329
$GNGGA,180107.00,3358.68739416,N,11934.32949408,W,2,11,0.9,8.271,M,-37.456,M,5.0,0131*65
$PYRTM,2024,126.750775669190,17.860423079329
$GNHDT,249.079,T*2A
$PYRTM,2024,126.750781404028,17.860428814167
$GNGGA,180107.50,3358.68734875,N,11934.32976629,W,2,11,0.9,8.158,M,-37.456,M,5.4,0131*65
$PYRTM,2024,126.750781404028,17.860428814167
$GNHDT,249.128,T*2F
$PYRTM,2024,126.750787248009,17.860434658148
$GNGGA,180108.00,3358.68728742,N,11934.33003788,W,2,11,0.9,8.065,M,-37.456,M,6.0,0131*61
$PYRTM,2024,126.750787248009,17.860434658148
$GNHDT,249.052,T*23
$PYRTM,2024,126.750792983866,17.860440394016
$GNGGA,180108.50,3358.68719763,N,11934.33030436,W,2,11,0.9,8.005,M,-37.456,M,6.4,0131*61
$PYRTM,2024,126.750792983866,17.860440394016
$GNHDT,249.024,T*22
$PYRTM,2024,126.750798822801,17.860446232951
$GNGGA,180109.00,3358.68707716,N,11934.33056306,W,2,11,0.9,7.980,M,-37.456,M,7.0,0131*62
$PYRTM,2024,126.750798822801,17.860446232951
$GNHDT,248.908,T*24
$PYRTM,2024,126.750804552384,17.860451962535
$GNGGA,180109.50,3358.68693791,N,11934.33081997,W,2,11,0.9,8.000,M,-37.456,M,7.4,0131*66
$PYRTM,2024,126.750804552384,17.860451962535
$GNHDT,248.939,T*26
$PYRTM,2024,126.750810394062,17.860457804201
$GNGGA,180110.00,3358.68678626,N,11934.33107135,W,2,11,0.9,8.040,M,-37.456,M,7.0,0131*6C
$PYRTM,2024,126.750810394062,17.860457804201
$GNHDT,248.808,T*25
$PYRTM,2024,126.750816126065,17.860463536204
$GNGGA,180110.50,3358.68664465,N,11934.33131684,W,2,11,0.9,8.134,M,-37.456,M,7.4,0131*6F
$PYRTM,2024,126.750816126065,17.860463536204
$GNHDT,248.807,T*2A
$PYRTM,2024,126.750821966586,17.860469376736
$GNGGA,180111.00,3358.68652381,N,11934.33155862,W,2,11,0.9,8.247,M,-37.456,M,7.0,0131*64
$PYRTM,2024,126.750821966586,17.860469376736
$GNHDT,248.845,T*2C
$PYRTM,2024,126.750827700069,17.860475110208
$GNGGA,180111.50,3358.68643638,N,11934.33180659,W,2,11,0.9,8.372,M,-37.456,M,7.4,0131*6B
$PYRTM,2024,126.750827700069,17.860475110208
$GNHDT,248.981,T*25
$PYRTM,2024,126.750833539444,17.860480949583
$GNGGA,180112.00,3358.68637677,N,11934.33206515,W,2,11,0.9,8.449,M,-37.456,M,4.0,0131*6B
$PYRTM,2024,126.750833539444,17.860480949583
$GNHDT,249.060,T*22
$PYRTM,2024,126.750839274155,17.860486684306
$GNGGA,180112.50,3358.68633078,N,11934.33233901,W,2,11,0.9,8.462,M,-37.456,M,4.4,0131*61
$PYRTM,2024,126.750839274155,17.860486684306
$GNHDT,249.006,T*22
$PYRTM,2024,126.750845116100,17.860492526238
$GNGGA,180113.00,3358.68628233,N,11934.33261738,W,2,11,0.9,8.389,M,-37.456,M,5.0,0131*66
$PYRTM,2024,126.750845116100,17.860492526238
$GNHDT,248.932,T*2D
$PYRTM,2024,126.750850848750,17.860498258889
$GNGGA,180113.50,3358.68622377,N,11934.33288952,W,2,11,0.9,8.306,M,-37.456,M,5.4,0131*6E
$PYRTM,2024,126.750850848750,17.860498258889
$GNHDT,248.878,T*22
$PYRTM,2024,126.750856687350,17.860504097488
$GNGGA,180114.00,3358.68614234,N,11934.33313507,W,2,11,0.9,8.239,M,-37.456,M,6.0,0131*6A
$PYRTM,2024,126.750856687350,17.860504097488
$GNHDT,248.897,T*23
$PYRTM,2024,126.750862423750,17.860509833889
$GNGGA,180114.50,3358.68604035,N,11934.33336265,W,2,11,0.9,8.222,M,-37.456,M,6.4,0131*67
$PYRTM,2024,126.750862423750,17.860509833889
$GNHDT,248.699,T*23
$PYRTM,2024,126.750868266944,17.860515677083
$GNGGA,180115.00,3358.68591922,N,11934.33356979,W,2,11,0.9,8.255,M,-37.456,M,7.0,0131*66
$PYRTM,2024,126.750868266944,17.860515677083
$GNHDT,248.819,T*25
$PYRTM,2024,126.750873999225,17.860521409375
$GNGGA,180115.50,3358.68579350,N,11934.33377913,W,2,11,0.9,8.310,M,-37.456,M,7.4,0131*61
$PYRTM,2024,126.750873999225,17.860521409375
$GNHDT,248.721,T*21
$PYRTM,2024,126.750879837245,17.860527247384
$GNGGA,180116.00,3358.68567268,N,11934.33400043,W,2,11,0.9,8.347,M,-37.456,M,7.0,0131*6F
$PYRTM,2024,126.750879837245,17.860527247384
$GNHDT,248.836,T*28
$PYRTM,2024,126.750885570139,17.860532980278
$GNGGA,180116.50,3358.68557255,N,11934.33424353,W,2,11,0.9,8.363,M,-37.456,M,7.4,0131*61
$PYRTM,2024,126.750885570139,17.860532980278
$GNHDT,248.819,T*25
$PYRTM,2024,126.750891409572,17.860538819722
$GNGGA,180117.00,3358.68549852,N,11934.33450497,W,2,11,0.9,8.341,M,-37.456,M,7.0,0131*6F
$PYRTM,2024,126.750891409572,17.860538819722
$GNHDT,248.875,T*2F
$PYRTM,2024,126.750897146343,17.860544556481
$GNGGA,180117.50,3358.68544810,N,11934.33477663,W,2,11,0.9,8.300,M,-37.456,M,7.4,0131*6C
$PYRTM,2024,126.750897146343,17.860544556481
$GNHDT,248.786,T*2C
$PYRTM,2024,126.750902986991,17.860550397141
$GNGGA,180118.00,3358.68540844,N,11934.33505203,W,2,11,0.9,8.236,M,-37.456,M,4.0,0131*66
$PYRTM,2024,126.750902986991,17.860550397141
$GNHDT,248.934,T*2B
$PYRTM,2024,126.750908718970,17.860556129109
$GNGGA,180118.50,3358.68536662,N,11934.33532773,W,2,11,0.9,8.187,M,-37.456,M,4.4,0131*63
$PYRTM,2024,126.750908718970,17.860556129109
$GNHDT,249.030,T*27
$PYRTM,2024,126.750914562292,17.860561972431
$GNGGA,180119.00,3358.68530870,N,11934.33559982,W,2,11,0.9,8.132,M,-37.456,M,5.0,0131*6A
$PYRTM,2024,126.750914562292,17.860561972431
$GNHDT,248.913,T*2E
$PYRTM,2024,126.750920296169,17.860567706308
$GNGGA,180119.50,3358.68522749,N,11934.33585368,W,2,11,0.9,8.131,M,-37.456,M,5.4,0131*61
$PYRTM,2024,126.750920296169,17.860567706308
$GNHDT,248.791,T*2A
$PYRTM,2024,126.750926137361,17.860573547500
$GNGGA,180120.00,3358.68512457,N,11934.33608602,W,2,11,0.9,8.170,M,-37.456,M,6.0,0131*6C
$PYRTM,2024,126.750926137361,17.860573547500
$GNHDT,248.701,T*23
$PYRTM,2024,126.750931870556,17.860579280706
$GNGGA,180120.50,3358.68500938,N,11934.33629640,W,2,11,0.9,8.255,M,-37.456,M,6.4,0131*6B
$PYRTM,2024,126.750931870556,17.860579280706
$GNHDT,248.946,T*2E
$PYRTM,2024,126.750937707014,17.860585117153
$GNGGA,180121.00,3358.68489193,N,11934.33649433,W,2,11,0.9,8.362,M,-37.456,M,7.0,0131*66
$PYRTM,2024,126.750937707014,17.860585117153
$GNHDT,248.834,T*2A
$PYRTM,2024,126.750943445810,17.860590855949
$GNGGA,180121.50,3358.68478049,N,11934.33669779,W,2,11,0.9,8.453,M,-37.456,M,7.4,0131*65
$PYRTM,2024,126.750943445810,17.860590855949
$GNHDT,249.021,T*27
$PYRTM,2024,126.750949279803,17.860596689942
$GNGGA,180122.00,3358.68468137,N,11934.33691844,W,2,11,0.9,8.470,M,-37.456,M,7.0,0131*69
$PYRTM,2024,126.750949279803,17.860596689942
$GNHDT,249.143,T*22
$PYRTM,2024,126.750955016794,17.860602426933
$GNGGA,180122.50,3358.68460039,N,11934.33716259,W,2,11,0.9,8.416,M,-37.456,M,7.4,0131*67
$PYRTM,2024,126.750955016794,17.860602426933
$GNHDT,249.120,T*27
$PYRTM,2024,126.750960860139,17.860608270278
$GNGGA,180123.00,3358.68453813,N,11934.33742538,W,2,11,0.9,8.283,M,-37.456,M,7.0,0131*6C
$PYRTM,2024,126.750960860139,17.860608270278
$GNHDT,249.072,T*21
$PYRTM,2024,126.750966589664,17.860613999803
$GNGGA,180123.50,3358.68449054,N,11934.33769786,W,2,11,0.9,8.131,M,-37.456,M,7.4,0131*69
$PYRTM,2024,126.750966589664,17.860613999803
$GNHDT,249.116,T*22
$PYRTM,2024,126.750972429965,17.860619840104
$GNGGA,180124.00,3358.68444571,N,11934.33796571,W,2,11,0.9,8.005,M,-37.456,M,4.0,0131*6F
$PYRTM,2024,126.750972429965,17.860619840104
$GNHDT,249.136,T*20
$PYRTM,2024,126.750978162859,17.860625572998
$GNGGA,180124.50,3358.68438771,N,11934.33822484,W,2,11,0.9,7.950,M,-37.456,M,4.4,0131*6A
$PYRTM,2024,126.750978162859,17.860625572998
$GNHDT,249.163,T*20
$PYRTM,2024,126.750984008472,17.860631418623
$GNGGA,180125.00,3358.68431193,N,11934.33847118,W,2,11,0.9,7.965,M,-37.456,M,5.0,0131*6D
$PYRTM,2024,126.750984008472,17.860631418623
$GNHDT,249.234,T*21
$PYRTM,2024,126.750989742812,17.860637152951
$GNGGA,180125.50,3358.68421479,N,11934.33871295,W,2,11,0.9,8.059,M,-37.456,M,5.4,0131*66
$PYRTM,2024,126.750989742812,17.860637152951
$GNHDT,249.274,T*25
$PYRTM,2024,126.750995576979,17.860642987118
$GNGGA,180126.00,3358.68409929,N,11934.33895187,W,2,11,0.9,8.173,M,-37.456,M,6.0,0131*66
$PYRTM,2024,126.750995576979,17.860642987118
$GNHDT,249.270,T*21
$PYRTM,2024,126.751001311169,17.860648721308
$GNGGA,180126.50,3358.68398128,N,11934.33919622,W,2,11,0.9,8.280,M,-37.456,M,6.4,0131*63
$PYRTM,2024,126.751001311169,17.860648721308
$GNHDT,249.367,T*26
$PYRTM,2024,126.751007150729,17.860654560868
$GNGGA,180127.00,3358.68387595,N,11934.33944225,W,2,11,0.9,8.370,M,-37.456,M,7.0,0131*6B
$PYRTM,2024,126.751007150729,17.860654560868
$GNHDT,249.472,T*25
$PYRTM,2024,126.751012888183,17.860660298322
$GNGGA,180127.50,3358.68379209,N,11934.33968917,W,2,11,0.9,8.419,M,-37.456,M,7.4,0131*65
$PYRTM,2024,126.751012888183,17.860660298322
$GNHDT,249.620,T*20
$PYRTM,2024,126.751018729919,17.860666140058
$GNGGA,180128.00,3358.68372723,N,11934.33993739,W,2,11,0.9,8.438,M,-37.456,M,7.0,0131*68
$PYRTM,2024,126.751018729919,17.860666140058
$GNHDT,249.675,T*20
$PYRTM,2024,126.751024462894,17.860671873032
$GNGGA,180128.50,3358.68367332,N,11934.34018417,W,2,11,0.9,8.430,M,-37.456,M,7.4,0131*63
$PYRTM,2024,126.751024462894,17.860671873032
$GNHDT,249.771,T*25
$PYRTM,2024,126.751030299225,17.860677709375
$GNGGA,180129.00,3358.68362341,N,11934.34043627,W,2,11,0.9,8.376,M,-37.456,M,7.0,0131*68
$PYRTM,2024,126.751030299225,17.860677709375
$GNHDT,249.680,T*2A
$PYRTM,2024,126.751036033542,17.860683443681
$GNGGA,180129.50,3358.68356791,N,11934.34069821,W,2,11,0.9,8.295,M,-37.456,M,7.4,0131*6B
$PYRTM,2024,126.751036033542,17.860683443681
$GNHDT,249.495,T*2C
$PYRTM,2024,126.751041878495,17.860689288634
$GNGGA,180130.00,3358.68349638,N,11934.34094852,W,2,11,0.9,8.184,M,-37.456,M,4.0,0131*68
$PYRTM,2024,126.751041878495,17.860689288634
$GNHDT,249.402,T*22
$PYRTM,2024,126.751047608275,17.860695018414
$GNGGA,180130.50,3358.68340839,N,11934.34118623,W,2,11,0.9,8.112,M,-37.456,M,4.4,0131*6D
$PYRTM,2024,126.751047608275,17.860695018414
$GNHDT,249.707,T*24
$PYRTM,2024,126.751053452373,17.860700862512
$GNGGA,180131.00,3358.68330881,N,11934.34140902,W,2,11,0.9,8.063,M,-37.456,M,5.0,0131*6E
$PYRTM,2024,126.751053452373,17.860700862512
$GNHDT,249.867,T*2D
$PYRTM,2024,126.751059182951,17.860706593090
$GNGGA,180131.50,3358.68320665,N,11934.34162398,W,2,11,0.9,8.069,M,-37.456,M,5.4,0131*69
$PYRTM,2024,126.751059182951,17.860706593090
$GNHDT,250.015,T*28
$PYRTM,2024,126.751065024479,17.860712434630
$GNGGA,180132.00,3358.68310303,N,11934.34183379,W,2,11,0.9,8.110,M,-37.456,M,6.0,0131*61
$PYRTM,2024,126.751065024479,17.860712434630
$GNHDT,250.192,T*26
$PYRTM,2024,126.751070757836,17.860718167975
$GNGGA,180132.50,3358.68301029,N,11934.34205459,W,2,11,0.9,8.146,M,-37.456,M,6.4,0131*60
$PYRTM,2024,126.751070757836,17.860718167975
$GNHDT,250.235,T*28
$PYRTM,2024,126.751076597743,17.860724007894
$GNGGA,180133.00,3358.68292793,N,11934.34229198,W,2,11,0.9,8.159,M,-37.456,M,7.0,0131*64
$PYRTM,2024,126.751076597743,17.860724007894
$GNHDT,250.274,T*2D
$PYRTM,2024,126.751082329711,17.860729739850
$GNGGA,180133.50,3358.68285481,N,11934.34253857,W,2,11,0.9,8.150,M,-37.456,M,7.4,0131*6D
$PYRTM,2024,126.751082329711,17.860729739850
$GNHDT,250.327,T*2A
$PYRTM,2024,126.751088170104,17.860735580243
$GNGGA,180134.00,3358.68278718,N,11934.34278747,W,2,11,0.9,8.118,M,-37.456,M,7.0,0131*61
$PYRTM,2024,126.751088170104,17.860735580243
$GNHDT,250.458,T*25
$PYRTM,2024,126.751093903472,17.860741313611
$GNGGA,180134.50,3358.68272405,N,11934.34303332,W,2,11,0.9,8.094,M,-37.456,M,7.4,0131*6B
$PYRTM,2024,126.751093903472,17.860741313611
$GNHDT,250.481,T*21
$PYRTM,2024,126.751099746377,17.860747156516
$GNGGA,180135.00,3358.68265460,N,11934.34327022,W,2,11,0.9,8.076,M,-37.456,M,7.0,0131*66
$PYRTM,2024,126.751099746377,17.860747156516
$GNHDT,250.505,T*2C
$PYRTM,2024,126.751105478241,17.860752888380
$GNGGA,180135.50,3358.68257964,N,11934.34350222,W,2,11,0.9,8.078,M,-37.456,M,7.4,0131*63
$PYRTM,2024,126.751105478241,17.860752888380
$GNHDT,250.700,T*2B
$PYRTM,2024,126.751111316771,17.860758726910
$GNGGA,180136.00,3358.68249481,N,11934.34372951,W,2,11,0.9,8.075,M,-37.456,M,4.0,0131*69
$PYRTM,2024,126.751111316771,17.860758726910
$GNHDT,250.690,T*23
$PYRTM,2024,126.751117052708,17.860764462847
$GNGGA,180136.50,3358.68240294,N,11934.34395620,W,2,11,0.9,8.083,M,-37.456,M,4.4,0131*6A
$PYRTM,2024,126.751117052708,17.860764462847
$GNHDT,250.738,T*20
$PYRTM,2024,126.751122892523,17.860770302662
$GNGGA,180137.00,3358.68230511,N,11934.34417934,W,2,11,0.9,8.088,M,-37.456,M,5.0,0131*6A
$PYRTM,2024,126.751122892523,17.860770302662
$GNHDT,250.778,T*24
$PYRTM,2024,126.751128628333,17.860776038472
$GNGGA,180137.50,3358.68220731,N,11934.34440503,W,2,11,0.9,8.102,M,-37.456,M,5.4,0131*63
$PYRTM,2024,126.751128628333,17.860776038472
$GNHDT,250.881,T*2D
$PYRTM,2024,126.751134465093,17.860781875231
$GNGGA,180138.00,3358.68211467,N,11934.34463582,W,2,11,0.9,8.108,M,-37.456,M,6.0,0131*6E
$PYRTM,2024,126.751134465093,17.860781875231
$GNHDT,251.062,T*29
$PYRTM,2024,126.751140199803,17.860787609942
$GNGGA,180138.50,3358.68203387,N,11934.34487875,W,2,11,0.9,8.114,M,-37.456,M,6.4,0131*67
$PYRTM,2024,126.751140199803,17.860787609942
$GNHDT,251.057,T*2F
$PYRTM,2024,126.751146038588,17.860793448727
$GNGGA,180139.00,3358.68196548,N,11934.34513119,W,2,11,0.9,8.109,M,-37.456,M,7.0,0131*6F
$PYRTM,2024,126.751146038588,17.860793448727
$GNHDT,251.171,T*2A
$PYRTM,2024,126.751151774664,17.860799184803
$GNGGA,180139.50,3358.68191083,N,11934.34538529,W,2,11,0.9,8.115,M,-37.456,M,7.4,0131*68
$PYRTM,2024,126.751151774664,17.860799184803
$GNHDT,251.356,T*2D
$PYRTM,2024,126.751157613426,17.860805023565
$GNGGA,180140.00,3358.68186423,N,11934.34563181,W,2,11,0.9,8.134,M,-37.456,M,7.0,0131*64
$PYRTM,2024,126.751157613426,17.860805023565
$GNHDT,251.434,T*2E
$PYRTM,2024,126.751163347454,17.860810757604
$GNGGA,180140.50,3358.68181944,N,11934.34586733,W,2,11,0.9,8.183,M,-37.456,M,7.4,0131*66
$PYRTM,2024,126.751163347454,17.860810757604
$GNHDT,251.558,T*25
$PYRTM,2024,126.751169190162,17.860816600301
$GNGGA,180141.00,3358.68177188,N,11934.34609513,W,2,11,0.9,8.238,M,-37.456,M,7.0,0131*60
$PYRTM,2024,126.751169190162,17.860816600301
$GNHDT,251.600,T*2B
$PYRTM,2024,126.751174921944,17.860822332083
$GNGGA,180141.50,3358.68170935,N,11934.34631660,W,2,11,0.9,8.295,M,-37.456,M,7.4,0131*63
$PYRTM,2024,126.751174921944,17.860822332083
$GNHDT,251.710,T*2B
$PYRTM,2024,126.751180778623,17.860828188762
$GNGGA,180142.00,3358.68162627,N,11934.34654214,W,2,11,0.9,8.315,M,-37.456,M,4.0,0131*60
$PYRTM,2024,126.751180778623,17.860828188762
$GNHDT,251.955,T*24
$PYRTM,2024,126.751186503681,17.860833913819
$GNGGA,180142.50,3358.68152723,N,11934.34677099,W,2,11,0.9,8.299,M,-37.456,M,4.4,0131*64
$PYRTM,2024,126.751186503681,17.860833913819
$GNHDT,251.614,T*2E
$PYRTM,2024,126.751192339259,17.860839749410
$GNGGA,180143.00,3358.68142402,N,11934.34700903,W,2,11,0.9,8.261,M,-37.456,M,5.0,0131*68
$PYRTM,2024,126.751192339259,17.860839749410
$GNHDT,251.657,T*29
$PYRTM,2024,126.751198073981,17.860845484120
$GNGGA,180143.50,3358.68132676,N,11934.34724398,W,2,11,0.9,8.228,M,-37.456,M,5.4,0131*6C
$PYRTM,2024,126.751198073981,17.860845484120
$GNHDT,251.976,T*25
$PYRTM,2024,126.751203909688,17.860851319826
$GNGGA,180144.00,3358.68124175,N,11934.34746777,W,2,11,0.9,8.206,M,-37.456,M,6.0,0131*67
$PYRTM,2024,126.751203909688,17.860851319826
$GNHDT,251.921,T*27
$PYRTM,2024,126.751209644259,17.860857054398
$GNGGA,180144.50,3358.68117890,N,11934.34769278,W,2,11,0.9,8.214,M,-37.456,M,6.4,0131*60
$PYRTM,2024,126.751209644259,17.860857054398
$GNHDT,251.984,T*28
$PYRTM,2024,126.751215482350,17.860862892488
$GNGGA,180145.00,3358.68113123,N,11934.34792053,W,2,11,0.9,8.236,M,-37.456,M,7.0,0131*6B
$PYRTM,2024,126.751215482350,17.860862892488
$GNHDT,251.953,T*22
$PYRTM,2024,126.751221218148,17.860868628287
$GNGGA,180145.50,3358.68108866,N,11934.34816694,W,2,11,0.9,8.234,M,-37.456,M,7.4,0131*64
$PYRTM,2024,126.751221218148,17.860868628287
$GNHDT,251.908,T*2C
$PYRTM,2024,126.751227061701,17.860874471840
$GNGGA,180146.00,3358.68104522,N,11934.34842211,W,2,11,0.9,8.207,M,-37.456,M,7.0,0131*6F
$PYRTM,2024,126.751227061701,17.860874471840
$GNHDT,252.062,T*2A
$PYRTM,2024,126.751232791806,17.860880201956
$GNGGA,180146.50,3358.68098723,N,11934.34867871,W,2,11,0.9,8.155,M,-37.456,M,7.4,0131*66
$PYRTM,2024,126.751232791806,17.860880201956
$GNHDT,252.136,T*2A
$PYRTM,2024,126.751238632049,17.860886042188
$GNGGA,180147.00,3358.68091863,N,11934.34893210,W,2,11,0.9,8.119,M,-37.456,M,7.0,0131*6A
$PYRTM,2024,126.751238632049,17.860886042188
$GNHDT,252.248,T*20
$PYRTM,2024,126.751244367454,17.860891777593
$GNGGA,180147.50,3358.68084244,N,11934.34917423,W,2,11,0.9,8.113,M,-37.456,M,7.4,0131*61
$PYRTM,2024,126.751244367454,17.860891777593
$GNHDT,252.427,T*2F
$PYRTM,2024,126.751250212049,17.860897622199
$GNGGA,180148.00,3358.68076516,N,11934.34941101,W,2,11,0.9,8.113,M,-37.456,M,4.0,0131*67
$PYRTM,2024,126.751250212049,17.860897622199
$GNHDT,252.587,T*24
$PYRTM,2024,126.751255945532,17.860903355671
$GNGGA,180148.50,3358.68068894,N,11934.34964265,W,2,11,0.9,8.112,M,-37.456,M,4.4,0131*69
$PYRTM,2024,126.751255945532,17.860903355671
$GNHDT,252.856,T*25
$PYRTM,2024,126.751261786215,17.860909196354
$GNGGA,180149.00,3358.68061986,N,11934.34988097,W,2,11,0.9,8.087,M,-37.456,M,5.0,0131*63
$PYRTM,2024,126.751261786215,17.860909196354
$GNHDT,253.065,T*2C
$PYRTM,2024,126.751267515336,17.860914925475
$GNGGA,180149.50,3358.68055466,N,11934.35012248,W,2,11,0.9,8.046,M,-37.456,M,5.4,0131*60
$PYRTM,2024,126.751267515336,17.860914925475
$GNHDT,252.826,T*22
$PYRTM,2024,126.751273354352,17.860920764502
$GNGGA,180150.00,3358.68049206,N,11934.35037106,W,2,11,0.9,7.995,M,-37.456,M,6.0,0131*61
$PYRTM,2024,126.751273354352,17.860920764502
$GNHDT,252.875,T*24
$PYRTM,2024,126.751279089236,17.860926499387
$GNGGA,180150.50,3358.68043164,N,11934.35061762,W,2,11,0.9,7.960,M,-37.456,M,6.4,0131*60
$PYRTM,2024,126.751279089236,17.860926499387
$GNHDT,252.768,T*27
$PYRTM,2024,126.751284936088,17.860932346227
$GNGGA,180151.00,3358.68037207,N,11934.35085356,W,2,11,0.9,7.968,M,-37.456,M,7.0,0131*65
$PYRTM,2024,126.751284936088,17.860932346227
$GNHDT,252.943,T*20
$PYRTM,2024,126.751290663900,17.860938074051
$GNGGA,180151.50,3358.68031501,N,11934.35107710,W,2,11,0.9,8.020,M,-37.456,M,7.4,0131*64
$PYRTM,2024,126.751290663900,17.860938074051
$GNHDT,252.911,T*27
$PYRTM,2024,126.751296510428,17.860943920567
$GNGGA,180152.00,3358.68025420,N,11934.35129268,W,2,11,0.9,8.077,M,-37.456,M,7.0,0131*65
$PYRTM,2024,126.751296510428,17.860943920567
$GNHDT,253.076,T*2E
$PYRTM,2024,126.751302241782,17.860949651933
$GNGGA,180152.50,3358.68018459,N,11934.35151743,W,2,11,0.9,8.131,M,-37.456,M,7.4,0131*64
$PYRTM,2024,126.751302241782,17.860949651933
$GNHDT,253.123,T*2F
$PYRTM,2024,126.751308075324,17.860955485475
$GNGGA,180153.00,3358.68010862,N,11934.35175035,W,2,11,0.9,8.139,M,-37.456,M,7.0,0131*60
$PYRTM,2024,126.751308075324,17.860955485475
$GNHDT,253.248,T*21
$PYRTM,2024,126.751313813333,17.860961223472
$GNGGA,180153.50,3358.68003714,N,11934.35198854,W,2,11,0.9,8.127,M,-37.456,M,7.4,0131*6E
$PYRTM,2024,126.751313813333,17.860961223472
$GNHDT,253.383,T*27
$PYRTM,2024,126.751319650556,17.860967060706
$GNGGA,180154.00,3358.67997057,N,11934.35221660,W,2,11,0.9,8.116,M,-37.456,M,4.0,0131*6A
$PYRTM,2024,126.751319650556,17.860967060706
$GNHDT,253.340,T*28
$PYRTM,2024,126.751325385868,17.860972796007
$GNGGA,180154.50,3358.67991062,N,11934.35243346,W,2,11,0.9,8.120,M,-37.456,M,4.4,0131*6B
$PYRTM,2024,126.751325385868,17.860972796007
$GNHDT,253.576,T*2B
$PYRTM,2024,126.751331231956,17.860978642095
$GNGGA,180155.00,3358.67984599,N,11934.35264168,W,2,11,0.9,8.132,M,-37.456,M,5.0,0131*67
$PYRTM,2024,126.751331231956,17.860978642095
$GNHDT,253.544,T*2A
$PYRTM,2024,126.751336960231,17.860984370370
$GNGGA,180155.50,3358.67977345,N,11934.35285124,W,2,11,0.9,8.144,M,-37.456,M,5.4,0131*6B
$PYRTM,2024,126.751336960231,17.860984370370
$GNHDT,253.792,T*23
$PYRTM,2024,126.751342808623,17.860990218762
$GNGGA,180156.00,3358.67968948,N,11934.35307591,W,2,11,0.9,8.114,M,-37.456,M,6.0,0131*67
$PYRTM,2024,126.751342808623,17.860990218762
$GNHDT,253.887,T*28
$PYRTM,2024,126.751348535255,17.860995945394
$GNGGA,180156.50,3358.67960186,N,11934.35332348,W,2,11,0.9,8.028,M,-37.456,M,6.4,0131*6E
$PYRTM,2024,126.751348535255,17.860995945394
$GNHDT,253.483,T*20
$PYRTM,2024,126.751354371343,17.861001781481
$GNGGA,180157.00,3358.67951553,N,11934.35358927,W,2,11,0.9,7.897,M,-37.456,M,7.0,0131*6D
$PYRTM,2024,126.751354371343,17.861001781481
$GNHDT,253.393,T*26
$PYRTM,2024,126.751360112118,17.861007522257
$GNGGA,180157.50,3358.67943191,N,11934.35385422,W,2,11,0.9,7.780,M,-37.456,M,7.4,0131*64
$PYRTM,2024,126.751360112118,17.861007522257
$GNHDT,253.585,T*27
$PYRTM,2024,126.751365948854,17.861013358993
$GNGGA,180158.00,3358.67935138,N,11934.35410003,W,2,11,0.9,7.717,M,-37.456,M,7.0,0131*6A
$PYRTM,2024,126.751365948854,17.861013358993
$GNHDT,253.549,T*27
$PYRTM,2024,126.751371685000,17.861019095139
$GNGGA,180158.50,3358.67927812,N,11934.35431918,W,2,11,0.9,7.754,M,-37.456,M,7.4,0131*6E
$PYRTM,2024,126.751371685000,17.861019095139
$GNHDT,253.625,T*2E
$PYRTM,2024,126.751377524502,17.861024934653
$GNGGA,180159.00,3358.67920798,N,11934.35451331,W,2,11,0.9,7.879,M,-37.456,M,7.0,0131*63
$PYRTM,2024,126.751377524502,17.861024934653
$GNHDT,253.625,T*2E
$PYRTM,2024,126.751383258472,17.861030668611
$GNGGA,180159.50,3358.67915015,N,11934.35470032,W,2,11,0.9,8.043,M,-37.456,M,7.4,0131*6B
$PYRTM,2024,126.751383258472,17.861030668611
$GNHDT,253.900,T*26
$PYRTM,2024,126.751389097164,17.861036507315
$GNGGA,180200.00,3358.67910105,N,11934.35490545,W,2,11,0.9,8.171,M,-37.456,M,4.0,0131*68
$PYRTM,2024,126.751389097164,17.861036507315
$GNHDT,253.954,T*27
$PYRTM,2024,126.751394830949,17.861042241088
$GNGGA,180200.50,3358.67905438,N,11934.35513973,W,2,11,0.9,8.205,M,-37.456,M,4.4,0131*65
$PYRTM,2024,126.751394830949,17.861042241088
$GNHDT,253.927,T*23
$PYRTM,2024,126.751400669988,17.861048080139
$GNGGA,180201.00,3358.67900221,N,11934.35540485,W,2,11,0.9,8.120,M,-37.456,M,5.0,0131*69
$PYRTM,2024,126.751400669988,17.861048080139
$GNHDT,253.846,T*25
$PYRTM,2024,126.751406410127,17.861053820266
$GNGGA,180201.50,3358.67894050,N,11934.35568191,W,2,11,0.9,7.980,M,-37.456,M,5.4,0131*67
$PYRTM,2024,126.751406410127,17.861053820266
$GNHDT,253.931,T*24
$PYRTM,2024,126.751412244363,17.861059654502
$GNGGA,180202.00,3358.67886362,N,11934.35595860,W,2,11,0.9,7.824,M,-37.456,M,6.0,0131*6D
$PYRTM,2024,126.751412244363,17.861059654502
$GNHDT,253.922,T*26
$PYRTM,2024,126.751417979225,17.861065389363
$GNGGA,180202.50,3358.67877652,N,11934.35620527,W,2,11,0.9,7.727,M,-37.456,M,6.4,0131*6B
$PYRTM,2024,126.751417979225,17.861065389363
$GNHDT,254.027,T*2D
$PYRTM,2024,126.751423821655,17.861071231794
$GNGGA,180203.00,3358.67869306,N,11934.35642071,W,2,11,0.9,7.753,M,-37.456,M,7.0,0131*60
$PYRTM,2024,126.751423821655,17.861071231794
$GNHDT,254.003,T*2B
$PYRTM,2024,126.751429556400,17.861076966539
$GNGGA,180203.50,3358.67862532,N,11934.35661128,W,2,11,0.9,7.880,M,-37.456,M,7.4,0131*66
$PYRTM,2024,126.751429556400,17.861076966539
$GNHDT,254.305,T*2E
$PYRTM,2024,126.751435397685,17.861082807824
$GNGGA,180204.00,3358.67857607,N,11934.35679033,W,2,11,0.9,8.089,M,-37.456,M,7.0,0131*6F
$PYRTM,2024,126.751435397685,17.861082807824
$GNHDT,254.156,T*2A
$PYRTM,2024,126.751441127176,17.861088537315
$GNGGA,180204.50,3358.67854247,N,11934.35698796,W,2,11,0.9,8.278,M,-37.456,M,7.4,0131*66
$PYRTM,2024,126.751441127176,17.861088537315
$GNHDT,254.245,T*2B
$PYRTM,2024,126.751446969271,17.861094379410
$GNGGA,180205.00,3358.67852547,N,11934.35721846,W,2,11,0.9,8.387,M,-37.456,M,7.0,0131*67
$PYRTM,2024,126.751446969271,17.861094379410
$GNHDT,254.466,T*2C
$PYRTM,2024,126.751452702963,17.861100113102
$GNGGA,180205.50,3358.67851062,N,11934.35747617,W,2,11,0.9,8.404,M,-37.456,M,7.4,0131*61
$PYRTM,2024,126.751452702963,17.861100113102
$GNHDT,254.270,T*2D
$PYRTM,2024,126.751458538762,17.861105948900
$GNGGA,180206.00,3358.67849684,N,11934.35775268,W,2,11,0.9,8.323,M,-37.456,M,4.0,0131*68
$PYRTM,2024,126.751458538762,17.861105948900
$GNHDT,254.167,T*28
$PYRTM,2024,126.751464275313,17.861111685463
$GNGGA,180206.50,3358.67846797,N,11934.35801624,W,2,11,0.9,8.221,M,-37.456,M,4.4,0131*66
$PYRTM,2024,126.751464275313,17.861111685463
$GNHDT,254.399,T*2B
$PYRTM,2024,126.751470114410,17.861117524549
$GNGGA,180207.00,3358.67842243,N,11934.35824736,W,2,11,0.9,8.152,M,-37.456,M,5.0,0131*6D
$PYRTM,2024,126.751470114410,17.861117524549
$GNHDT,254.443,T*2B
$PYRTM,2024,126.751475850671,17.861123260822
$GNGGA,180207.50,3358.67836415,N,11934.35844112,W,2,11,0.9,8.139,M,-37.456,M,5.4,0131*61
$PYRTM,2024,126.751475850671,17.861123260822
$GNHDT,254.191,T*21
$PYRTM,2024,126.751481694687,17.861129104826
$GNGGA,180208.00,3358.67829526,N,11934.35861223,W,2,11,0.9,8.182,M,-37.456,M,6.0,0131*65
$PYRTM,2024,126.751481694687,17.861129104826
$GNHDT,254.155,T*29
$PYRTM,2024,126.751487422164,17.861134832303
$GNGGA,180208.50,3358.67822422,N,11934.35877894,W,2,11,0.9,8.245,M,-37.456,M,6.4,0131*63
$PYRTM,2024,126.751487422164,17.861134832303
$GNHDT,254.442,T*2A
$PYRTM,2024,126.751493266840,17.861140676979
$GNGGA,180209.00,3358.67816216,N,11934.35896286,W,2,11,0.9,8.294,M,-37.456,M,7.0,0131*6E
$PYRTM,2024,126.751493266840,17.861140676979
$GNHDT,254.543,T*2A
$PYRTM,2024,126.751498997245,17.861146407384
$GNGGA,180209.50,3358.67811332,N,11934.35917164,W,2,11,0.9,8.295,M,-37.456,M,7.4,0131*69
$PYRTM,2024,126.751498997245,17.861146407384
$GNHDT,254.523,T*2C
$PYRTM,2024,126.751504836030,17.861152246169
$GNGGA,180210.00,3358.67808054,N,11934.35941208,W,2,11,0.9,8.228,M,-37.456,M,7.0,0131*67
$PYRTM,2024,126.751504836030,17.861152246169
$GNHDT,254.391,T*23
$PYRTM,2024,126.751510576400,17.861157986539
$GNGGA,180210.50,3358.67805176,N,11934.35967589,W,2,11,0.9,8.123,M,-37.456,M,7.4,0131*68
$PYRTM,2024,126.751510576400,17.861157986539
$GNHDT,254.201,T*2B
$PYRTM,2024,126.751516413738,17.861163823889
$GNGGA,180211.00,3358.67802418,N,11934.35994405,W,2,11,0.9,8.002,M,-37.456,M,7.0,0131*69
$PYRTM,2024,126.751516413738,17.861163823889
$GNHDT,254.166,T*29
$PYRTM,2024,126.751522152674,17.861169562812
$GNGGA,180211.50,3358.67798882,N,11934.36019876,W,2,11,0.9,7.906,M,-37.456,M,7.4,0131*6E
$PYRTM,2024,126.751522152674,17.861169562812
$GNHDT,254.155,T*29
$PYRTM,2024,126.751527984294,17.861175394433
$GNGGA,180212.00,3358.67794079,N,11934.36043602,W,2,11,0.9,7.859,M,-37.456,M,4.0,0131*66
$PYRTM,2024,126.751527984294,17.861175394433
$GNHDT,254.104,T*2D
$PYRTM,2024,126.751533719248,17.861181129387
$GNGGA,180212.50,3358.67787654,N,11934.36066079,W,2,11,0.9,7.856,M,-37.456,M,4.4,0131*6E
$PYRTM,2024,126.751533719248,17.861181129387
$GNHDT,254.033,T*28
$PYRTM,2024,126.751539557396,17.861186967535
$GNGGA,180213.00,3358.67779254,N,11934.36088358,W,2,11,0.9,7.879,M,-37.456,M,5.0,0131*67
$PYRTM,2024,126.751539557396,17.861186967535
$GNHDT,254.076,T*29
$PYRTM,2024,126.751545296771,17.861192706910
$GNGGA,180213.50,3358.67769766,N,11934.36111971,W,2,11,0.9,7.912,M,-37.456,M,5.4,0131*6F
$PYRTM,2024,126.751545296771,17.861192706910
$GNHDT,254.144,T*29
$PYRTM,2024,126.751551133356,17.861198543495
$GNGGA,180214.00,3358.67759811,N,11934.36135904,W,2,11,0.9,7.937,M,-37.456,M,6.0,0131*65
$PYRTM,2024,126.751551133356,17.861198543495
$GNHDT,254.358,T*26
$PYRTM,2024,126.751556870440,17.861204280590
$GNGGA,180214.50,3358.67750288,N,11934.36160380,W,2,11,0.9,7.947,M,-37.456,M,6.4,0131*66
$PYRTM,2024,126.751556870440,17.861204280590
$GNHDT,254.277,T*2A
$PYRTM,2024,126.751562706215,17.861210116354
$GNGGA,180215.00,3358.67742738,N,11934.36184030,W,2,11,0.9,7.940,M,-37.456,M,7.0,0131*6F
$PYRTM,2024,126.751562706215,17.861210116354
$GNHDT,254.104,T*2D
$PYRTM,2024,126.751568445127,17.861215855266
$GNGGA,180215.50,3358.67737550,N,11934.36206767,W,2,11,0.9,7.935,M,-37.456,M,7.4,0131*6E
$PYRTM,2024,126.751568445127,17.861215855266
$GNHDT,254.125,T*2E
$PYRTM,2024,126.751574281227,17.861221691366
$GNGGA,180216.00,3358.67733387,N,11934.36228785,W,2,11,0.9,7.892,M,-37.456,M,7.0,0131*68
$PYRTM,2024,126.751574281227,17.861221691366
$GNHDT,253.905,T*23
$PYRTM,2024,126.751580018889,17.861227429028
$GNGGA,180216.50,3358.67728294,N,11934.36250905,W,2,11,0.9,7.840,M,-37.456,M,7.4,0131*66
$PYRTM,2024,126.751580018889,17.861227429028
$GNHDT,253.809,T*2E
$PYRTM,2024,126.751585856111,17.861233266250
$GNGGA,180217.00,3358.67721516,N,11934.36273440,W,2,11,0.9,7.781,M,-37.456,M,7.0,0131*6D
$PYRTM,2024,126.751585856111,17.861233266250
$GNHDT,253.755,T*28
$PYRTM,2024,126.751591591053,17.861239001192
$GNGGA,180217.50,3358.67713126,N,11934.36295477,W,2,11,0.9,7.755,M,-37.456,M,7.4,0131*6F
$PYRTM,2024,126.751591591053,17.861239001192
$GNHDT,253.610,T*28
$PYRTM,2024,126.751597427870,17.861244838009
$GNGGA,180218.00,3358.67704360,N,11934.36316063,W,2,11,0.9,7.796,M,-37.456,M,4.0,0131*60
$PYRTM,2024,126.751597427870,17.861244838009
$GNHDT,253.642,T*2F
$PYRTM,2024,126.751603165567,17.861250575706
$GNGGA,180218.50,3358.67696962,N,11934.36334608,W,2,11,0.9,7.907,M,-37.456,M,4.4,0131*6E
$PYRTM,2024,126.751603165567,17.861250575706
$GNHDT,253.697,T*27
$PYRTM,2024,126.751609005394,17.861256415532
$GNGGA,180219.00,3358.67691615,N,11934.36351936,W,2,11,0.9,8.063,M,-37.456,M,5.0,0131*62
$PYRTM,2024,126.751609005394,17.861256415532
$GNHDT,253.740,T*2C
$PYRTM,2024,126.751614737025,17.861262147164
$GNGGA,180219.50,3358.67687985,N,11934.36369789,W,2,11,0.9,8.208,M,-37.456,M,5.4,0131*6C
$PYRTM,2024,126.751614737025,17.861262147164
$GNHDT,253.853,T*21
$PYRTM,2024,126.751620580394,17.861267990532
$GNGGA,180220.00,3358.67685141,N,11934.36389247,W,2,11,0.9,8.283,M,-37.456,M,6.0,0131*6C
$PYRTM,2024,126.751620580394,17.861267990532
$GNHDT,253.774,T*2B
$PYRTM,2024,126.751626319028,17.861273729167
$GNGGA,180220.50,3358.67682143,N,11934.36410843,W,2,11,0.9,8.279,M,-37.456,M,6.4,0131*64
$PYRTM,2024,126.751626319028,17.861273729167
$GNHDT,253.732,T*29
$PYRTM,2024,126.751632153924,17.861279564062
$GNGGA,180221.00,3358.67678420,N,11934.36434416,W,2,11,0.9,8.203,M,-37.456,M,7.0,0131*67
$PYRTM,2024,126.751632153924,17.861279564062
$GNHDT,253.727,T*2D
$PYRTM,2024,126.751637885868,17.861285296007
$GNGGA,180221.50,3358.67673693,N,11934.36459252,W,2,11,0.9,8.100,M,-37.456,M,7.4,0131*6A
$PYRTM,2024,126.751637885868,17.861285296007
$GNHDT,253.500,T*2A
$PYRTM,2024,126.751643728241,17.861291138380
$GNGGA,180222.00,3358.67667960,N,11934.36484713,W,2,11,0.9,7.999,M,-37.456,M,7.0,0131*69
$PYRTM,2024,126.751643728241,17.861291138380
$GNHDT,253.268,T*23
$PYRTM,2024,126.751649460405,17.861296870544
$GNGGA,180222.50,3358.67661458,N,11934.36508603,W,2,11,0.9,7.951,M,-37.456,M,7.4,0131*69
$PYRTM,2024,126.751649460405,17.861296870544
$GNHDT,253.056,T*2C
$PYRTM,2024,126.751655298912,17.861302709051
$GNGGA,180223.00,3358.67654318,N,11934.36531029,W,2,11,0.9,7.974,M,-37.456,M,7.0,0131*6F
$PYRTM,2024,126.751655298912,17.861302709051
$GNHDT,253.180,T*26
$PYRTM,2024,126.751661035231,17.861308445370
$GNGGA,180223.50,3358.67647515,N,11934.36551630,W,2,11,0.9,8.080,M,-37.456,M,7.4,0131*62
$PYRTM,2024,126.751661035231,17.861308445370
$GNHDT,253.096,T*20
$PYRTM,2024,126.751666873657,17.861314283796
$GNGGA,180224.00,3358.67641541,N,11934.36571093,W,2,11,0.9,8.202,M,-37.456,M,4.0,0131*65
$PYRTM,2024,126.751666873657,17.861314283796
$GNHDT,252.959,T*2B
$PYRTM,2024,126.751672607627,17.861320017766
$GNGGA,180224.50,3358.67637151,N,11934.36591912,W,2,11,0.9,8.317,M,-37.456,M,4.4,0131*6B
$PYRTM,2024,126.751672607627,17.861320017766
$GNHDT,253.132,T*2F
$PYRTM,2024,126.751678453252,17.861325863391
$GNGGA,180225.00,3358.67634632,N,11934.36614868,W,2,11,0.9,8.357,M,-37.456,M,5.0,0131*6D
$PYRTM,2024,126.751678453252,17.861325863391
$GNHDT,253.042,T*29
$PYRTM,2024,126.751684181632,17.861331591771
$GNGGA,180225.50,3358.67633126,N,11934.36639709,W,2,11,0.9,8.320,M,-37.456,M,5.4,0131*6E
$PYRTM,2024,126.751684181632,17.861331591771
$GNHDT,252.751,T*2D
$PYRTM,2024,126.751690022465,17.861337432604
$GNGGA,180226.00,3358.67631161,N,11934.36665510,W,2,11,0.9,8.223,M,-37.456,M,6.0,0131*6F
$PYRTM,2024,126.751690022465,17.861337432604
$GNHDT,252.602,T*2A
$PYRTM,2024,126.751695759560,17.861343169711
$GNGGA,180226.50,3358.67628170,N,11934.36690985,W,2,11,0.9,8.105,M,-37.456,M,6.4,0131*6B
$PYRTM,2024,126.751695759560,17.861343169711
$GNHDT,252.697,T*26
$PYRTM,2024,126.751701597581,17.861349007720
$GNGGA,180227.00,3358.67621703,N,11934.36713351,W,2,11,0.9,8.012,M,-37.456,M,7.0,0131*6F
$PYRTM,2024,126.751701597581,17.861349007720
$GNHDT,252.529,T*20
$PYRTM,2024,126.751707330139,17.861354740278
$GNGGA,180227.50,3358.67613092,N,11934.36733799,W,2,11,0.9,7.986,M,-37.456,M,7.4,0131*69
$PYRTM,2024,126.751707330139,17.861354740278
$GNHDT,252.268,T*22
$PYRTM,2024,126.751713171076,17.861360581215
$GNGGA,180228.00,3358.67602645,N,11934.36752616,W,2,11,0.9,7.992,M,-37.456,M,7.0,0131*6F
$PYRTM,2024,126.751713171076,17.861360581215
$GNHDT,252.288,T*2C
$PYRTM,2024,126.751718910289,17.861366320428
$GNGGA,180228.50,3358.67592219,N,11934.36771085,W,2,11,0.9,8.036,M,-37.456,M,7.4,0131*6C
$PYRTM,2024,126.751718910289,17.861366320428
$GNHDT,252.040,T*2A
$PYRTM,2024,126.751724745567,17.861372155706
