$PYRTM,2024,123.000005449618,14.109652859769
$GNGGA,000000.50,3352.24837524,N,11931.98871002,W,2,12,0.9,6.804,M,-37.676,M,5.4,0135*68
$PYRTM,2024,123.000005449618,14.109652859769
$GNHDT,23.122,T*1B
$PYRTM,2024,123.000011291273,14.109658701412
$GNGGA,000001.00,3352.24867569,N,11931.98848829,W,2,12,0.9,6.729,M,-37.676,M,6.0,0135*6C
$PYRTM,2024,123.000011291273,14.109658701412
$GNHDT,23.184,T*17
$PYRTM,2024,123.000017023380,14.109664433519
$GNGGA,000001.50,3352.24896874,N,11931.98826274,W,2,12,0.9,6.638,M,-37.676,M,6.4,0135*69
$PYRTM,2024,123.000017023380,14.109664433519
$GNHDT,23.037,T*1E
$PYRTM,2024,123.000022863981,14.109670274120
$GNGGA,000002.00,3352.24925152,N,11931.98802220,W,2,12,0.9,6.525,M,-37.676,M,7.0,0135*66
$PYRTM,2024,123.000022863981,14.109670274120
$GNHDT,23.008,T*12
$PYRTM,2024,123.000028597951,14.109676008090
$GNGGA,000002.50,3352.24952847,N,11931.98778854,W,2,12,0.9,6.446,M,-37.676,M,7.4,0135*65
$PYRTM,2024,123.000028597951,14.109676008090
$GNHDT,22.939,T*18
$PYRTM,2024,123.000034440255,14.109681850405
$GNGGA,000003.00,3352.24980517,N,11931.98757728,W,2,12,0.9,6.401,M,-37.676,M,7.0,0135*68
$PYRTM,2024,123.000034440255,14.109681850405
$GNHDT,22.904,T*16
$PYRTM,2024,123.000040172454,14.109687582604
$GNGGA,000003.50,3352.25008303,N,11931.98739554,W,2,12,0.9,6.400,M,-37.676,M,7.4,0135*62
$PYRTM,2024,123.000040172454,14.109687582604
$GNHDT,22.794,T*11
$PYRTM,2024,123.000046012789,14.109693422928
$GNGGA,000004.00,3352.25036763,N,11931.98724660,W,2,12,0.9,6.432,M,-37.676,M,7.0,0135*62
$PYRTM,2024,123.000046012789,14.109693422928
$GNHDT,22.994,T*1F
$PYRTM,2024,123.000051749931,14.109699160069
$GNGGA,000004.50,3352.25066399,N,11931.98711978,W,2,12,0.9,6.469,M,-37.676,M,7.4,0135*69
$PYRTM,2024,123.000051749931,14.109699160069
$GNHDT,23.396,T*16
$PYRTM,2024,123.000057585706,14.109704995845
$GNGGA,000005.00,3352.25097138,N,11931.98699275,W,2,12,0.9,6.499,M,-37.676,M,4.0,0135*65
$PYRTM,2024,123.000057585706,14.109704995845
$GNHDT,23.365,T*1A
$PYRTM,2024,123.000063325995,14.109710736134
$GNGGA,000005.50,3352.25129008,N,11931.98683269,W,2,12,0.9,6.498,M,-37.676,M,4.4,0135*65
$PYRTM,2024,123.000063325995,14.109710736134
$GNHDT,23.242,T*1E
$PYRTM,2024,123.000069162141,14.109716572280
$GNGGA,000006.00,3352.25160015,N,11931.98662287,W,2,12,0.9,6.485,M,-37.676,M,5.0,0135*64
$PYRTM,2024,123.000069162141,14.109716572280
$GNHDT,22.991,T*1A
$PYRTM,2024,123.000074895220,14.109722305359
$GNGGA,000006.50,3352.25190178,N,11931.98637383,W,2,12,0.9,6.490,M,-37.676,M,5.4,0135*61
$PYRTM,2024,123.000074895220,14.109722305359
$GNHDT,22.647,T*1E
$PYRTM,2024,123.000080731771,14.109728141910
$GNGGA,000007.00,3352.25218019,N,11931.98610144,W,2,12,0.9,6.525,M,-37.676,M,6.0,0135*64
$PYRTM,2024,123.000080731771,14.109728141910
$GNHDT,22.280,T*11
$PYRTM,2024,123.000086468171,14.109733878310
$GNGGA,000007.50,3352.25244288,N,11931.98583397,W,2,12,0.9,6.598,M,-37.676,M,6.4,0135*65
$PYRTM,2024,123.000086468171,14.109733878310
$GNHDT,21.990,T*18
$PYRTM,2024,123.000092310498,14.109739720637
$GNGGA,000008.00,3352.25268596,N,11931.98558070,W,2,12,0.9,6.678,M,-37.676,M,7.0,0135*6D
$PYRTM,2024,123.000092310498,14.109739720637
$GNHDT,22.215,T*1D
$PYRTM,2024,123.000098047662,14.109745457813
$GNGGA,000008.50,3352.25293317,N,11931.98535660,W,2,12,0.9,6.724,M,-37.676,M,7.4,0135*63
$PYRTM,2024,123.000098047662,14.109745457813
$GNHDT,22.270,T*1E
$PYRTM,2024,123.000103881389,14.109751291528
$GNGGA,000009.00,3352.25319754,N,11931.98515913,W,2,12,0.9,6.709,M,-37.676,M,7.0,0135*65
$PYRTM,2024,123.000103881389,14.109751291528
$GNHDT,22.598,T*1F
$PYRTM,2024,123.000109616412,14.109757026551
$GNGGA,000009.50,3352.25348777,N,11931.98496686,W,2,12,0.9,6.618,M,-37.676,M,7.4,0135*69
$PYRTM,2024,123.000109616412,14.109757026551
$GNHDT,22.975,T*10
$PYRTM,2024,123.000115456516,14.109762866655
$GNGGA,000010.00,3352.25379843,N,11931.98476770,W,2,12,0.9,6.478,M,-37.676,M,7.0,0135*68
$PYRTM,2024,123.000115456516,14.109762866655
$GNHDT,22.985,T*1F
$PYRTM,2024,123.000121190775,14.109768600914
$GNGGA,000010.50,3352.25410867,N,11931.98454179,W,2,12,0.9,6.338,M,-37.676,M,7.4,0135*6B
$PYRTM,2024,123.000121190775,14.109768600914
$GNHDT,23.159,T*17
$PYRTM,2024,123.000127031574,14.109774441713
$GNGGA,000011.00,3352.25442765,N,11931.98430313,W,2,12,0.9,6.225,M,-37.676,M,4.0,0135*63
$PYRTM,2024,123.000127031574,14.109774441713
$GNHDT,22.835,T*15
$PYRTM,2024,123.000132767384,14.109780177523
$GNGGA,000011.50,3352.25472388,N,11931.98403557,W,2,12,0.9,6.178,M,-37.676,M,4.4,0135*6B
$PYRTM,2024,123.000132767384,14.109780177523
$GNHDT,22.439,T*15
$PYRTM,2024,123.000138606238,14.109786016377
$GNGGA,000012.00,3352.25501113,N,11931.98376291,W,2,12,0.9,6.213,M,-37.676,M,5.0,0135*6B
$PYRTM,2024,123.000138606238,14.109786016377
$GNHDT,22.123,T*1B
$PYRTM,2024,123.000144338102,14.109791748241
$GNGGA,000012.50,3352.25529164,N,11931.98349283,W,2,12,0.9,6.340,M,-37.676,M,5.4,0135*68
$PYRTM,2024,123.000144338102,14.109791748241
$GNHDT,21.935,T*17
$PYRTM,2024,123.000150177847,14.109797587986
$GNGGA,000013.00,3352.25557600,N,11931.98325281,W,2,12,0.9,6.533,M,-37.676,M,6.0,0135*6D
$PYRTM,2024,123.000150177847,14.109797587986
$GNHDT,21.747,T*1C
$PYRTM,2024,123.000155912176,14.109803322315
$GNGGA,000013.50,3352.25586540,N,11931.98304974,W,2,12,0.9,6.696,M,-37.676,M,6.4,0135*69
$PYRTM,2024,123.000155912176,14.109803322315
$GNHDT,21.923,T*10
$PYRTM,2024,123.000161752940,14.109809163079
$GNGGA,000014.00,3352.25616438,N,11931.98288185,W,2,12,0.9,6.802,M,-37.676,M,7.0,0135*6A
$PYRTM,2024,123.000161752940,14.109809163079
$GNHDT,22.034,T*1C
$PYRTM,2024,123.000167489826,14.109814899965
$GNGGA,000014.50,3352.25647067,N,11931.98271738,W,2,12,0.9,6.814,M,-37.676,M,7.4,0135*60
$PYRTM,2024,123.000167489826,14.109814899965
$GNHDT,22.358,T*15
$PYRTM,2024,123.000173327338,14.109820737477
$GNGGA,000015.00,3352.25679158,N,11931.98253971,W,2,12,0.9,6.720,M,-37.676,M,7.0,0135*6B
$PYRTM,2024,123.000173327338,14.109820737477
$GNHDT,22.588,T*1E
$PYRTM,2024,123.000179062014,14.109826472153
$GNGGA,000015.50,3352.25710773,N,11931.98231885,W,2,12,0.9,6.559,M,-37.676,M,7.4,0135*69
$PYRTM,2024,123.000179062014,14.109826472153
$GNHDT,22.775,T*1E
$PYRTM,2024,123.000184902280,14.109832312419
$GNGGA,000016.00,3352.25742052,N,11931.98205946,W,2,12,0.9,6.387,M,-37.676,M,7.0,0135*64
$PYRTM,2024,123.000184902280,14.109832312419
$GNHDT,22.300,T*18
$PYRTM,2024,123.000190639896,14.109838050035
$GNGGA,000016.50,3352.25771068,N,11931.98176899,W,2,12,0.9,6.253,M,-37.676,M,7.4,0135*60
$PYRTM,2024,123.000190639896,14.109838050035
$GNHDT,22.090,T*12
$PYRTM,2024,123.000196474931,14.109843885069
$GNGGA,000017.00,3352.25799650,N,11931.98147271,W,2,12,0.9,6.189,M,-37.676,M,4.0,0135*62
$PYRTM,2024,123.000196474931,14.109843885069
$GNHDT,21.963,T*14
$PYRTM,2024,123.000202216528,14.109849626667
$GNGGA,000017.50,3352.25827998,N,11931.98119799,W,2,12,0.9,6.239,M,-37.676,M,4.4,0135*62
$PYRTM,2024,123.000202216528,14.109849626667
$GNHDT,21.389,T*1A
$PYRTM,2024,123.000208050220,14.109855460359
$GNGGA,000018.00,3352.25856573,N,11931.98096945,W,2,12,0.9,6.372,M,-37.676,M,5.0,0135*65
$PYRTM,2024,123.000208050220,14.109855460359
$GNHDT,21.118,T*10
$PYRTM,2024,123.000213782454,14.109861192593
$GNGGA,000018.50,3352.25885832,N,11931.98079053,W,2,12,0.9,6.538,M,-37.676,M,5.4,0135*65
$PYRTM,2024,123.000213782454,14.109861192593
$GNHDT,21.316,T*1C
$PYRTM,2024,123.000219622014,14.109867032153
$GNGGA,000019.00,3352.25915936,N,11931.98065208,W,2,12,0.9,6.680,M,-37.676,M,6.0,0135*6A
$PYRTM,2024,123.000219622014,14.109867032153
$GNHDT,21.557,T*1F
$PYRTM,2024,123.000225364340,14.109872774479
$GNGGA,000019.50,3352.25947011,N,11931.98052071,W,2,12,0.9,6.751,M,-37.676,M,6.4,0135*65
$PYRTM,2024,123.000225364340,14.109872774479
$GNHDT,21.578,T*12
$PYRTM,2024,123.000231198831,14.109878608970
$GNGGA,000020.00,3352.25978662,N,11931.98036166,W,2,12,0.9,6.721,M,-37.676,M,7.0,0135*63
$PYRTM,2024,123.000231198831,14.109878608970
$GNHDT,21.921,T*12
$PYRTM,2024,123.000236936725,14.109884346863
$GNGGA,000020.50,3352.26009825,N,11931.98015890,W,2,12,0.9,6.607,M,-37.676,M,7.4,0135*67
$PYRTM,2024,123.000236936725,14.109884346863
$GNHDT,22.183,T*11
$PYRTM,2024,123.000242772095,14.109890182234
$GNGGA,000021.00,3352.26040724,N,11931.97990673,W,2,12,0.9,6.437,M,-37.676,M,7.0,0135*6D
$PYRTM,2024,123.000242772095,14.109890182234
$GNHDT,22.024,T*1D
$PYRTM,2024,123.000248504201,14.109895914340
$GNGGA,000021.50,3352.26069628,N,11931.97961682,W,2,12,0.9,6.287,M,-37.676,M,7.4,0135*67
$PYRTM,2024,123.000248504201,14.109895914340
$GNHDT,21.911,T*11
$PYRTM,2024,123.000254344792,14.109901754931
$GNGGA,000022.00,3352.26098279,N,11931.97932181,W,2,12,0.9,6.136,M,-37.676,M,7.0,0135*60
$PYRTM,2024,123.000254344792,14.109901754931
$GNHDT,21.694,T*13
$PYRTM,2024,123.000260085972,14.109907496111
$GNGGA,000022.50,3352.26126943,N,11931.97904276,W,2,12,0.9,6.066,M,-37.676,M,7.4,0135*6D
$PYRTM,2024,123.000260085972,14.109907496111
$GNHDT,21.245,T*1B
$PYRTM,2024,123.000265920984,14.109913331123
$GNGGA,000023.00,3352.26156089,N,11931.97881147,W,2,12,0.9,6.083,M,-37.676,M,4.0,0135*60
$PYRTM,2024,123.000265920984,14.109913331123
$GNHDT,21.027,T*1D
$PYRTM,2024,123.000271658137,14.109919068275
$GNGGA,000023.50,3352.26186642,N,11931.97863836,W,2,12,0.9,6.187,M,-37.676,M,4.4,0135*6B
$PYRTM,2024,123.000271658137,14.109919068275
$GNHDT,20.897,T*1F
$PYRTM,2024,123.000277494699,14.109924904850
$GNGGA,000024.00,3352.26218192,N,11931.97851862,W,2,12,0.9,6.341,M,-37.676,M,5.0,0135*6A
$PYRTM,2024,123.000277494699,14.109924904850
$GNHDT,20.883,T*1A
$PYRTM,2024,123.000283226678,14.109930636829
$GNGGA,000024.50,3352.26250606,N,11931.97841911,W,2,12,0.9,6.473,M,-37.676,M,5.4,0135*6F
$PYRTM,2024,123.000283226678,14.109930636829
$GNHDT,20.963,T*15
$PYRTM,2024,123.000289065382,14.109936475521
$GNGGA,000025.00,3352.26282799,N,11931.97828792,W,2,12,0.9,6.545,M,-37.676,M,6.0,0135*6A
$PYRTM,2024,123.000289065382,14.109936475521
$GNHDT,21.391,T*13
$PYRTM,2024,123.000294799757,14.109942209896
$GNGGA,000025.50,3352.26314718,N,11931.97809434,W,2,12,0.9,6.532,M,-37.676,M,6.4,0135*60
$PYRTM,2024,123.000294799757,14.109942209896
$GNHDT,21.722,T*1F
$PYRTM,2024,123.000300641053,14.109948051192
$GNGGA,000026.00,3352.26345572,N,11931.97782558,W,2,12,0.9,6.456,M,-37.676,M,7.0,0135*6D
$PYRTM,2024,123.000300641053,14.109948051192
$GNHDT,21.626,T*1A
$PYRTM,2024,123.000306375046,14.109953785197
$GNGGA,000026.50,3352.26375643,N,11931.97749382,W,2,12,0.9,6.357,M,-37.676,M,7.4,0135*6E
$PYRTM,2024,123.000306375046,14.109953785197
$GNHDT,21.253,T*1C
$PYRTM,2024,123.000312214502,14.109959624641
$GNGGA,000027.00,3352.26405120,N,11931.97713520,W,2,12,0.9,6.269,M,-37.676,M,7.0,0135*61
$PYRTM,2024,123.000312214502,14.109959624641
$GNHDT,21.261,T*1D
$PYRTM,2024,123.000317949815,14.109965359965
$GNGGA,000027.50,3352.26434731,N,11931.97679513,W,2,12,0.9,6.271,M,-37.676,M,7.4,0135*60
$PYRTM,2024,123.000317949815,14.109965359965
$GNHDT,20.892,T*1A
$PYRTM,2024,123.000323789734,14.109971199873
$GNGGA,000028.00,3352.26465546,N,11931.97650621,W,2,12,0.9,6.349,M,-37.676,M,7.0,0135*6B
$PYRTM,2024,123.000323789734,14.109971199873
$GNHDT,20.677,T*1F
$PYRTM,2024,123.000329525903,14.109976936042
$GNGGA,000028.50,3352.26497635,N,11931.97627724,W,2,12,0.9,6.483,M,-37.676,M,7.4,0135*65
$PYRTM,2024,123.000329525903,14.109976936042
$GNHDT,20.456,T*1E
$PYRTM,2024,123.000335364780,14.109982774919
$GNGGA,000029.00,3352.26531311,N,11931.97610359,W,2,12,0.9,6.633,M,-37.676,M,4.0,0135*6B
$PYRTM,2024,123.000335364780,14.109982774919
$GNHDT,20.279,T*15
$PYRTM,2024,123.000341097431,14.109988507569
$GNGGA,000029.50,3352.26566072,N,11931.97595906,W,2,12,0.9,6.724,M,-37.676,M,4.4,0135*67
$PYRTM,2024,123.000341097431,14.109988507569
$GNHDT,20.377,T*1A
$PYRTM,2024,123.000346937488,14.109994347627
$GNGGA,000030.00,3352.26601142,N,11931.97581366,W,2,12,0.9,6.735,M,-37.676,M,5.0,0135*66
$PYRTM,2024,123.000346937488,14.109994347627
$GNHDT,20.678,T*10
$PYRTM,2024,123.000352672072,14.110000082211
$GNGGA,000030.50,3352.26636040,N,11931.97564018,W,2,12,0.9,6.655,M,-37.676,M,5.4,0135*66
$PYRTM,2024,123.000352672072,14.110000082211
$GNHDT,21.136,T*1C
$PYRTM,2024,123.000358511447,14.110005921586
$GNGGA,000031.00,3352.26668854,N,11931.97541099,W,2,12,0.9,6.504,M,-37.676,M,6.0,0135*6A
$PYRTM,2024,123.000358511447,14.110005921586
$GNHDT,21.379,T*15
$PYRTM,2024,123.000364244919,14.110011655058
$GNGGA,000031.50,3352.26699157,N,11931.97513712,W,2,12,0.9,6.350,M,-37.676,M,6.4,0135*6B
$PYRTM,2024,123.000364244919,14.110011655058
$GNHDT,21.346,T*19
$PYRTM,2024,123.000370087662,14.110017497801
$GNGGA,000032.00,3352.26727326,N,11931.97483014,W,2,12,0.9,6.182,M,-37.676,M,7.0,0135*6C
$PYRTM,2024,123.000370087662,14.110017497801
$GNHDT,21.222,T*1A
$PYRTM,2024,123.000375818345,14.110023228484
$GNGGA,000032.50,3352.26754704,N,11931.97451859,W,2,12,0.9,6.063,M,-37.676,M,7.4,0135*6D
$PYRTM,2024,123.000375818345,14.110023228484
$GNHDT,20.809,T*18
$PYRTM,2024,123.000381659167,14.110029069306
$GNGGA,000033.00,3352.26783370,N,11931.97422640,W,2,12,0.9,5.992,M,-37.676,M,7.0,0135*66
$PYRTM,2024,123.000381659167,14.110029069306
$GNHDT,20.826,T*15
$PYRTM,2024,123.000387395937,14.110034806076
$GNGGA,000033.50,3352.26812812,N,11931.97397340,W,2,12,0.9,5.994,M,-37.676,M,7.4,0135*65
$PYRTM,2024,123.000387395937,14.110034806076
$GNHDT,20.539,T*16
$PYRTM,2024,123.000393233611,14.110040643750
$GNGGA,000034.00,3352.26843656,N,11931.97377227,W,2,12,0.9,6.067,M,-37.676,M,7.0,0135*61
$PYRTM,2024,123.000393233611,14.110040643750
$GNHDT,20.524,T*1A
$PYRTM,2024,123.000398970347,14.110046380486
$GNGGA,000034.50,3352.26875618,N,11931.97363065,W,2,12,0.9,6.170,M,-37.676,M,7.4,0135*69
$PYRTM,2024,123.000398970347,14.110046380486
$GNHDT,20.639,T*15
$PYRTM,2024,123.000404807928,14.110052218067
$GNGGA,000035.00,3352.26908094,N,11931.97352972,W,2,12,0.9,6.285,M,-37.676,M,4.0,0135*67
$PYRTM,2024,123.000404807928,14.110052218067
$GNHDT,20.695,T*13
$PYRTM,2024,123.000410541088,14.110057951227
$GNGGA,000035.50,3352.26940025,N,11931.97341455,W,2,12,0.9,6.355,M,-37.676,M,4.4,0135*66
$PYRTM,2024,123.000410541088,14.110057951227
$GNHDT,20.913,T*12
$PYRTM,2024,123.000416382037,14.110063792187
$GNGGA,000036.00,3352.26971802,N,11931.97326704,W,2,12,0.9,6.357,M,-37.676,M,5.0,0135*6E
$PYRTM,2024,123.000416382037,14.110063792187
$GNHDT,21.037,T*1C
$PYRTM,2024,123.000422116794,14.110069526933
$GNGGA,000036.50,3352.27002049,N,11931.97306055,W,2,12,0.9,6.296,M,-37.676,M,5.4,0135*69
$PYRTM,2024,123.000422116794,14.110069526933
$GNHDT,20.994,T*1D
$PYRTM,2024,123.000427954329,14.110075364468
$GNGGA,000037.00,3352.27030257,N,11931.97279520,W,2,12,0.9,6.183,M,-37.676,M,6.0,0135*6F
$PYRTM,2024,123.000427954329,14.110075364468
$GNHDT,20.928,T*1A
$PYRTM,2024,123.000433688981,14.110081099120
$GNGGA,000037.50,3352.27057111,N,11931.97249056,W,2,12,0.9,6.048,M,-37.676,M,6.4,0135*6F
$PYRTM,2024,123.000433688981,14.110081099120
$GNHDT,20.934,T*17
$PYRTM,2024,123.000439529398,14.110086939537
$GNGGA,000038.00,3352.27082747,N,11931.97217908,W,2,12,0.9,5.910,M,-37.676,M,7.0,0135*63
$PYRTM,2024,123.000439529398,14.110086939537
$GNHDT,21.173,T*1D
$PYRTM,2024,123.000445263588,14.110092673727
$GNGGA,000038.50,3352.27108996,N,11931.97190659,W,2,12,0.9,5.827,M,-37.676,M,7.4,0135*61
$PYRTM,2024,123.000445263588,14.110092673727
$GNHDT,21.279,T*14
$PYRTM,2024,123.000451103206,14.110098513345
$GNGGA,000039.00,3352.27136474,N,11931.97169066,W,2,12,0.9,5.822,M,-37.676,M,7.0,0135*64
$PYRTM,2024,123.000451103206,14.110098513345
$GNHDT,21.551,T*19
$PYRTM,2024,123.000456839711,14.110104249850
$GNGGA,000039.50,3352.27166088,N,11931.97154325,W,2,12,0.9,5.876,M,-37.676,M,7.4,0135*6C
$PYRTM,2024,123.000456839711,14.110104249850
$GNHDT,21.737,T*1B
$PYRTM,2024,123.000462677801,14.110110087940
$GNGGA,000040.00,3352.27198431,N,11931.97143826,W,2,12,0.9,5.971,M,-37.676,M,7.0,0135*6C
$PYRTM,2024,123.000462677801,14.110110087940
$GNHDT,21.982,T*1B
$PYRTM,2024,123.000468411632,14.110115821771
$GNGGA,000040.50,3352.27232578,N,11931.97133822,W,2,12,0.9,6.081,M,-37.676,M,7.4,0135*64
$PYRTM,2024,123.000468411632,14.110115821771
$GNHDT,21.934,T*16
$PYRTM,2024,123.000474253137,14.110121663275
$GNGGA,000041.00,3352.27267575,N,11931.97120523,W,2,12,0.9,6.183,M,-37.676,M,4.0,0135*67
$PYRTM,2024,123.000474253137,14.110121663275
$GNHDT,21.971,T*17
$PYRTM,2024,123.000479986053,14.110127396204
$GNGGA,000041.50,3352.27301861,N,11931.97101619,W,2,12,0.9,6.289,M,-37.676,M,4.4,0135*6F
$PYRTM,2024,123.000479986053,14.110127396204
$GNHDT,22.050,T*1E
$PYRTM,2024,123.000485826088,14.110133236227
$GNGGA,000042.00,3352.27333946,N,11931.97076873,W,2,12,0.9,6.403,M,-37.676,M,5.0,0135*6E
$PYRTM,2024,123.000485826088,14.110133236227
$GNHDT,22.153,T*1C
$PYRTM,2024,123.000491559248,14.110138969387
$GNGGA,000042.50,3352.27364369,N,11931.97047972,W,2,12,0.9,6.525,M,-37.676,M,5.4,0135*6D
$PYRTM,2024,123.000491559248,14.110138969387
$GNHDT,22.283,T*12
$PYRTM,2024,123.000497399421,14.110144809560
$GNGGA,000043.00,3352.27393787,N,11931.97016493,W,2,12,0.9,6.642,M,-37.676,M,6.0,0135*66
$PYRTM,2024,123.000497399421,14.110144809560
$GNHDT,22.419,T*17
$PYRTM,2024,123.000503133576,14.110150543715
$GNGGA,000043.50,3352.27423321,N,11931.96984542,W,2,12,0.9,6.745,M,-37.676,M,6.4,0135*6B
$PYRTM,2024,123.000503133576,14.110150543715
$GNHDT,22.650,T*18
$PYRTM,2024,123.000508976111,14.110156386250
$GNGGA,000044.00,3352.27453419,N,11931.96953869,W,2,12,0.9,6.808,M,-37.676,M,7.0,0135*6F
$PYRTM,2024,123.000508976111,14.110156386250
$GNHDT,22.920,T*10
$PYRTM,2024,123.000514709421,14.110162119560
$GNGGA,000044.50,3352.27485121,N,11931.96924636,W,2,12,0.9,6.819,M,-37.676,M,7.4,0135*6F
$PYRTM,2024,123.000514709421,14.110162119560
$GNHDT,23.369,T*16
$PYRTM,2024,123.000520546574,14.110167956713
$GNGGA,000045.00,3352.27518567,N,11931.96897485,W,2,12,0.9,6.792,M,-37.676,M,7.0,0135*63
$PYRTM,2024,123.000520546574,14.110167956713
$GNHDT,23.802,T*10
$PYRTM,2024,123.000526282222,14.110173692373
$GNGGA,000045.50,3352.27553609,N,11931.96871790,W,2,12,0.9,6.733,M,-37.676,M,7.4,0135*62
$PYRTM,2024,123.000526282222,14.110173692373
$GNHDT,24.399,T*1E
$PYRTM,2024,123.000532119734,14.110179529873
$GNGGA,000046.00,3352.27589232,N,11931.96848890,W,2,12,0.9,6.687,M,-37.676,M,7.0,0135*60
$PYRTM,2024,123.000532119734,14.110179529873
$GNHDT,24.799,T*1A
$PYRTM,2024,123.000537858692,14.110185268831
$GNGGA,000046.50,3352.27624549,N,11931.96827973,W,2,12,0.9,6.635,M,-37.676,M,7.4,0135*62
$PYRTM,2024,123.000537858692,14.110185268831
$GNHDT,25.008,T*14
$PYRTM,2024,123.000543695880,14.110191106019
$GNGGA,000047.00,3352.27658519,N,11931.96807946,W,2,12,0.9,6.584,M,-37.676,M,4.0,0135*62
$PYRTM,2024,123.000543695880,14.110191106019
$GNHDT,25.473,T*1C
$PYRTM,2024,123.000549430544,14.110196840683
$GNGGA,000047.50,3352.27690428,N,11931.96786637,W,2,12,0.9,6.531,M,-37.676,M,4.4,0135*65
$PYRTM,2024,123.000549430544,14.110196840683
$GNHDT,25.732,T*1A
$PYRTM,2024,123.000555270845,14.110202680984
$GNGGA,000048.00,3352.27719624,N,11931.96762888,W,2,12,0.9,6.440,M,-37.676,M,5.0,0135*63
$PYRTM,2024,123.000555270845,14.110202680984
$GNHDT,26.168,T*10
$PYRTM,2024,123.000561004838,14.110208414977
$GNGGA,000048.50,3352.27746757,N,11931.96736387,W,2,12,0.9,6.304,M,-37.676,M,5.4,0135*6F
$PYRTM,2024,123.000561004838,14.110208414977
$GNHDT,26.773,T*1C
$PYRTM,2024,123.000566845417,14.110214255556
$GNGGA,000049.00,3352.27772396,N,11931.96708191,W,2,12,0.9,6.117,M,-37.676,M,6.0,0135*6A
$PYRTM,2024,123.000566845417,14.110214255556
$GNHDT,27.160,T*19
$PYRTM,2024,123.000572576250,14.110219986389
$GNGGA,000049.50,3352.27797179,N,11931.96679051,W,2,12,0.9,5.928,M,-37.676,M,6.4,0135*6E
$PYRTM,2024,123.000572576250,14.110219986389
$GNHDT,27.543,T*1C
$PYRTM,2024,123.000578415914,14.110225826053
$GNGGA,000050.00,3352.27822616,N,11931.96653025,W,2,12,0.9,5.758,M,-37.676,M,7.0,0135*6B
$PYRTM,2024,123.000578415914,14.110225826053
$GNHDT,27.872,T*13
$PYRTM,2024,123.000584151285,14.110231561424
$GNGGA,000050.50,3352.27850544,N,11931.96631714,W,2,12,0.9,5.669,M,-37.676,M,7.4,0135*69
$PYRTM,2024,123.000584151285,14.110231561424
$GNHDT,28.092,T*1A
$PYRTM,2024,123.000589992106,14.110237402245
$GNGGA,000051.00,3352.27877927,N,11931.96613580,W,2,12,0.9,5.703,M,-37.676,M,7.0,0135*67
$PYRTM,2024,123.000589992106,14.110237402245
$GNHDT,28.398,T*13
$PYRTM,2024,123.000595727685,14.110243137824
$GNGGA,000051.50,3352.27908232,N,11931.96600628,W,2,12,0.9,5.809,M,-37.676,M,7.4,0135*66
$PYRTM,2024,123.000595727685,14.110243137824
$GNHDT,28.659,T*1B
$PYRTM,2024,123.000601564201,14.110248974340
$GNGGA,000052.00,3352.27936626,N,11931.96586826,W,2,12,0.9,6.003,M,-37.676,M,7.0,0135*64
$PYRTM,2024,123.000601564201,14.110248974340
$GNHDT,28.661,T*10
$PYRTM,2024,123.000607298924,14.110254709063
$GNGGA,000052.50,3352.27963933,N,11931.96569905,W,2,12,0.9,6.208,M,-37.676,M,7.4,0135*66
$PYRTM,2024,123.000607298924,14.110254709063
$GNHDT,29.319,T*1B
$PYRTM,2024,123.000613140370,14.110260550509
$GNGGA,000053.00,3352.27990915,N,11931.96549043,W,2,12,0.9,6.359,M,-37.676,M,4.0,0135*61
$PYRTM,2024,123.000613140370,14.110260550509
$GNHDT,29.405,T*11
$PYRTM,2024,123.000618875278,14.110266285417
$GNGGA,000053.50,3352.28015298,N,11931.96520554,W,2,12,0.9,6.424,M,-37.676,M,4.4,0135*64
$PYRTM,2024,123.000618875278,14.110266285417
$GNHDT,29.805,T*1D
$PYRTM,2024,123.000624714861,14.110272125000
$GNGGA,000054.00,3352.28037969,N,11931.96486473,W,2,12,0.9,6.438,M,-37.676,M,5.0,0135*62
$PYRTM,2024,123.000624714861,14.110272125000
$GNHDT,30.323,T*1A
$PYRTM,2024,123.000630449444,14.110277859583
$GNGGA,000054.50,3352.28058949,N,11931.96448665,W,2,12,0.9,6.443,M,-37.676,M,5.4,0135*63
$PYRTM,2024,123.000630449444,14.110277859583
$GNHDT,30.591,T*15
$PYRTM,2024,123.000636287523,14.110283697662
$GNGGA,000055.00,3352.28083065,N,11931.96413626,W,2,12,0.9,6.433,M,-37.676,M,6.0,0135*6F
$PYRTM,2024,123.000636287523,14.110283697662
$GNHDT,30.856,T*13
$PYRTM,2024,123.000642023032,14.110289433171
$GNGGA,000055.50,3352.28108847,N,11931.96383234,W,2,12,0.9,6.447,M,-37.676,M,6.4,0135*6E
$PYRTM,2024,123.000642023032,14.110289433171
$GNHDT,31.061,T*1E
$PYRTM,2024,123.000647863981,14.110295274120
$GNGGA,000056.00,3352.28137588,N,11931.96358838,W,2,12,0.9,6.497,M,-37.676,M,7.0,0135*62
$PYRTM,2024,123.000647863981,14.110295274120
$GNHDT,31.542,T*1A
$PYRTM,2024,123.000653595440,14.110301005579
$GNGGA,000056.50,3352.28168972,N,11931.96338764,W,2,12,0.9,6.562,M,-37.676,M,7.4,0135*6B
$PYRTM,2024,123.000653595440,14.110301005579
$GNHDT,32.200,T*18
$PYRTM,2024,123.000659436991,14.110306847130
$GNGGA,000057.00,3352.28202781,N,11931.96323264,W,2,12,0.9,6.644,M,-37.676,M,7.0,0135*6E
$PYRTM,2024,123.000659436991,14.110306847130
$GNHDT,32.548,T*13
$PYRTM,2024,123.000665171146,14.110312581285
$GNGGA,000057.50,3352.28235071,N,11931.96305637,W,2,12,0.9,6.738,M,-37.676,M,7.4,0135*6F
$PYRTM,2024,123.000665171146,14.110312581285
$GNHDT,32.651,T*18
$PYRTM,2024,123.000671012894,14.110318423032
$GNGGA,000058.00,3352.28266293,N,11931.96285167,W,2,12,0.9,6.796,M,-37.676,M,7.0,0135*66
$PYRTM,2024,123.000671012894,14.110318423032
$GNHDT,32.872,T*17
$PYRTM,2024,123.000676751030,14.110324161169
$GNGGA,000058.50,3352.28294678,N,11931.96258355,W,2,12,0.9,6.807,M,-37.676,M,7.4,0135*6F
$PYRTM,2024,123.000676751030,14.110324161169
$GNHDT,33.410,T*1E
$PYRTM,2024,123.000682590752,14.110330000891
$GNGGA,000059.00,3352.28320785,N,11931.96225872,W,2,12,0.9,6.760,M,-37.676,M,4.0,0135*6B
$PYRTM,2024,123.000682590752,14.110330000891
$GNHDT,33.807,T*14
$PYRTM,2024,123.000688324792,14.110335734931
$GNGGA,000059.50,3352.28345024,N,11931.96189956,W,2,12,0.9,6.673,M,-37.676,M,4.4,0135*64
$PYRTM,2024,123.000688324792,14.110335734931
$GNHDT,33.873,T*17
$PYRTM,2024,123.000694164271,14.110341574410
$GNGGA,000100.00,3352.28368663,N,11931.96154222,W,2,12,0.9,6.587,M,-37.676,M,5.0,0135*63
$PYRTM,2024,123.000694164271,14.110341574410
$GNHDT,33.905,T*17
$PYRTM,2024,123.000699892847,14.110347302986
$GNGGA,000100.50,3352.28394725,N,11931.96123582,W,2,12,0.9,6.531,M,-37.676,M,5.4,0135*62
$PYRTM,2024,123.000699892847,14.110347302986
$GNHDT,33.945,T*13
$PYRTM,2024,123.000705735069,14.110353145208
$GNGGA,000101.00,3352.28422990,N,11931.96098978,W,2,12,0.9,6.524,M,-37.676,M,6.0,0135*67
$PYRTM,2024,123.000705735069,14.110353145208
$GNHDT,34.141,T*18
$PYRTM,2024,123.000711466192,14.110358876331
$GNGGA,000101.50,3352.28452432,N,11931.96079415,W,2,12,0.9,6.562,M,-37.676,M,6.4,0135*6F
$PYRTM,2024,123.000711466192,14.110358876331
$GNHDT,34.682,T*10
$PYRTM,2024,123.000717308565,14.110364718715
$GNGGA,000102.00,3352.28482036,N,11931.96062186,W,2,12,0.9,6.626,M,-37.676,M,7.0,0135*67
$PYRTM,2024,123.000717308565,14.110364718715
$GNHDT,35.216,T*18
$PYRTM,2024,123.000723040509,14.110370450648
$GNGGA,000102.50,3352.28511596,N,11931.96045466,W,2,12,0.9,6.645,M,-37.676,M,7.4,0135*69
$PYRTM,2024,123.000723040509,14.110370450648
$GNHDT,35.520,T*1A
$PYRTM,2024,123.000728881181,14.110376291319
$GNGGA,000103.00,3352.28539954,N,11931.96025574,W,2,12,0.9,6.584,M,-37.676,M,7.0,0135*6B
$PYRTM,2024,123.000728881181,14.110376291319
$GNHDT,35.894,T*18
$PYRTM,2024,123.000734615752,14.110382025891
$GNGGA,000103.50,3352.28565512,N,11931.96000240,W,2,12,0.9,6.442,M,-37.676,M,7.4,0135*61
$PYRTM,2024,123.000734615752,14.110382025891
$GNHDT,36.342,T*1B
$PYRTM,2024,123.000740454965,14.110387865104
$GNGGA,000104.00,3352.28588117,N,11931.95969295,W,2,12,0.9,6.264,M,-37.676,M,7.0,0135*6A
$PYRTM,2024,123.000740454965,14.110387865104
$GNHDT,36.487,T*15
$PYRTM,2024,123.000746191250,14.110393601400
$GNGGA,000104.50,3352.28608396,N,11931.95934962,W,2,12,0.9,6.077,M,-37.676,M,7.4,0135*60
$PYRTM,2024,123.000746191250,14.110393601400
$GNHDT,36.707,T*1E
$PYRTM,2024,123.000752027951,14.110399438090
$GNGGA,000105.00,3352.28627301,N,11931.95899750,W,2,12,0.9,5.932,M,-37.676,M,4.0,0135*62
$PYRTM,2024,123.000752027951,14.110399438090
$GNHDT,36.709,T*10
$PYRTM,2024,123.000757769850,14.110405179988
$GNGGA,000105.50,3352.28646733,N,11931.95866619,W,2,12,0.9,5.894,M,-37.676,M,4.4,0135*60
$PYRTM,2024,123.000757769850,14.110405179988
$GNHDT,36.562,T*1F
$PYRTM,2024,123.000763602674,14.110411012813
$GNGGA,000106.00,3352.28667825,N,11931.95838139,W,2,12,0.9,5.973,M,-37.676,M,5.0,0135*6E
$PYRTM,2024,123.000763602674,14.110411012813
$GNHDT,36.639,T*12
$PYRTM,2024,123.000769341296,14.110416751435
$GNGGA,000106.50,3352.28691206,N,11931.95814758,W,2,12,0.9,6.157,M,-37.676,M,5.4,0135*6F
$PYRTM,2024,123.000769341296,14.110416751435
$GNHDT,36.750,T*1C
$PYRTM,2024,123.000775183056,14.110422593206
$GNGGA,000107.00,3352.28715929,N,11931.95795109,W,2,12,0.9,6.349,M,-37.676,M,6.0,0135*6E
$PYRTM,2024,123.000775183056,14.110422593206
$GNHDT,37.286,T*13
$PYRTM,2024,123.000780910637,14.110428320775
$GNGGA,000107.50,3352.28741429,N,11931.95775702,W,2,12,0.9,6.505,M,-37.676,M,6.4,0135*6E
$PYRTM,2024,123.000780910637,14.110428320775
$GNHDT,37.521,T*19
$PYRTM,2024,123.000786755197,14.110434165336
$GNGGA,000108.00,3352.28765879,N,11931.95755203,W,2,12,0.9,6.564,M,-37.676,M,7.0,0135*6F
$PYRTM,2024,123.000786755197,14.110434165336
$GNHDT,37.847,T*14
$PYRTM,2024,123.000792483507,14.110439893646
$GNGGA,000108.50,3352.28788185,N,11931.95730665,W,2,12,0.9,6.528,M,-37.676,M,7.4,0135*68
$PYRTM,2024,123.000792483507,14.110439893646
$GNHDT,38.225,T*15
$PYRTM,2024,123.000798324097,14.110445734236
$GNGGA,000109.00,3352.28807126,N,11931.95701521,W,2,12,0.9,6.417,M,-37.676,M,7.0,0135*65
$PYRTM,2024,123.000798324097,14.110445734236
$GNHDT,38.616,T*11
$PYRTM,2024,123.000804064190,14.110451474329
$GNGGA,000109.50,3352.28823480,N,11931.95669406,W,2,12,0.9,6.284,M,-37.676,M,7.4,0135*6C
$PYRTM,2024,123.000804064190,14.110451474329
$GNHDT,38.828,T*12
$PYRTM,2024,123.000809897049,14.110457307188
$GNGGA,000110.00,3352.28838100,N,11931.95636130,W,2,12,0.9,6.122,M,-37.676,M,7.0,0135*67
$PYRTM,2024,123.000809897049,14.110457307188
$GNHDT,38.942,T*1F
$PYRTM,2024,123.000815633079,14.110463043218
$GNGGA,000110.50,3352.28852848,N,11931.95604858,W,2,12,0.9,5.998,M,-37.676,M,7.4,0135*63
$PYRTM,2024,123.000815633079,14.110463043218
$GNHDT,39.624,T*11
$PYRTM,2024,123.000821471898,14.110468882037
$GNGGA,000111.00,3352.28869097,N,11931.95577048,W,2,12,0.9,5.944,M,-37.676,M,4.0,0135*6D
$PYRTM,2024,123.000821471898,14.110468882037
$GNHDT,39.688,T*17
$PYRTM,2024,123.000827207801,14.110474617940
$GNGGA,000111.50,3352.28888961,N,11931.95553763,W,2,12,0.9,5.991,M,-37.676,M,4.4,0135*63
$PYRTM,2024,123.000827207801,14.110474617940
$GNHDT,39.915,T*1C
$PYRTM,2024,123.000833045451,14.110480455590
$GNGGA,000112.00,3352.28913793,N,11931.95534685,W,2,12,0.9,6.084,M,-37.676,M,5.0,0135*66
$PYRTM,2024,123.000833045451,14.110480455590
$GNHDT,40.164,T*1C
$PYRTM,2024,123.000838782569,14.110486192708
$GNGGA,000112.50,3352.28941893,N,11931.95516627,W,2,12,0.9,6.208,M,-37.676,M,5.4,0135*61
$PYRTM,2024,123.000838782569,14.110486192708
$GNHDT,40.227,T*18
$PYRTM,2024,123.000844623021,14.110492033160
$GNGGA,000113.00,3352.28970877,N,11931.95496914,W,2,12,0.9,6.327,M,-37.676,M,6.0,0135*60
$PYRTM,2024,123.000844623021,14.110492033160
$GNHDT,40.446,T*19
$PYRTM,2024,123.000850355046,14.110497765185
$GNGGA,000113.50,3352.28998079,N,11931.95474376,W,2,12,0.9,6.420,M,-37.676,M,6.4,0135*63
$PYRTM,2024,123.000850355046,14.110497765185
$GNHDT,40.750,T*1D
$PYRTM,2024,123.000856193935,14.110503604074
$GNGGA,000114.00,3352.29023677,N,11931.95450109,W,2,12,0.9,6.463,M,-37.676,M,7.0,0135*6F
$PYRTM,2024,123.000856193935,14.110503604074
$GNHDT,41.113,T*1D
$PYRTM,2024,123.000861929294,14.110509339433
$GNGGA,000114.50,3352.29045579,N,11931.95421890,W,2,12,0.9,6.471,M,-37.676,M,7.4,0135*6F
$PYRTM,2024,123.000861929294,14.110509339433
$GNHDT,41.163,T*1A
$PYRTM,2024,123.000867768449,14.110515178588
$GNGGA,000115.00,3352.29064640,N,11931.95390394,W,2,12,0.9,6.456,M,-37.676,M,7.0,0135*62
$PYRTM,2024,123.000867768449,14.110515178588
$GNHDT,41.362,T*19
$PYRTM,2024,123.000873505475,14.110520915613
$GNGGA,000115.50,3352.29082367,N,11931.95356994,W,2,12,0.9,6.422,M,-37.676,M,7.4,0135*68
$PYRTM,2024,123.000873505475,14.110520915613
$GNHDT,41.673,T*1C
$PYRTM,2024,123.000879342627,14.110526752755
$GNGGA,000116.00,3352.29099555,N,11931.95322848,W,2,12,0.9,6.382,M,-37.676,M,7.0,0135*69
$PYRTM,2024,123.000879342627,14.110526752755
$GNHDT,42.030,T*1E
$PYRTM,2024,123.000885078762,14.110532488900
$GNGGA,000116.50,3352.29118246,N,11931.95289809,W,2,12,0.9,6.340,M,-37.676,M,7.4,0135*6E
$PYRTM,2024,123.000885078762,14.110532488900
$GNHDT,41.926,T*13
$PYRTM,2024,123.000890915926,14.110538326065
$GNGGA,000117.00,3352.29137578,N,11931.95258573,W,2,12,0.9,6.320,M,-37.676,M,4.0,0135*60
$PYRTM,2024,123.000890915926,14.110538326065
$GNHDT,42.223,T*1E
$PYRTM,2024,123.000896651910,14.110544062049
$GNGGA,000117.50,3352.29158323,N,11931.95231265,W,2,12,0.9,6.327,M,-37.676,M,4.4,0135*68
$PYRTM,2024,123.000896651910,14.110544062049
$GNHDT,42.500,T*18
$PYRTM,2024,123.000902494468,14.110549904606
$GNGGA,000118.00,3352.29179480,N,11931.95207866,W,2,12,0.9,6.351,M,-37.676,M,5.0,0135*67
$PYRTM,2024,123.000902494468,14.110549904606
$GNHDT,42.539,T*12
$PYRTM,2024,123.000908225590,14.110555635729
$GNGGA,000118.50,3352.29201284,N,11931.95186606,W,2,12,0.9,6.366,M,-37.676,M,5.4,0135*6E
$PYRTM,2024,123.000908225590,14.110555635729
$GNHDT,43.046,T*1E
$PYRTM,2024,123.000914065243,14.110561475382
$GNGGA,000119.00,3352.29222746,N,11931.95165369,W,2,12,0.9,6.365,M,-37.676,M,6.0,0135*65
$PYRTM,2024,123.000914065243,14.110561475382
$GNHDT,43.416,T*1F
$PYRTM,2024,123.000919799757,14.110567209896
$GNGGA,000119.50,3352.29243104,N,11931.95142450,W,2,12,0.9,6.337,M,-37.676,M,6.4,0135*6C
$PYRTM,2024,123.000919799757,14.110567209896
$GNHDT,43.651,T*1E
$PYRTM,2024,123.000925639248,14.110573049387
$GNGGA,000120.00,3352.29261691,N,11931.95116832,W,2,12,0.9,6.284,M,-37.676,M,7.0,0135*6D
$PYRTM,2024,123.000925639248,14.110573049387
$GNHDT,43.849,T*19
$PYRTM,2024,123.000931373912,14.110578784051
$GNGGA,000120.50,3352.29277591,N,11931.95087874,W,2,12,0.9,6.209,M,-37.676,M,7.4,0135*66
$PYRTM,2024,123.000931373912,14.110578784051
$GNHDT,44.002,T*19
$PYRTM,2024,123.000937214028,14.110584624178
$GNGGA,000121.00,3352.29290543,N,11931.95055558,W,2,12,0.9,6.139,M,-37.676,M,7.0,0135*6C
$PYRTM,2024,123.000937214028,14.110584624178
$GNHDT,44.158,T*17
$PYRTM,2024,123.000942946111,14.110590356250
$GNGGA,000121.50,3352.29304479,N,11931.95023144,W,2,12,0.9,6.065,M,-37.676,M,7.4,0135*69
$PYRTM,2024,123.000942946111,14.110590356250
$GNHDT,44.445,T*1E
$PYRTM,2024,123.000948785972,14.110596196111
$GNGGA,000122.00,3352.29318595,N,11931.94991776,W,2,12,0.9,6.033,M,-37.676,M,7.0,0135*60
$PYRTM,2024,123.000948785972,14.110596196111
$GNHDT,44.437,T*1B
$PYRTM,2024,123.000954520486,14.110601930625
$GNGGA,000122.50,3352.29334589,N,11931.94963008,W,2,12,0.9,6.058,M,-37.676,M,7.4,0135*6C
$PYRTM,2024,123.000954520486,14.110601930625
$GNHDT,44.676,T*1C
$PYRTM,2024,123.000960363264,14.110607773403
$GNGGA,000123.00,3352.29351943,N,11931.94937632,W,2,12,0.9,6.123,M,-37.676,M,4.0,0135*65
$PYRTM,2024,123.000960363264,14.110607773403
$GNHDT,44.746,T*1E
$PYRTM,2024,123.000966094583,14.110613504722
$GNGGA,000123.50,3352.29370934,N,11931.94914509,W,2,12,0.9,6.193,M,-37.676,M,4.4,0135*66
$PYRTM,2024,123.000966094583,14.110613504722
$GNHDT,44.969,T*1D
$PYRTM,2024,123.000971939294,14.110619349433
$GNGGA,000124.00,3352.29389097,N,11931.94890879,W,2,12,0.9,6.283,M,-37.676,M,5.0,0135*62
$PYRTM,2024,123.000971939294,14.110619349433
$GNHDT,45.485,T*13
$PYRTM,2024,123.000977669456,14.110625079595
$GNGGA,000124.50,3352.29407348,N,11931.94866773,W,2,12,0.9,6.350,M,-37.676,M,5.4,0135*60
$PYRTM,2024,123.000977669456,14.110625079595
$GNHDT,45.596,T*10
$PYRTM,2024,123.000983509190,14.110630919329
$GNGGA,000125.00,3352.29424399,N,11931.94840689,W,2,12,0.9,6.367,M,-37.676,M,6.0,0135*6A
$PYRTM,2024,123.000983509190,14.110630919329
$GNHDT,45.934,T*14
$PYRTM,2024,123.000989243287,14.110636653426
$GNGGA,000125.50,3352.29439859,N,11931.94811771,W,2,12,0.9,6.328,M,-37.676,M,6.4,0135*69
$PYRTM,2024,123.000989243287,14.110636653426
$GNHDT,46.532,T*1D
$PYRTM,2024,123.000995084537,14.110642494676
$GNGGA,000126.00,3352.29452886,N,11931.94780521,W,2,12,0.9,6.240,M,-37.676,M,7.0,0135*6A
$PYRTM,2024,123.000995084537,14.110642494676
$GNHDT,46.626,T*1B
$PYRTM,2024,123.001000819618,14.110648229769
$GNGGA,000126.50,3352.29465143,N,11931.94749374,W,2,12,0.9,6.138,M,-37.676,M,7.4,0135*60
$PYRTM,2024,123.001000819618,14.110648229769
$GNHDT,46.810,T*10
$PYRTM,2024,123.001006659190,14.110654069329
$GNGGA,000127.00,3352.29476826,N,11931.94717999,W,2,12,0.9,6.048,M,-37.676,M,7.0,0135*6C
$PYRTM,2024,123.001006659190,14.110654069329
$GNHDT,47.016,T*1F
$PYRTM,2024,123.001012391030,14.110659801169
$GNGGA,000127.50,3352.29489382,N,11931.94688105,W,2,12,0.9,6.010,M,-37.676,M,7.4,0135*6F
$PYRTM,2024,123.001012391030,14.110659801169
$GNHDT,47.102,T*1B
$PYRTM,2024,123.001018231007,14.110665641146
$GNGGA,000128.00,3352.29504676,N,11931.94661613,W,2,12,0.9,6.041,M,-37.676,M,7.0,0135*68
$PYRTM,2024,123.001018231007,14.110665641146
$GNHDT,47.267,T*1B
$PYRTM,2024,123.001023965532,14.110671375671
$GNGGA,000128.50,3352.29523115,N,11931.94638071,W,2,12,0.9,6.151,M,-37.676,M,7.4,0135*60
$PYRTM,2024,123.001023965532,14.110671375671
$GNHDT,47.123,T*18
$PYRTM,2024,123.001029804606,14.110677214757
$GNGGA,000129.00,3352.29543839,N,11931.94616210,W,2,12,0.9,6.312,M,-37.676,M,4.0,0135*6E
$PYRTM,2024,123.001029804606,14.110677214757
$GNHDT,47.395,T*17
$PYRTM,2024,123.001035539769,14.110682949907
$GNGGA,000129.50,3352.29564677,N,11931.94594423,W,2,12,0.9,6.481,M,-37.676,M,4.4,0135*6C
$PYRTM,2024,123.001035539769,14.110682949907
$GNHDT,47.724,T*19
$PYRTM,2024,123.001041381389,14.110688791539
$GNGGA,000130.00,3352.29585019,N,11931.94571568,W,2,12,0.9,6.610,M,-37.676,M,5.0,0135*6A
$PYRTM,2024,123.001041381389,14.110688791539
$GNHDT,47.920,T*13
$PYRTM,2024,123.001047113866,14.110694524005
$GNGGA,000130.50,3352.29602955,N,11931.94545835,W,2,12,0.9,6.672,M,-37.676,M,5.4,0135*60
$PYRTM,2024,123.001047113866,14.110694524005
$GNHDT,48.336,T*11
$PYRTM,2024,123.001052952639,14.110700362778
$GNGGA,000131.00,3352.29617893,N,11931.94516082,W,2,12,0.9,6.656,M,-37.676,M,6.0,0135*68
$PYRTM,2024,123.001052952639,14.110700362778
$GNHDT,48.697,T*1F
$PYRTM,2024,123.001058687593,14.110706097731
$GNGGA,000131.50,3352.29630671,N,11931.94483345,W,2,12,0.9,6.574,M,-37.676,M,6.4,0135*68
$PYRTM,2024,123.001058687593,14.110706097731
$GNHDT,49.035,T*10
$PYRTM,2024,123.001064525729,14.110711935868
$GNGGA,000132.00,3352.29642435,N,11931.94449210,W,2,12,0.9,6.445,M,-37.676,M,7.0,0135*68
$PYRTM,2024,123.001064525729,14.110711935868
$GNHDT,49.134,T*10
$PYRTM,2024,123.001070259097,14.110717669236
$GNGGA,000132.50,3352.29654191,N,11931.94415224,W,2,12,0.9,6.346,M,-37.676,M,7.4,0135*6F
$PYRTM,2024,123.001070259097,14.110717669236
$GNHDT,49.357,T*17
$PYRTM,2024,123.001076097431,14.110723507569
$GNGGA,000133.00,3352.29667831,N,11931.94384802,W,2,12,0.9,6.277,M,-37.676,M,7.0,0135*6E
$PYRTM,2024,123.001076097431,14.110723507569
$GNHDT,49.464,T*10
$PYRTM,2024,123.001081835741,14.110729245880
$GNGGA,000133.50,3352.29682869,N,11931.94357868,W,2,12,0.9,6.268,M,-37.676,M,7.4,0135*65
$PYRTM,2024,123.001081835741,14.110729245880
$GNHDT,49.576,T*12
$PYRTM,2024,123.001087672940,14.110735083079
$GNGGA,000134.00,3352.29700540,N,11931.94334927,W,2,12,0.9,6.295,M,-37.676,M,7.0,0135*63
$PYRTM,2024,123.001087672940,14.110735083079
$GNHDT,49.794,T*1C
$PYRTM,2024,123.001093407928,14.110740818079
$GNGGA,000134.50,3352.29719625,N,11931.94313782,W,2,12,0.9,6.340,M,-37.676,M,7.4,0135*67
$PYRTM,2024,123.001093407928,14.110740818079
$GNHDT,49.943,T*18
$PYRTM,2024,123.001099248171,14.110746658310
$GNGGA,000135.00,3352.29739125,N,11931.94292767,W,2,12,0.9,6.388,M,-37.676,M,4.0,0135*66
$PYRTM,2024,123.001099248171,14.110746658310
$GNHDT,50.048,T*12
$PYRTM,2024,123.001104982604,14.110752392743
$GNGGA,000135.50,3352.29756568,N,11931.94269851,W,2,12,0.9,6.412,M,-37.676,M,4.4,0135*69
$PYRTM,2024,123.001104982604,14.110752392743
$GNHDT,50.602,T*1A
$PYRTM,2024,123.001110822500,14.110758232639
$GNGGA,000136.00,3352.29771666,N,11931.94244322,W,2,12,0.9,6.383,M,-37.676,M,5.0,0135*6D
$PYRTM,2024,123.001110822500,14.110758232639
$GNHDT,50.952,T*10
$PYRTM,2024,123.001116557095,14.110763967234
$GNGGA,000136.50,3352.29783648,N,11931.94215617,W,2,12,0.9,6.335,M,-37.676,M,5.4,0135*67
$PYRTM,2024,123.001116557095,14.110763967234
$GNHDT,51.211,T*1D
$PYRTM,2024,123.001122394873,14.110769805012
$GNGGA,000137.00,3352.29793882,N,11931.94185538,W,2,12,0.9,6.261,M,-37.676,M,6.0,0135*69
$PYRTM,2024,123.001122394873,14.110769805012
$GNHDT,51.524,T*1C
$PYRTM,2024,123.001128130556,14.110775540694
$GNGGA,000137.50,3352.29803848,N,11931.94155651,W,2,12,0.9,6.200,M,-37.676,M,6.4,0135*6E
$PYRTM,2024,123.001128130556,14.110775540694
$GNHDT,51.904,T*12
$PYRTM,2024,123.001133970012,14.110781380150
$GNGGA,000138.00,3352.29814687,N,11931.94126987,W,2,12,0.9,6.167,M,-37.676,M,7.0,0135*68
$PYRTM,2024,123.001133970012,14.110781380150
$GNHDT,51.973,T*12
$PYRTM,2024,123.001139705567,14.110787115706
$GNGGA,000138.50,3352.29826675,N,11931.94099466,W,2,12,0.9,6.164,M,-37.676,M,7.4,0135*61
$PYRTM,2024,123.001139705567,14.110787115706
$GNHDT,51.837,T*13
$PYRTM,2024,123.001145546493,14.110792956632
$GNGGA,000139.00,3352.29840509,N,11931.94072444,W,2,12,0.9,6.186,M,-37.676,M,7.0,0135*60
$PYRTM,2024,123.001145546493,14.110792956632
$GNHDT,51.955,T*16
$PYRTM,2024,123.001151278044,14.110798688183
$GNGGA,000139.50,3352.29855852,N,11931.94045958,W,2,12,0.9,6.241,M,-37.676,M,7.4,0135*6A
$PYRTM,2024,123.001151278044,14.110798688183
$GNHDT,52.096,T*13
$PYRTM,2024,123.001157117905,14.110804528056
$GNGGA,000140.00,3352.29872476,N,11931.94020549,W,2,12,0.9,6.331,M,-37.676,M,7.0,0135*63
$PYRTM,2024,123.001157117905,14.110804528056
$GNHDT,52.351,T*1B
$PYRTM,2024,123.001162852546,14.110810262685
$GNGGA,000140.50,3352.29889841,N,11931.93995862,W,2,12,0.9,6.439,M,-37.676,M,7.4,0135*65
$PYRTM,2024,123.001162852546,14.110810262685
$GNHDT,52.655,T*1A
$PYRTM,2024,123.001168697755,14.110816107894
$GNGGA,000141.00,3352.29906120,N,11931.93970399,W,2,12,0.9,6.541,M,-37.676,M,4.0,0135*64
$PYRTM,2024,123.001168697755,14.110816107894
$GNHDT,53.153,T*1A
$PYRTM,2024,123.001174427870,14.110821838009
$GNGGA,000141.50,3352.29919544,N,11931.93942775,W,2,12,0.9,6.577,M,-37.676,M,4.4,0135*6F
$PYRTM,2024,123.001174427870,14.110821838009
$GNHDT,53.527,T*1D
$PYRTM,2024,123.001180268727,14.110827678866
$GNGGA,000142.00,3352.29929660,N,11931.93912772,W,2,12,0.9,6.554,M,-37.676,M,5.0,0135*69
$PYRTM,2024,123.001180268727,14.110827678866
$GNHDT,53.704,T*1E
$PYRTM,2024,123.001186001771,14.110833411910
$GNGGA,000142.50,3352.29937658,N,11931.93880879,W,2,12,0.9,6.470,M,-37.676,M,5.4,0135*65
$PYRTM,2024,123.001186001771,14.110833411910
$GNHDT,53.898,T*14
$PYRTM,2024,123.001191841852,14.110839251991
$GNGGA,000143.00,3352.29944065,N,11931.93847950,W,2,12,0.9,6.337,M,-37.676,M,6.0,0135*6F
$PYRTM,2024,123.001191841852,14.110839251991
$GNHDT,53.932,T*15
$PYRTM,2024,123.001197585313,14.110844995451
$GNGGA,000143.50,3352.29951187,N,11931.93815723,W,2,12,0.9,6.205,M,-37.676,M,6.4,0135*6A
$PYRTM,2024,123.001197585313,14.110844995451
$GNHDT,53.880,T*1D
$PYRTM,2024,123.001203413056,14.110850823194
$GNGGA,000144.00,3352.29959294,N,11931.93785203,W,2,12,0.9,6.104,M,-37.676,M,7.0,0135*67
$PYRTM,2024,123.001203413056,14.110850823194
$GNHDT,54.030,T*19
$PYRTM,2024,123.001209150590,14.110856560729
$GNGGA,000144.50,3352.29969951,N,11931.93757028,W,2,12,0.9,6.073,M,-37.676,M,7.4,0135*62
$PYRTM,2024,123.001209150590,14.110856560729
$GNHDT,54.167,T*1A
$PYRTM,2024,123.001214990417,14.110862400556
$GNGGA,000145.00,3352.29983009,N,11931.93731101,W,2,12,0.9,6.100,M,-37.676,M,7.0,0135*6D
$PYRTM,2024,123.001214990417,14.110862400556
$GNHDT,54.316,T*1E
$PYRTM,2024,123.001220724884,14.110868135023
$GNGGA,000145.50,3352.29998096,N,11931.93706392,W,2,12,0.9,6.172,M,-37.676,M,7.4,0135*69
$PYRTM,2024,123.001220724884,14.110868135023
$GNHDT,54.328,T*13
$PYRTM,2024,123.001226560231,14.110873970370
$GNGGA,000146.00,3352.30013785,N,11931.93682478,W,2,12,0.9,6.272,M,-37.676,M,7.0,0135*61
$PYRTM,2024,123.001226560231,14.110873970370
$GNHDT,54.625,T*1B
$PYRTM,2024,123.001232297731,14.110879707870
$GNGGA,000146.50,3352.30029235,N,11931.93658164,W,2,12,0.9,6.353,M,-37.676,M,7.4,0135*6A
$PYRTM,2024,123.001232297731,14.110879707870
$GNHDT,55.053,T*1D
$PYRTM,2024,123.001238135822,14.110885545972
$GNGGA,000147.00,3352.30043098,N,11931.93632815,W,2,12,0.9,6.416,M,-37.676,M,4.0,0135*65
$PYRTM,2024,123.001238135822,14.110885545972
$GNHDT,55.213,T*1B
$PYRTM,2024,123.001243872616,14.110891282755
$GNGGA,000147.50,3352.30054348,N,11931.93605702,W,2,12,0.9,6.444,M,-37.676,M,4.4,0135*66
$PYRTM,2024,123.001243872616,14.110891282755
$GNHDT,55.423,T*1E
$PYRTM,2024,123.001249711458,14.110897121597
$GNGGA,000148.00,3352.30062323,N,11931.93576239,W,2,12,0.9,6.419,M,-37.676,M,5.0,0135*63
$PYRTM,2024,123.001249711458,14.110897121597
$GNHDT,55.526,T*1A
$PYRTM,2024,123.001255446493,14.110902856644
$GNGGA,000148.50,3352.30069547,N,11931.93545481,W,2,12,0.9,6.362,M,-37.676,M,5.4,0135*63
$PYRTM,2024,123.001255446493,14.110902856644
$GNHDT,55.806,T*15
$PYRTM,2024,123.001261282801,14.110908692940
$GNGGA,000149.00,3352.30076993,N,11931.93515034,W,2,12,0.9,6.283,M,-37.676,M,6.0,0135*6A
$PYRTM,2024,123.001261282801,14.110908692940
$GNHDT,55.993,T*18
$PYRTM,2024,123.001267018715,14.110914428854
$GNGGA,000149.50,3352.30087193,N,11931.93486316,W,2,12,0.9,6.231,M,-37.676,M,6.4,0135*6C
$PYRTM,2024,123.001267018715,14.110914428854
$GNHDT,56.090,T*11
$PYRTM,2024,123.001272859954,14.110920270093
$GNGGA,000150.00,3352.30100416,N,11931.93459764,W,2,12,0.9,6.209,M,-37.676,M,7.0,0135*6A
$PYRTM,2024,123.001272859954,14.110920270093
$GNHDT,56.153,T*1F
$PYRTM,2024,123.001278599664,14.110926009815
$GNGGA,000150.50,3352.30116125,N,11931.93435023,W,2,12,0.9,6.236,M,-37.676,M,7.4,0135*6B
$PYRTM,2024,123.001278599664,14.110926009815
$GNHDT,56.282,T*10
$PYRTM,2024,123.001284434294,14.110931844444
$GNGGA,000151.00,3352.30133718,N,11931.93411380,W,2,12,0.9,6.271,M,-37.676,M,7.0,0135*6B
$PYRTM,2024,123.001284434294,14.110931844444
$GNHDT,56.355,T*1B
$PYRTM,2024,123.001290167153,14.110937577292
$GNGGA,000151.50,3352.30151236,N,11931.93387053,W,2,12,0.9,6.310,M,-37.676,M,7.4,0135*64
$PYRTM,2024,123.001290167153,14.110937577292
$GNHDT,56.338,T*10
$PYRTM,2024,123.001296008218,14.110943418368
$GNGGA,000152.00,3352.30167045,N,11931.93360794,W,2,12,0.9,6.330,M,-37.676,M,7.0,0135*62
$PYRTM,2024,123.001296008218,14.110943418368
$GNHDT,56.482,T*16
$PYRTM,2024,123.001301741481,14.110949151620
$GNGGA,000152.50,3352.30180138,N,11931.93332492,W,2,12,0.9,6.353,M,-37.676,M,7.4,0135*66
$PYRTM,2024,123.001301741481,14.110949151620
$GNHDT,56.445,T*1D
$PYRTM,2024,123.001307583241,14.110954993380
$GNGGA,000153.00,3352.30189993,N,11931.93302261,W,2,12,0.9,6.376,M,-37.676,M,4.0,0135*6B
$PYRTM,2024,123.001307583241,14.110954993380
$GNHDT,56.392,T*10
$PYRTM,2024,123.001313315139,14.110960725278
$GNGGA,000153.50,3352.30197432,N,11931.93270390,W,2,12,0.9,6.385,M,-37.676,M,4.4,0135*64
$PYRTM,2024,123.001313315139,14.110960725278
$GNHDT,56.346,T*19
$PYRTM,2024,123.001319156100,14.110966566238
$GNGGA,000154.00,3352.30203987,N,11931.93238532,W,2,12,0.9,6.378,M,-37.676,M,5.0,0135*6E
$PYRTM,2024,123.001319156100,14.110966566238
$GNHDT,56.273,T*1E
$PYRTM,2024,123.001324890359,14.110972300509
$GNGGA,000154.50,3352.30210864,N,11931.93206678,W,2,12,0.9,6.344,M,-37.676,M,5.4,0135*6E
$PYRTM,2024,123.001324890359,14.110972300509
$GNHDT,56.637,T*1A
$PYRTM,2024,123.001330730822,14.110978140961
$GNGGA,000155.00,3352.30219807,N,11931.93176669,W,2,12,0.9,6.300,M,-37.676,M,6.0,0135*65
$PYRTM,2024,123.001330730822,14.110978140961
$GNHDT,56.804,T*14
$PYRTM,2024,123.001336462789,14.110983872928
$GNGGA,000155.50,3352.30230426,N,11931.93148075,W,2,12,0.9,6.251,M,-37.676,M,6.4,0135*63
$PYRTM,2024,123.001336462789,14.110983872928
$GNHDT,57.109,T*11
$PYRTM,2024,123.001342306690,14.110989716829
$GNGGA,000156.00,3352.30243082,N,11931.93121472,W,2,12,0.9,6.197,M,-37.676,M,7.0,0135*6B
$PYRTM,2024,123.001342306690,14.110989716829
$GNHDT,57.312,T*19
$PYRTM,2024,123.001348038437,14.110995448576
$GNGGA,000156.50,3352.30256272,N,11931.93094883,W,2,12,0.9,6.154,M,-37.676,M,7.4,0135*61
$PYRTM,2024,123.001348038437,14.110995448576
$GNHDT,57.284,T*17
$PYRTM,2024,123.001353879468,14.111001289606
$GNGGA,000157.00,3352.30269166,N,11931.93068527,W,2,12,0.9,6.119,M,-37.676,M,7.0,0135*62
$PYRTM,2024,123.001353879468,14.111001289606
$GNHDT,57.302,T*18
$PYRTM,2024,123.001359611852,14.111007021991
$GNGGA,000157.50,3352.30280029,N,11931.93041383,W,2,12,0.9,6.091,M,-37.676,M,7.4,0135*6C
$PYRTM,2024,123.001359611852,14.111007021991
$GNHDT,57.266,T*1B
$PYRTM,2024,123.001365452928,14.111012863079
$GNGGA,000158.00,3352.30289485,N,11931.93013914,W,2,12,0.9,6.078,M,-37.676,M,7.0,0135*6D
$PYRTM,2024,123.001365452928,14.111012863079
$GNHDT,57.359,T*16
$PYRTM,2024,123.001371188380,14.111018598519
$GNGGA,000158.50,3352.30297916,N,11931.92985746,W,2,12,0.9,6.094,M,-37.676,M,7.4,0135*68
$PYRTM,2024,123.001371188380,14.111018598519
$GNHDT,57.389,T*1B
$PYRTM,2024,123.001377027072,14.111024437211
$GNGGA,000159.00,3352.30306518,N,11931.92958776,W,2,12,0.9,6.122,M,-37.676,M,4.0,0135*6F
$PYRTM,2024,123.001377027072,14.111024437211
$GNHDT,57.350,T*1F
$PYRTM,2024,123.001382761505,14.111030171644
$GNGGA,000159.50,3352.30316069,N,11931.92932338,W,2,12,0.9,6.176,M,-37.676,M,4.4,0135*6F
$PYRTM,2024,123.001382761505,14.111030171644
$GNHDT,57.438,T*16
$PYRTM,2024,123.001388609028,14.111036019167
$GNGGA,000200.00,3352.30326182,N,11931.92906016,W,2,12,0.9,6.221,M,-37.676,M,5.0,0135*6E
$PYRTM,2024,123.001388609028,14.111036019167
$GNHDT,57.624,T*19
$PYRTM,2024,123.001394334074,14.111041744213
$GNGGA,000200.50,3352.30336319,N,11931.92878516,W,2,12,0.9,6.271,M,-37.676,M,5.4,0135*66
$PYRTM,2024,123.001394334074,14.111041744213
$GNHDT,57.539,T*16
$PYRTM,2024,123.001400172488,14.111047582639
$GNGGA,000201.00,3352.30346397,N,11931.92849719,W,2,12,0.9,6.285,M,-37.676,M,6.0,0135*60
$PYRTM,2024,123.001400172488,14.111047582639
$GNHDT,57.621,T*1C
$PYRTM,2024,123.001405908565,14.111053318704
$GNGGA,000201.50,3352.30356168,N,11931.92819637,W,2,12,0.9,6.278,M,-37.676,M,6.4,0135*68
$PYRTM,2024,123.001405908565,14.111053318704
$GNHDT,57.696,T*10
$PYRTM,2024,123.001411746377,14.111059156516
$GNGGA,000202.00,3352.30366262,N,11931.92789037,W,2,12,0.9,6.249,M,-37.676,M,7.0,0135*63
$PYRTM,2024,123.001411746377,14.111059156516
$GNHDT,57.705,T*1B
$PYRTM,2024,123.001417485926,14.111064896065
$GNGGA,000202.50,3352.30377006,N,11931.92758681,W,2,12,0.9,6.228,M,-37.676,M,7.4,0135*62
$PYRTM,2024,123.001417485926,14.111064896065
$GNHDT,57.770,T*19
$PYRTM,2024,123.001423327616,14.111070737755
$GNGGA,000203.00,3352.30388671,N,11931.92729370,W,2,12,0.9,6.207,M,-37.676,M,7.0,0135*64
$PYRTM,2024,123.001423327616,14.111070737755
$GNHDT,57.558,T*11
$PYRTM,2024,123.001429056065,14.111076466204
$GNGGA,000203.50,3352.30400668,N,11931.92700913,W,2,12,0.9,6.217,M,-37.676,M,7.4,0135*6F
$PYRTM,2024,123.001429056065,14.111076466204
$GNHDT,57.545,T*1D
$PYRTM,2024,123.001434895833,14.111082305961
$GNGGA,000204.00,3352.30412286,N,11931.92673167,W,2,12,0.9,6.230,M,-37.676,M,7.0,0135*65
$PYRTM,2024,123.001434895833,14.111082305961
$GNHDT,57.517,T*1A
$PYRTM,2024,123.001440630081,14.111088040220
$GNGGA,000204.50,3352.30422897,N,11931.92645509,W,2,12,0.9,6.232,M,-37.676,M,7.4,0135*66
$PYRTM,2024,123.001440630081,14.111088040220
$GNHDT,57.672,T*1A
$PYRTM,2024,123.001446469641,14.111093879780
$GNGGA,000205.00,3352.30432344,N,11931.92617705,W,2,12,0.9,6.221,M,-37.676,M,4.0,0135*6A
$PYRTM,2024,123.001446469641,14.111093879780
$GNHDT,57.687,T*10
$PYRTM,2024,123.001452206007,14.111099616146
$GNGGA,000205.50,3352.30440829,N,11931.92589599,W,2,12,0.9,6.195,M,-37.676,M,4.4,0135*61
$PYRTM,2024,123.001452206007,14.111099616146
$GNHDT,57.644,T*1F
$PYRTM,2024,123.001458044514,14.111105454653
$GNGGA,000206.00,3352.30448299,N,11931.92560561,W,2,12,0.9,6.159,M,-37.676,M,5.0,0135*6B
$PYRTM,2024,123.001458044514,14.111105454653
$GNHDT,57.739,T*14
$PYRTM,2024,123.001463778148,14.111111188287
$GNGGA,000206.50,3352.30455521,N,11931.92530613,W,2,12,0.9,6.102,M,-37.676,M,5.4,0135*6F
$PYRTM,2024,123.001463778148,14.111111188287
$GNHDT,57.839,T*1B
$PYRTM,2024,123.001469619560,14.111117029711
$GNGGA,000207.00,3352.30462882,N,11931.92500357,W,2,12,0.9,6.044,M,-37.676,M,6.0,0135*69
$PYRTM,2024,123.001469619560,14.111117029711
$GNHDT,57.980,T*18
$PYRTM,2024,123.001475353530,14.111122763669
$GNGGA,000207.50,3352.30470722,N,11931.92470115,W,2,12,0.9,6.001,M,-37.676,M,6.4,0135*6D
$PYRTM,2024,123.001475353530,14.111122763669
$GNHDT,58.146,T*15
$PYRTM,2024,123.001481191921,14.111128602060
$GNGGA,000208.00,3352.30479512,N,11931.92440974,W,2,12,0.9,5.984,M,-37.676,M,7.0,0135*61
$PYRTM,2024,123.001481191921,14.111128602060
$GNHDT,58.236,T*11
$PYRTM,2024,123.001486927280,14.111134337419
$GNGGA,000208.50,3352.30489520,N,11931.92412961,W,2,12,0.9,6.008,M,-37.676,M,7.4,0135*63
$PYRTM,2024,123.001486927280,14.111134337419
$GNHDT,58.154,T*16
$PYRTM,2024,123.001492767419,14.111140177558
$GNGGA,000209.00,3352.30500448,N,11931.92386140,W,2,12,0.9,6.065,M,-37.676,M,7.0,0135*66
$PYRTM,2024,123.001492767419,14.111140177558
$GNHDT,58.154,T*16
$PYRTM,2024,123.001498503414,14.111145913565
$GNGGA,000209.50,3352.30512243,N,11931.92359817,W,2,12,0.9,6.149,M,-37.676,M,7.4,0135*6F
$PYRTM,2024,123.001498503414,14.111145913565
$GNHDT,58.029,T*1D
$PYRTM,2024,123.001504339549,14.111151749688
$GNGGA,000210.00,3352.30523376,N,11931.92332884,W,2,12,0.9,6.238,M,-37.676,M,7.0,0135*61
$PYRTM,2024,123.001504339549,14.111151749688
$GNHDT,58.018,T*1F
$PYRTM,2024,123.001510074595,14.111157484734
$GNGGA,000210.50,3352.30533503,N,11931.92304931,W,2,12,0.9,6.295,M,-37.676,M,7.4,0135*68
$PYRTM,2024,123.001510074595,14.111157484734
$GNHDT,58.012,T*15
$PYRTM,2024,123.001515917176,14.111163327315
$GNGGA,000211.00,3352.30542634,N,11931.92276214,W,2,12,0.9,6.303,M,-37.676,M,4.0,0135*6C
$PYRTM,2024,123.001515917176,14.111163327315
$GNHDT,58.081,T*1F
$PYRTM,2024,123.001521648947,14.111169059086
$GNGGA,000211.50,3352.30551247,N,11931.92246796,W,2,12,0.9,6.252,M,-37.676,M,4.4,0135*66
$PYRTM,2024,123.001521648947,14.111169059086
$GNHDT,58.161,T*10
$PYRTM,2024,123.001527489016,14.111174899155
$GNGGA,000212.00,3352.30559671,N,11931.92217370,W,2,12,0.9,6.166,M,-37.676,M,5.0,0135*60
$PYRTM,2024,123.001527489016,14.111174899155
$GNHDT,58.441,T*17
$PYRTM,2024,123.001533223125,14.111180633264
$GNGGA,000212.50,3352.30567201,N,11931.92187473,W,2,12,0.9,6.065,M,-37.676,M,5.4,0135*63
$PYRTM,2024,123.001533223125,14.111180633264
$GNHDT,58.588,T*13
$PYRTM,2024,123.001539064850,14.111186474988
$GNGGA,000213.00,3352.30574792,N,11931.92157450,W,2,12,0.9,5.970,M,-37.676,M,6.0,0135*6F
$PYRTM,2024,123.001539064850,14.111186474988
$GNHDT,58.686,T*1E
$PYRTM,2024,123.001544796759,14.111192206898
$GNGGA,000213.50,3352.30582660,N,11931.92127687,W,2,12,0.9,5.902,M,-37.676,M,6.4,0135*61
$PYRTM,2024,123.001544796759,14.111192206898
$GNHDT,58.683,T*1B
$PYRTM,2024,123.001550634213,14.111198044352
$GNGGA,000214.00,3352.30590791,N,11931.92098391,W,2,12,0.9,5.872,M,-37.676,M,7.0,0135*6B
$PYRTM,2024,123.001550634213,14.111198044352
$GNHDT,58.551,T*17
$PYRTM,2024,123.001556371053,14.111203781192
$GNGGA,000214.50,3352.30599947,N,11931.92069829,W,2,12,0.9,5.892,M,-37.676,M,7.4,0135*6E
$PYRTM,2024,123.001556371053,14.111203781192
$GNHDT,58.475,T*10
$PYRTM,2024,123.001562209688,14.111209619826
$GNGGA,000215.00,3352.30609924,N,11931.92041856,W,2,12,0.9,5.953,M,-37.676,M,7.0,0135*6F
$PYRTM,2024,123.001562209688,14.111209619826
$GNHDT,58.488,T*12
$PYRTM,2024,123.001567944850,14.111215354988
$GNGGA,000215.50,3352.30620751,N,11931.92014501,W,2,12,0.9,6.024,M,-37.676,M,7.4,0135*6C
$PYRTM,2024,123.001567944850,14.111215354988
$GNHDT,58.482,T*18
$PYRTM,2024,123.001573787859,14.111221197998
$GNGGA,000216.00,3352.30631006,N,11931.91987112,W,2,12,0.9,6.083,M,-37.676,M,7.0,0135*60
$PYRTM,2024,123.001573787859,14.111221197998
$GNHDT,58.573,T*17
$PYRTM,2024,123.001579519201,14.111226929340
$GNGGA,000216.50,3352.30640468,N,11931.91959908,W,2,12,0.9,6.113,M,-37.676,M,7.4,0135*63
$PYRTM,2024,123.001579519201,14.111226929340
$GNHDT,58.509,T*1A
$PYRTM,2024,123.001585360139,14.111232770289
$GNGGA,000217.00,3352.30648120,N,11931.91932170,W,2,12,0.9,6.104,M,-37.676,M,4.0,0135*6D
$PYRTM,2024,123.001585360139,14.111232770289
$GNHDT,58.553,T*15
$PYRTM,2024,123.001591094537,14.111238504676
$GNGGA,000217.50,3352.30654352,N,11931.91903255,W,2,12,0.9,6.057,M,-37.676,M,4.4,0135*67
$PYRTM,2024,123.001591094537,14.111238504676
$GNHDT,58.845,T*1F
$PYRTM,2024,123.001596933542,14.111244343681
$GNGGA,000218.00,3352.30659309,N,11931.91872682,W,2,12,0.9,5.982,M,-37.676,M,5.0,0135*60
$PYRTM,2024,123.001596933542,14.111244343681
$GNHDT,58.945,T*1E
$PYRTM,2024,123.001602667477,14.111250077627
$GNGGA,000218.50,3352.30664235,N,11931.91842056,W,2,12,0.9,5.895,M,-37.676,M,5.4,0135*6A
$PYRTM,2024,123.001602667477,14.111250077627
$GNHDT,58.967,T*1E
$PYRTM,2024,123.001608507986,14.111255918125
$GNGGA,000219.00,3352.30668978,N,11931.91811953,W,2,12,0.9,5.820,M,-37.676,M,6.0,0135*63
$PYRTM,2024,123.001608507986,14.111255918125
$GNHDT,58.860,T*18
$PYRTM,2024,123.001614240729,14.111261650868
$GNGGA,000219.50,3352.30675118,N,11931.91783473,W,2,12,0.9,5.786,M,-37.676,M,6.4,0135*68
$PYRTM,2024,123.001614240729,14.111261650868
$GNHDT,58.869,T*11
$PYRTM,2024,123.001620081389,14.111267491528
$GNGGA,000220.00,3352.30683262,N,11931.91756571,W,2,12,0.9,5.817,M,-37.676,M,7.0,0135*69
$PYRTM,2024,123.001620081389,14.111267491528
$GNHDT,58.859,T*12
$PYRTM,2024,123.001625821458,14.111273231597
$GNGGA,000220.50,3352.30693343,N,11931.91731319,W,2,12,0.9,5.906,M,-37.676,M,7.4,0135*63
$PYRTM,2024,123.001625821458,14.111273231597
$GNHDT,58.763,T*14
$PYRTM,2024,123.001631657060,14.111279067199
$GNGGA,000221.00,3352.30703732,N,11931.91706074,W,2,12,0.9,6.026,M,-37.676,M,7.0,0135*6D
$PYRTM,2024,123.001631657060,14.111279067199
$GNHDT,58.927,T*1A
$PYRTM,2024,123.001637389306,14.111284799444
$GNGGA,000221.50,3352.30714606,N,11931.91680703,W,2,12,0.9,6.138,M,-37.676,M,7.4,0135*6A
$PYRTM,2024,123.001637389306,14.111284799444
$GNHDT,58.749,T*1C
$PYRTM,2024,123.001643229988,14.111290640127
$GNGGA,000222.00,3352.30723899,N,11931.91653612,W,2,12,0.9,6.225,M,-37.676,M,7.0,0135*64
$PYRTM,2024,123.001643229988,14.111290640127
$GNHDT,58.829,T*15
$PYRTM,2024,123.001648967384,14.111296377523
$GNGGA,000222.50,3352.30731595,N,11931.91624463,W,2,12,0.9,6.270,M,-37.676,M,7.4,0135*63
$PYRTM,2024,123.001648967384,14.111296377523
$GNHDT,58.818,T*17
$PYRTM,2024,123.001654807488,14.111302217627
$GNGGA,000223.00,3352.30737534,N,11931.91593882,W,2,12,0.9,6.284,M,-37.676,M,4.0,0135*6A
$PYRTM,2024,123.001654807488,14.111302217627
$GNHDT,58.845,T*1F
$PYRTM,2024,123.001660539618,14.111307949757
$GNGGA,000223.50,3352.30743018,N,11931.91562833,W,2,12,0.9,6.259,M,-37.676,M,4.4,0135*67
$PYRTM,2024,123.001660539618,14.111307949757
$GNHDT,58.796,T*1E
$PYRTM,2024,123.001666377755,14.111313787894
$GNGGA,000224.00,3352.30748155,N,11931.91531930,W,2,12,0.9,6.208,M,-37.676,M,5.0,0135*63
$PYRTM,2024,123.001666377755,14.111313787894
$GNHDT,58.637,T*14
$PYRTM,2024,123.001672110660,14.111319520799
$GNGGA,000224.50,3352.30754282,N,11931.91501491,W,2,12,0.9,6.146,M,-37.676,M,5.4,0135*6A
$PYRTM,2024,123.001672110660,14.111319520799
$GNHDT,58.605,T*15
$PYRTM,2024,123.001677947384,14.111325357523
$GNGGA,000225.00,3352.30761508,N,11931.91471937,W,2,12,0.9,6.092,M,-37.676,M,6.0,0135*65
$PYRTM,2024,123.001677947384,14.111325357523
$GNHDT,58.525,T*14
$PYRTM,2024,123.001683684225,14.111331094363
$GNGGA,000225.50,3352.30771006,N,11931.91444081,W,2,12,0.9,6.073,M,-37.676,M,6.4,0135*63
$PYRTM,2024,123.001683684225,14.111331094363
$GNHDT,58.389,T*14
$PYRTM,2024,123.001689525532,14.111336935671
$GNGGA,000226.00,3352.30782237,N,11931.91417684,W,2,12,0.9,6.087,M,-37.676,M,7.0,0135*62
$PYRTM,2024,123.001689525532,14.111336935671
$GNHDT,58.620,T*12
$PYRTM,2024,123.001695258588,14.111342668727
$GNGGA,000226.50,3352.30793878,N,11931.91391177,W,2,12,0.9,6.123,M,-37.676,M,7.4,0135*6F
$PYRTM,2024,123.001695258588,14.111342668727
$GNHDT,58.562,T*17
$PYRTM,2024,123.001701096840,14.111348506979
$GNGGA,000227.00,3352.30804985,N,11931.91363740,W,2,12,0.9,6.174,M,-37.676,M,7.0,0135*60
$PYRTM,2024,123.001701096840,14.111348506979
$GNHDT,58.584,T*1F
$PYRTM,2024,123.001706832488,14.111354242627
$GNGGA,000227.50,3352.30814207,N,11931.91334207,W,2,12,0.9,6.211,M,-37.676,M,7.4,0135*65
$PYRTM,2024,123.001706832488,14.111354242627
$GNHDT,58.572,T*16
$PYRTM,2024,123.001712671910,14.111360082049
$GNGGA,000228.00,3352.30821651,N,11931.91302917,W,2,12,0.9,6.221,M,-37.676,M,7.0,0135*66
$PYRTM,2024,123.001712671910,14.111360082049
$GNHDT,58.564,T*11
$PYRTM,2024,123.001718412650,14.111365822789
$GNGGA,000228.50,3352.30828166,N,11931.91270687,W,2,12,0.9,6.206,M,-37.676,M,7.4,0135*6A
$PYRTM,2024,123.001718412650,14.111365822789
$GNHDT,58.555,T*13
$PYRTM,2024,123.001724246481,14.111371656620
$GNGGA,000229.00,3352.30835034,N,11931.91239041,W,2,12,0.9,6.161,M,-37.676,M,4.0,0135*60
$PYRTM,2024,123.001724246481,14.111371656620
$GNHDT,58.292,T*1F
$PYRTM,2024,123.001729980417,14.111377390556
$GNGGA,000229.50,3352.30842373,N,11931.91207742,W,2,12,0.9,6.092,M,-37.676,M,4.4,0135*65
$PYRTM,2024,123.001729980417,14.111377390556
$GNHDT,58.297,T*1A
$PYRTM,2024,123.001735818148,14.111383228287
$GNGGA,000230.00,3352.30851274,N,11931.91178004,W,2,12,0.9,6.026,M,-37.676,M,5.0,0135*68
$PYRTM,2024,123.001735818148,14.111383228287
$GNHDT,58.244,T*14
