$PYRTM,2024,122.166666733889,13.276314144039
$GNGGA,040000.00,3318.52585671,N,11856.64300773,W,2,12,0.8,8.133,M,-37.676,M,5.0,0135*68
$PYRTM,2024,122.166666733889,13.276314144039
$GNHDT,281.770,T*20
$PYRTM,2024,122.166672460312,13.276319870451
$GNGGA,040000.50,3318.52605458,N,11856.64424035,W,2,12,0.8,8.353,M,-37.676,M,5.4,0135*6B
$PYRTM,2024,122.166672460312,13.276319870451
$GNHDT,281.684,T*2A
$PYRTM,2024,122.166678302338,13.276325712477
$GNGGA,040001.00,3318.52631464,N,11856.64553501,W,2,12,0.8,8.485,M,-37.676,M,6.0,0135*6F
$PYRTM,2024,122.166678302338,13.276325712477
$GNHDT,281.979,T*27
$PYRTM,2024,122.166684039155,13.276331449306
$GNGGA,040001.50,3318.52663837,N,11856.64690431,W,2,12,0.8,8.363,M,-37.676,M,6.4,0135*62
$PYRTM,2024,122.166684039155,13.276331449306
$GNHDT,282.337,T*24
$PYRTM,2024,122.166689878762,13.276337288900
$GNGGA,040002.00,3318.52699403,N,11856.64834743,W,2,12,0.8,7.975,M,-37.676,M,7.0,0135*6B
$PYRTM,2024,122.166689878762,13.276337288900
$GNHDT,282.419,T*2F
$PYRTM,2024,122.166695610336,13.276343020475
$GNGGA,040002.50,3318.52736010,N,11856.64982960,W,2,12,0.8,7.437,M,-37.676,M,7.4,0135*60
$PYRTM,2024,122.166695610336,13.276343020475
$GNHDT,282.192,T*29
$PYRTM,2024,122.166701451551,13.276348861690
$GNGGA,040003.00,3318.52770567,N,11856.65130047,W,2,12,0.8,6.956,M,-37.676,M,7.0,0135*60
$PYRTM,2024,122.166701451551,13.276348861690
$GNHDT,282.253,T*27
$PYRTM,2024,122.166707189549,13.276354599687
$GNGGA,040003.50,3318.52799514,N,11856.65270267,W,2,12,0.8,6.782,M,-37.676,M,7.4,0135*62
$PYRTM,2024,122.166707189549,13.276354599687
$GNHDT,282.332,T*21
$PYRTM,2024,122.166713037847,13.276360447986
$GNGGA,040004.00,3318.52821749,N,11856.65404523,W,2,12,0.8,7.041,M,-37.676,M,7.0,0135*69
$PYRTM,2024,122.166713037847,13.276360447986
$GNHDT,282.300,T*20
$PYRTM,2024,122.166718776736,13.276366186875
$GNGGA,040004.50,3318.52840048,N,11856.65536077,W,2,12,0.8,7.579,M,-37.676,M,7.4,0135*63
$PYRTM,2024,122.166718776736,13.276366186875
$GNHDT,281.919,T*21
$PYRTM,2024,122.166724603449,13.276372013588
$GNGGA,040005.00,3318.52859629,N,11856.65667455,W,2,12,0.8,8.212,M,-37.676,M,4.0,0135*6F
$PYRTM,2024,122.166724603449,13.276372013588
$GNHDT,281.728,T*2D
$PYRTM,2024,122.166730337731,13.276377747870
$GNGGA,040005.50,3318.52883960,N,11856.65801438,W,2,12,0.8,8.796,M,-37.676,M,4.4,0135*67
$PYRTM,2024,122.166730337731,13.276377747870
$GNHDT,281.750,T*22
$PYRTM,2024,122.166736175683,13.276383585822
$GNGGA,040006.00,3318.52914007,N,11856.65935928,W,2,12,0.8,9.197,M,-37.676,M,5.0,0135*6F
$PYRTM,2024,122.166736175683,13.276383585822
$GNHDT,281.641,T*23
$PYRTM,2024,122.166741904039,13.276389314178
$GNGGA,040006.50,3318.52946483,N,11856.66070028,W,2,12,0.8,9.363,M,-37.676,M,5.4,0135*6A
$PYRTM,2024,122.166741904039,13.276389314178
$GNHDT,281.810,T*29
$PYRTM,2024,122.166747749190,13.276395159329
$GNGGA,040007.00,3318.52978862,N,11856.66202368,W,2,12,0.8,9.295,M,-37.676,M,6.0,0135*6F
$PYRTM,2024,122.166747749190,13.276395159329
$GNHDT,281.912,T*2A
$PYRTM,2024,122.166753483310,13.276400893449
$GNGGA,040007.50,3318.53007889,N,11856.66335035,W,2,12,0.8,9.084,M,-37.676,M,6.4,0135*67
$PYRTM,2024,122.166753483310,13.276400893449
$GNHDT,281.618,T*2F
$PYRTM,2024,122.166759325486,13.276406735625
$GNGGA,040008.00,3318.53033009,N,11856.66466745,W,2,12,0.8,8.761,M,-37.676,M,7.0,0135*63
$PYRTM,2024,122.166759325486,13.276406735625
$GNHDT,281.527,T*20
$PYRTM,2024,122.166765060544,13.276412470683
$GNGGA,040008.50,3318.53054737,N,11856.66598785,W,2,12,0.8,8.428,M,-37.676,M,7.4,0135*6B
$PYRTM,2024,122.166765060544,13.276412470683
$GNHDT,281.623,T*27
$PYRTM,2024,122.166770901042,13.276418311181
$GNGGA,040009.00,3318.53074661,N,11856.66731458,W,2,12,0.8,8.117,M,-37.676,M,7.0,0135*60
$PYRTM,2024,122.166770901042,13.276418311181
$GNHDT,281.693,T*2C
$PYRTM,2024,122.166776630012,13.276424040150
$GNGGA,040009.50,3318.53096102,N,11856.66864263,W,2,12,0.8,7.895,M,-37.676,M,7.4,0135*62
$PYRTM,2024,122.166776630012,13.276424040150
$GNHDT,281.848,T*24
$PYRTM,2024,122.166782472454,13.276429882593
$GNGGA,040010.00,3318.53120753,N,11856.66997478,W,2,12,0.8,7.737,M,-37.676,M,7.0,0135*63
$PYRTM,2024,122.166782472454,13.276429882593
$GNHDT,282.049,T*2E
$PYRTM,2024,122.166788207789,13.276435617928
$GNGGA,040010.50,3318.53148323,N,11856.67131960,W,2,12,0.8,7.672,M,-37.676,M,7.4,0135*6E
$PYRTM,2024,122.166788207789,13.276435617928
$GNHDT,282.098,T*22
$PYRTM,2024,122.166794045220,13.276441455359
$GNGGA,040011.00,3318.53177928,N,11856.67268348,W,2,12,0.8,7.681,M,-37.676,M,4.0,0135*63
$PYRTM,2024,122.166794045220,13.276441455359
$GNHDT,282.122,T*22
$PYRTM,2024,122.166799778715,13.276447188854
$GNGGA,040011.50,3318.53207547,N,11856.67406419,W,2,12,0.8,7.733,M,-37.676,M,4.4,0135*66
$PYRTM,2024,122.166799778715,13.276447188854
$GNHDT,282.146,T*20
$PYRTM,2024,122.166805621771,13.276453031910
$GNGGA,040012.00,3318.53235992,N,11856.67546111,W,2,12,0.8,7.797,M,-37.676,M,5.0,0135*66
$PYRTM,2024,122.166805621771,13.276453031910
$GNHDT,282.131,T*20
$PYRTM,2024,122.166811354664,13.276458764803
$GNGGA,040012.50,3318.53263326,N,11856.67688625,W,2,12,0.8,7.827,M,-37.676,M,5.4,0135*64
$PYRTM,2024,122.166811354664,13.276458764803
$GNHDT,282.429,T*2C
$PYRTM,2024,122.166817193854,13.276464603993
$GNGGA,040013.00,3318.53289968,N,11856.67832708,W,2,12,0.8,7.813,M,-37.676,M,6.0,0135*65
$PYRTM,2024,122.166817193854,13.276464603993
$GNHDT,282.580,T*2E
$PYRTM,2024,122.166822933854,13.276470344005
$GNGGA,040013.50,3318.53315768,N,11856.67977216,W,2,12,0.8,7.758,M,-37.676,M,6.4,0135*64
$PYRTM,2024,122.166822933854,13.276470344005
$GNHDT,282.638,T*2E
$PYRTM,2024,122.166828768785,13.276476178924
$GNGGA,040014.00,3318.53339327,N,11856.68120409,W,2,12,0.8,7.737,M,-37.676,M,7.0,0135*66
$PYRTM,2024,122.166828768785,13.276476178924
$GNHDT,282.620,T*27
$PYRTM,2024,122.166834498287,13.276481908426
$GNGGA,040014.50,3318.53362295,N,11856.68258965,W,2,12,0.8,7.786,M,-37.676,M,7.4,0135*60
$PYRTM,2024,122.166834498287,13.276481908426
$GNHDT,282.641,T*20
$PYRTM,2024,122.166840342616,13.276487752755
$GNGGA,040015.00,3318.53385939,N,11856.68392218,W,2,12,0.8,7.922,M,-37.676,M,7.0,0135*62
$PYRTM,2024,122.166840342616,13.276487752755
$GNHDT,282.680,T*2D
$PYRTM,2024,122.166846076030,13.276493486169
$GNGGA,040015.50,3318.53411954,N,11856.68521913,W,2,12,0.8,8.130,M,-37.676,M,7.4,0135*68
$PYRTM,2024,122.166846076030,13.276493486169
$GNHDT,282.811,T*2B
$PYRTM,2024,122.166851917188,13.276499327338
$GNGGA,040016.00,3318.53439738,N,11856.68653373,W,2,12,0.8,8.282,M,-37.676,M,7.0,0135*64
$PYRTM,2024,122.166851917188,13.276499327338
$GNHDT,282.794,T*29
$PYRTM,2024,122.166857646725,13.276505056863
$GNGGA,040016.50,3318.53468573,N,11856.68790782,W,2,12,0.8,8.292,M,-37.676,M,7.4,0135*69
$PYRTM,2024,122.166857646725,13.276505056863
$GNHDT,282.488,T*27
$PYRTM,2024,122.166863495671,13.276510905810
$GNGGA,040017.00,3318.53497297,N,11856.68933514,W,2,12,0.8,8.118,M,-37.676,M,4.0,0135*6C
$PYRTM,2024,122.166863495671,13.276510905810
$GNHDT,282.364,T*22
$PYRTM,2024,122.166869221389,13.276516631539
$GNGGA,040017.50,3318.53523714,N,11856.69076195,W,2,12,0.8,7.910,M,-37.676,M,4.4,0135*66
$PYRTM,2024,122.166869221389,13.276516631539
$GNHDT,282.577,T*26
$PYRTM,2024,122.166875064977,13.276522475116
$GNGGA,040018.00,3318.53546835,N,11856.69214108,W,2,12,0.8,7.803,M,-37.676,M,5.0,0135*67
$PYRTM,2024,122.166875064977,13.276522475116
$GNHDT,282.522,T*26
$PYRTM,2024,122.166880794294,13.276528204444
$GNGGA,040018.50,3318.53569745,N,11856.69344715,W,2,12,0.8,7.896,M,-37.676,M,5.4,0135*61
$PYRTM,2024,122.166880794294,13.276528204444
$GNHDT,282.756,T*27
$PYRTM,2024,122.166886641447,13.276534051586
$GNGGA,040019.00,3318.53596125,N,11856.69470475,W,2,12,0.8,8.112,M,-37.676,M,6.0,0135*6D
$PYRTM,2024,122.166886641447,13.276534051586
$GNHDT,283.057,T*20
$PYRTM,2024,122.166892371481,13.276539781620
$GNGGA,040019.50,3318.53627774,N,11856.69597233,W,2,12,0.8,8.340,M,-37.676,M,6.4,0135*6E
$PYRTM,2024,122.166892371481,13.276539781620
$GNHDT,283.492,T*2D
$PYRTM,2024,122.166898210903,13.276545621042
$GNGGA,040020.00,3318.53663571,N,11856.69730193,W,2,12,0.8,8.435,M,-37.676,M,7.0,0135*60
$PYRTM,2024,122.166898210903,13.276545621042
$GNHDT,283.696,T*2B
$PYRTM,2024,122.166903947870,13.276551358009
$GNGGA,040020.50,3318.53700660,N,11856.69866941,W,2,12,0.8,8.377,M,-37.676,M,7.4,0135*6C
$PYRTM,2024,122.166903947870,13.276551358009
$GNHDT,283.513,T*25
$PYRTM,2024,122.166909787442,13.276557197581
$GNGGA,040021.00,3318.53734965,N,11856.70006625,W,2,12,0.8,8.170,M,-37.676,M,7.0,0135*6F
$PYRTM,2024,122.166909787442,13.276557197581
$GNHDT,283.392,T*2A
$PYRTM,2024,122.166915519988,13.276562930127
$GNGGA,040021.50,3318.53764669,N,11856.70149728,W,2,12,0.8,7.870,M,-37.676,M,7.4,0135*68
$PYRTM,2024,122.166915519988,13.276562930127
$GNHDT,283.327,T*24
$PYRTM,2024,122.166921361227,13.276568771366
$GNGGA,040022.00,3318.53789061,N,11856.70297632,W,2,12,0.8,7.497,M,-37.676,M,7.0,0135*68
$PYRTM,2024,122.166921361227,13.276568771366
$GNHDT,283.394,T*2C
$PYRTM,2024,122.166927090185,13.276574500324
$GNGGA,040022.50,3318.53811286,N,11856.70445655,W,2,12,0.8,7.218,M,-37.676,M,7.4,0135*65
$PYRTM,2024,122.166927090185,13.276574500324
$GNHDT,283.218,T*29
$PYRTM,2024,122.166932935486,13.276580345625
$GNGGA,040023.00,3318.53834853,N,11856.70589446,W,2,12,0.8,7.128,M,-37.676,M,4.0,0135*62
$PYRTM,2024,122.166932935486,13.276580345625
$GNHDT,283.199,T*23
$PYRTM,2024,122.166938671238,13.276586081377
$GNGGA,040023.50,3318.53863012,N,11856.70725512,W,2,12,0.8,7.277,M,-37.676,M,4.4,0135*61
$PYRTM,2024,122.166938671238,13.276586081377
$GNHDT,283.394,T*2C
$PYRTM,2024,122.166944510475,13.276591920613
$GNGGA,040024.00,3318.53897701,N,11856.70851182,W,2,12,0.8,7.576,M,-37.676,M,5.0,0135*6F
$PYRTM,2024,122.166944510475,13.276591920613
$GNHDT,283.181,T*2A
$PYRTM,2024,122.166950239236,13.276597649375
$GNGGA,040024.50,3318.53934573,N,11856.70976685,W,2,12,0.8,7.961,M,-37.676,M,5.4,0135*6F
$PYRTM,2024,122.166950239236,13.276597649375
$GNHDT,283.289,T*21
$PYRTM,2024,122.166956084919,13.276603495058
$GNGGA,040025.00,3318.53971106,N,11856.71106788,W,2,12,0.8,8.338,M,-37.676,M,6.0,0135*60
$PYRTM,2024,122.166956084919,13.276603495058
$GNHDT,283.227,T*25
$PYRTM,2024,122.166961817859,13.276609227998
$GNGGA,040025.50,3318.54005240,N,11856.71245131,W,2,12,0.8,8.494,M,-37.676,M,6.4,0135*6C
$PYRTM,2024,122.166961817859,13.276609227998
$GNHDT,282.982,T*20
$PYRTM,2024,122.166967663032,13.276615073171
$GNGGA,040026.00,3318.54036546,N,11856.71391695,W,2,12,0.8,8.347,M,-37.676,M,7.0,0135*66
$PYRTM,2024,122.166967663032,13.276615073171
$GNHDT,282.937,T*2E
$PYRTM,2024,122.166973396181,13.276620806319
$GNGGA,040026.50,3318.54064525,N,11856.71538663,W,2,12,0.8,8.040,M,-37.676,M,7.4,0135*6D
$PYRTM,2024,122.166973396181,13.276620806319
$GNHDT,283.218,T*29
$PYRTM,2024,122.166979233380,13.276626643519
$GNGGA,040027.00,3318.54091107,N,11856.71677207,W,2,12,0.8,7.703,M,-37.676,M,7.0,0135*62
$PYRTM,2024,122.166979233380,13.276626643519
$GNHDT,283.224,T*26
$PYRTM,2024,122.166984961551,13.276632371690
$GNGGA,040027.50,3318.54112060,N,11856.71811927,W,2,12,0.8,7.549,M,-37.676,M,7.4,0135*62
$PYRTM,2024,122.166984961551,13.276632371690
$GNHDT,283.296,T*2F
$PYRTM,2024,122.166990806435,13.276638216574
$GNGGA,040028.00,3318.54133615,N,11856.71939133,W,2,12,0.8,7.650,M,-37.676,M,7.0,0135*66
$PYRTM,2024,122.166990806435,13.276638216574
$GNHDT,283.278,T*2F
$PYRTM,2024,122.166996533333,13.276643943472
$GNGGA,040028.50,3318.54159131,N,11856.72063432,W,2,12,0.8,7.884,M,-37.676,M,7.4,0135*6C
$PYRTM,2024,122.166996533333,13.276643943472
$GNHDT,283.393,T*2B
$PYRTM,2024,122.167002377211,13.276649787350
$GNGGA,040029.00,3318.54192109,N,11856.72187376,W,2,12,0.8,8.117,M,-37.676,M,4.0,0135*63
$PYRTM,2024,122.167002377211,13.276649787350
$GNHDT,283.386,T*2F
$PYRTM,2024,122.167008124803,13.276655534942
$GNGGA,040029.50,3318.54228552,N,11856.72321119,W,2,12,0.8,8.193,M,-37.676,M,4.4,0135*63
$PYRTM,2024,122.167008124803,13.276655534942
$GNHDT,283.156,T*20
$PYRTM,2024,122.167013952384,13.276661362523
$GNGGA,040030.00,3318.54266495,N,11856.72461728,W,2,12,0.8,8.053,M,-37.676,M,5.0,0135*61
$PYRTM,2024,122.167013952384,13.276661362523
$GNHDT,282.891,T*23
$PYRTM,2024,122.167019684664,13.276667094815
$GNGGA,040030.50,3318.54301255,N,11856.72605748,W,2,12,0.8,7.779,M,-37.676,M,5.4,0135*6C
$PYRTM,2024,122.167019684664,13.276667094815
$GNHDT,282.970,T*2D
$PYRTM,2024,122.167025525625,13.276672935764
$GNGGA,040031.00,3318.54330939,N,11856.72748037,W,2,12,0.8,7.501,M,-37.676,M,6.0,0135*66
$PYRTM,2024,122.167025525625,13.276672935764
$GNHDT,282.862,T*2F
$PYRTM,2024,122.167031261713,13.276678671852
$GNGGA,040031.50,3318.54355831,N,11856.72886392,W,2,12,0.8,7.357,M,-37.676,M,6.4,0135*69
$PYRTM,2024,122.167031261713,13.276678671852
$GNHDT,282.692,T*2E
$PYRTM,2024,122.167037101921,13.276684512060
$GNGGA,040032.00,3318.54378036,N,11856.73020168,W,2,12,0.8,7.427,M,-37.676,M,7.0,0135*68
$PYRTM,2024,122.167037101921,13.276684512060
$GNHDT,282.767,T*25
$PYRTM,2024,122.167042835058,13.276690245197
$GNGGA,040032.50,3318.54400153,N,11856.73152732,W,2,12,0.8,7.640,M,-37.676,M,7.4,0135*6D
$PYRTM,2024,122.167042835058,13.276690245197
$GNHDT,282.916,T*2D
$PYRTM,2024,122.167048674271,13.276696084410
$GNGGA,040033.00,3318.54424495,N,11856.73285908,W,2,12,0.8,7.896,M,-37.676,M,7.0,0135*6F
$PYRTM,2024,122.167048674271,13.276696084410
$GNHDT,283.004,T*26
$PYRTM,2024,122.167054407986,13.276701818137
$GNGGA,040033.50,3318.54452339,N,11856.73421028,W,2,12,0.8,8.078,M,-37.676,M,7.4,0135*6A
$PYRTM,2024,122.167054407986,13.276701818137
$GNHDT,282.845,T*2A
$PYRTM,2024,122.167060248380,13.276707658530
$GNGGA,040034.00,3318.54482723,N,11856.73556747,W,2,12,0.8,8.149,M,-37.676,M,7.0,0135*62
$PYRTM,2024,122.167060248380,13.276707658530
$GNHDT,282.623,T*24
$PYRTM,2024,122.167065982650,13.276713392789
$GNGGA,040034.50,3318.54514371,N,11856.73692509,W,2,12,0.8,8.111,M,-37.676,M,7.4,0135*60
$PYRTM,2024,122.167065982650,13.276713392789
$GNHDT,282.750,T*21
$PYRTM,2024,122.167071823993,13.276719234132
$GNGGA,040035.00,3318.54546004,N,11856.73828095,W,2,12,0.8,7.977,M,-37.676,M,4.0,0135*6D
$PYRTM,2024,122.167071823993,13.276719234132
$GNHDT,282.901,T*2B
$PYRTM,2024,122.167077559097,13.276724969236
$GNGGA,040035.50,3318.54576900,N,11856.73964747,W,2,12,0.8,7.801,M,-37.676,M,4.4,0135*63
$PYRTM,2024,122.167077559097,13.276724969236
$GNHDT,282.695,T*29
$PYRTM,2024,122.167083398785,13.276730808924
$GNGGA,040036.00,3318.54605902,N,11856.74104769,W,2,12,0.8,7.581,M,-37.676,M,5.0,0135*65
$PYRTM,2024,122.167083398785,13.276730808924
$GNHDT,282.712,T*27
$PYRTM,2024,122.167089129780,13.276736539919
$GNGGA,040036.50,3318.54633259,N,11856.74247675,W,2,12,0.8,7.371,M,-37.676,M,5.4,0135*65
$PYRTM,2024,122.167089129780,13.276736539919
$GNHDT,282.549,T*2B
$PYRTM,2024,122.167094972361,13.276742382500
$GNGGA,040037.00,3318.54657899,N,11856.74392569,W,2,12,0.8,7.263,M,-37.676,M,6.0,0135*67
$PYRTM,2024,122.167094972361,13.276742382500
$GNHDT,282.306,T*26
$PYRTM,2024,122.167100702558,13.276748112697
$GNGGA,040037.50,3318.54681962,N,11856.74533753,W,2,12,0.8,7.309,M,-37.676,M,6.4,0135*63
$PYRTM,2024,122.167100702558,13.276748112697
$GNHDT,282.145,T*23
$PYRTM,2024,122.167106548137,13.276753958275
$GNGGA,040038.00,3318.54705629,N,11856.74672758,W,2,12,0.8,7.495,M,-37.676,M,7.0,0135*6E
$PYRTM,2024,122.167106548137,13.276753958275
$GNHDT,281.977,T*29
$PYRTM,2024,122.167112278900,13.276759689051
$GNGGA,040038.50,3318.54731275,N,11856.74809217,W,2,12,0.8,7.747,M,-37.676,M,7.4,0135*65
$PYRTM,2024,122.167112278900,13.276759689051
$GNHDT,282.248,T*2D
$PYRTM,2024,122.167118121319,13.276765531458
$GNGGA,040039.00,3318.54760110,N,11856.74943075,W,2,12,0.8,8.047,M,-37.676,M,7.0,0135*60
$PYRTM,2024,122.167118121319,13.276765531458
$GNHDT,282.394,T*2D
$PYRTM,2024,122.167123853380,13.276771263519
$GNGGA,040039.50,3318.54791661,N,11856.75076958,W,2,12,0.8,8.301,M,-37.676,M,7.4,0135*67
$PYRTM,2024,122.167123853380,13.276771263519
$GNHDT,282.277,T*21
$PYRTM,2024,122.167129695266,13.276777105405
$GNGGA,040040.00,3318.54823414,N,11856.75211194,W,2,12,0.8,8.472,M,-37.676,M,7.0,0135*66
$PYRTM,2024,122.167129695266,13.276777105405
$GNHDT,282.304,T*24
$PYRTM,2024,122.167135424306,13.276782834456
$GNGGA,040040.50,3318.54852371,N,11856.75348404,W,2,12,0.8,8.508,M,-37.676,M,7.4,0135*68
$PYRTM,2024,122.167135424306,13.276782834456
$GNHDT,282.206,T*27
$PYRTM,2024,122.167141272627,13.276788682766
$GNGGA,040041.00,3318.54878300,N,11856.75487471,W,2,12,0.8,8.398,M,-37.676,M,4.0,0135*6C
$PYRTM,2024,122.167141272627,13.276788682766
$GNHDT,282.110,T*23
$PYRTM,2024,122.167147003704,13.276794413843
$GNGGA,040041.50,3318.54902299,N,11856.75625510,W,2,12,0.8,8.209,M,-37.676,M,4.4,0135*65
$PYRTM,2024,122.167147003704,13.276794413843
$GNHDT,282.014,T*26
$PYRTM,2024,122.167152845428,13.276800255567
$GNGGA,040042.00,3318.54926268,N,11856.75760253,W,2,12,0.8,8.032,M,-37.676,M,5.0,0135*64
$PYRTM,2024,122.167152845428,13.276800255567
$GNHDT,282.384,T*2C
$PYRTM,2024,122.167158573657,13.276805983796
$GNGGA,040042.50,3318.54952577,N,11856.75894660,W,2,12,0.8,7.876,M,-37.676,M,5.4,0135*68
$PYRTM,2024,122.167158573657,13.276805983796
$GNHDT,282.248,T*2D
$PYRTM,2024,122.167164416412,13.276811826551
$GNGGA,040043.00,3318.54982055,N,11856.76034481,W,2,12,0.8,7.682,M,-37.676,M,6.0,0135*6A
$PYRTM,2024,122.167164416412,13.276811826551
$GNHDT,282.265,T*22
$PYRTM,2024,122.167170145625,13.276817555764
$GNGGA,040043.50,3318.55015091,N,11856.76178636,W,2,12,0.8,7.408,M,-37.676,M,6.4,0135*62
$PYRTM,2024,122.167170145625,13.276817555764
$GNHDT,282.248,T*2D
$PYRTM,2024,122.167175989780,13.276823399931
$GNGGA,040044.00,3318.55049039,N,11856.76325749,W,2,12,0.8,7.145,M,-37.676,M,7.0,0135*61
$PYRTM,2024,122.167175989780,13.276823399931
$GNHDT,282.379,T*2E
$PYRTM,2024,122.167181727072,13.276829137222
$GNGGA,040044.50,3318.55081139,N,11856.76470851,W,2,12,0.8,7.019,M,-37.676,M,7.4,0135*6C
$PYRTM,2024,122.167181727072,13.276829137222
$GNHDT,282.403,T*24
$PYRTM,2024,122.167187564850,13.276834974988
$GNGGA,040045.00,3318.55106298,N,11856.76614816,W,2,12,0.8,7.178,M,-37.676,M,7.0,0135*6F
$PYRTM,2024,122.167187564850,13.276834974988
$GNHDT,282.356,T*23
$PYRTM,2024,122.167193299259,13.276840709398
$GNGGA,040045.50,3318.55129336,N,11856.76748025,W,2,12,0.8,7.563,M,-37.676,M,7.4,0135*68
$PYRTM,2024,122.167193299259,13.276840709398
$GNHDT,282.093,T*29
$PYRTM,2024,122.167199139074,13.276846549225
$GNGGA,040046.00,3318.55151364,N,11856.76877346,W,2,12,0.8,8.115,M,-37.676,M,7.0,0135*6D
$PYRTM,2024,122.167199139074,13.276846549225
$GNHDT,282.091,T*2B
$PYRTM,2024,122.167204876956,13.276852287095
$GNGGA,040046.50,3318.55173656,N,11856.77010583,W,2,12,0.8,8.611,M,-37.676,M,7.4,0135*6C
$PYRTM,2024,122.167204876956,13.276852287095
$GNHDT,281.686,T*28
$PYRTM,2024,122.167210713924,13.276858124062
$GNGGA,040047.00,3318.55199312,N,11856.77149778,W,2,12,0.8,8.847,M,-37.676,M,4.0,0135*68
$PYRTM,2024,122.167210713924,13.276858124062
$GNHDT,281.578,T*2A
$PYRTM,2024,122.167216449410,13.276863859549
$GNGGA,040047.50,3318.55228949,N,11856.77292056,W,2,12,0.8,8.769,M,-37.676,M,4.4,0135*69
$PYRTM,2024,122.167216449410,13.276863859549
$GNHDT,281.974,T*2A
$PYRTM,2024,122.167222286238,13.276869696377
$GNGGA,040048.00,3318.55260861,N,11856.77434049,W,2,12,0.8,8.389,M,-37.676,M,5.0,0135*6F
$PYRTM,2024,122.167222286238,13.276869696377
$GNHDT,282.136,T*27
$PYRTM,2024,122.167228018380,13.276875428519
$GNGGA,040048.50,3318.55292919,N,11856.77576369,W,2,12,0.8,7.878,M,-37.676,M,5.4,0135*61
$PYRTM,2024,122.167228018380,13.276875428519
$GNHDT,281.912,T*2A
$PYRTM,2024,122.167233860127,13.276881270266
$GNGGA,040049.00,3318.55321899,N,11856.77719563,W,2,12,0.8,7.368,M,-37.676,M,6.0,0135*6F
$PYRTM,2024,122.167233860127,13.276881270266
$GNHDT,281.878,T*27
$PYRTM,2024,122.167239595833,13.276887005972
$GNGGA,040049.50,3318.55346921,N,11856.77857055,W,2,12,0.8,7.053,M,-37.676,M,6.4,0135*63
$PYRTM,2024,122.167239595833,13.276887005972
$GNHDT,281.787,T*28
$PYRTM,2024,122.167245439664,13.276892849803
$GNGGA,040050.00,3318.55366706,N,11856.77987584,W,2,12,0.8,7.147,M,-37.676,M,7.0,0135*63
$PYRTM,2024,122.167245439664,13.276892849803
$GNHDT,281.777,T*27
$PYRTM,2024,122.167251170382,13.276898580521
$GNGGA,040050.50,3318.55383596,N,11856.78113446,W,2,12,0.8,7.547,M,-37.676,M,7.4,0135*63
$PYRTM,2024,122.167251170382,13.276898580521
$GNHDT,281.848,T*24
$PYRTM,2024,122.167257009838,13.276904419977
$GNGGA,040051.00,3318.55401889,N,11856.78238996,W,2,12,0.8,8.041,M,-37.676,M,7.0,0135*6B
$PYRTM,2024,122.167257009838,13.276904419977
$GNHDT,281.981,T*20
$PYRTM,2024,122.167262740914,13.276910151053
$GNGGA,040051.50,3318.55423712,N,11856.78371462,W,2,12,0.8,8.441,M,-37.676,M,7.4,0135*69
$PYRTM,2024,122.167262740914,13.276910151053
$GNHDT,282.034,T*24
$PYRTM,2024,122.167268583137,13.276915993275
$GNGGA,040052.00,3318.55450294,N,11856.78514166,W,2,12,0.8,8.500,M,-37.676,M,7.0,0135*64
$PYRTM,2024,122.167268583137,13.276915993275
$GNHDT,281.967,T*28
$PYRTM,2024,122.167274319826,13.276921729977
$GNGGA,040052.50,3318.55480474,N,11856.78662905,W,2,12,0.8,8.239,M,-37.676,M,7.4,0135*62
$PYRTM,2024,122.167274319826,13.276921729977
$GNHDT,282.047,T*20
$PYRTM,2024,122.167280161389,13.276927571528
$GNGGA,040053.00,3318.55511984,N,11856.78808659,W,2,12,0.8,7.778,M,-37.676,M,4.0,0135*61
$PYRTM,2024,122.167280161389,13.276927571528
$GNHDT,282.330,T*23
$PYRTM,2024,122.167285888310,13.276933298449
$GNGGA,040053.50,3318.55542846,N,11856.78948666,W,2,12,0.8,7.402,M,-37.676,M,4.4,0135*6E
$PYRTM,2024,122.167285888310,13.276933298449
$GNHDT,282.136,T*27
$PYRTM,2024,122.167291730718,13.276939140868
$GNGGA,040054.00,3318.55573148,N,11856.79079882,W,2,12,0.8,7.231,M,-37.676,M,5.0,0135*64
$PYRTM,2024,122.167291730718,13.276939140868
$GNHDT,282.282,T*2B
$PYRTM,2024,122.167297465671,13.276944875810
$GNGGA,040054.50,3318.55601981,N,11856.79204771,W,2,12,0.8,7.313,M,-37.676,M,5.4,0135*64
$PYRTM,2024,122.167297465671,13.276944875810
$GNHDT,282.213,T*23
$PYRTM,2024,122.167303303634,13.276950713773
$GNGGA,040055.00,3318.55628812,N,11856.79329158,W,2,12,0.8,7.605,M,-37.676,M,6.0,0135*66
$PYRTM,2024,122.167303303634,13.276950713773
$GNHDT,281.993,T*23
$PYRTM,2024,122.167309044456,13.276956454595
$GNGGA,040055.50,3318.55652634,N,11856.79459041,W,2,12,0.8,7.910,M,-37.676,M,6.4,0135*62
$PYRTM,2024,122.167309044456,13.276956454595
$GNHDT,282.381,T*29
$PYRTM,2024,122.167314881667,13.276962291806
$GNGGA,040056.00,3318.55674546,N,11856.79596002,W,2,12,0.8,8.102,M,-37.676,M,7.0,0135*62
$PYRTM,2024,122.167314881667,13.276962291806
$GNHDT,282.440,T*23
$PYRTM,2024,122.167320612477,13.276968022616
$GNGGA,040056.50,3318.55696813,N,11856.79735689,W,2,12,0.8,8.177,M,-37.676,M,7.4,0135*6E
$PYRTM,2024,122.167320612477,13.276968022616
$GNHDT,282.330,T*23
$PYRTM,2024,122.167326454965,13.276973865104
$GNGGA,040057.00,3318.55721386,N,11856.79872399,W,2,12,0.8,8.173,M,-37.676,M,7.0,0135*68
$PYRTM,2024,122.167326454965,13.276973865104
$GNHDT,282.490,T*2E
$PYRTM,2024,122.167332185150,13.276979595289
$GNGGA,040057.50,3318.55749769,N,11856.80007083,W,2,12,0.8,8.099,M,-37.676,M,7.4,0135*63
$PYRTM,2024,122.167332185150,13.276979595289
$GNHDT,282.550,T*23
$PYRTM,2024,122.167338026817,13.276985436956
$GNGGA,040058.00,3318.55781640,N,11856.80143241,W,2,12,0.8,7.917,M,-37.676,M,7.0,0135*6E
$PYRTM,2024,122.167338026817,13.276985436956
$GNHDT,282.634,T*22
$PYRTM,2024,122.167343762627,13.276991172766
$GNGGA,040058.50,3318.55814952,N,11856.80284972,W,2,12,0.8,7.650,M,-37.676,M,7.4,0135*6F
$PYRTM,2024,122.167343762627,13.276991172766
$GNHDT,282.452,T*20
$PYRTM,2024,122.167349602801,13.276997012940
$GNGGA,040059.00,3318.55848146,N,11856.80428592,W,2,12,0.8,7.386,M,-37.676,M,4.0,0135*64
$PYRTM,2024,122.167349602801,13.276997012940
$GNHDT,282.309,T*29
$PYRTM,2024,122.167355335440,13.277002745579
$GNGGA,040059.50,3318.55878525,N,11856.80566650,W,2,12,0.8,7.314,M,-37.676,M,4.4,0135*6A
$PYRTM,2024,122.167355335440,13.277002745579
$GNHDT,282.264,T*23
$PYRTM,2024,122.167361175972,13.277008586111
$GNGGA,040100.00,3318.55903323,N,11856.80696750,W,2,12,0.8,7.516,M,-37.676,M,5.0,0135*63
$PYRTM,2024,122.167361175972,13.277008586111
$GNHDT,282.444,T*27
$PYRTM,2024,122.167366906007,13.277014316146
$GNGGA,040100.50,3318.55924649,N,11856.80822229,W,2,12,0.8,7.904,M,-37.676,M,5.4,0135*6B
$PYRTM,2024,122.167366906007,13.277014316146
$GNHDT,282.204,T*25
$PYRTM,2024,122.167372748553,13.277020158692
$GNGGA,040101.00,3318.55944769,N,11856.80949717,W,2,12,0.8,8.313,M,-37.676,M,6.0,0135*6A
$PYRTM,2024,122.167372748553,13.277020158692
$GNHDT,282.369,T*2F
$PYRTM,2024,122.167378490856,13.277025900995
$GNGGA,040101.50,3318.55968693,N,11856.81086851,W,2,12,0.8,8.528,M,-37.676,M,6.4,0135*69
$PYRTM,2024,122.167378490856,13.277025900995
$GNHDT,282.533,T*26
$PYRTM,2024,122.167384331481,13.277031741620
$GNGGA,040102.00,3318.55997783,N,11856.81234431,W,2,12,0.8,8.342,M,-37.676,M,7.0,0135*61
$PYRTM,2024,122.167384331481,13.277031741620
$GNHDT,282.591,T*2E
$PYRTM,2024,122.167390068889,13.277037479028
$GNGGA,040102.50,3318.56028934,N,11856.81380215,W,2,12,0.8,7.940,M,-37.676,M,7.4,0135*65
$PYRTM,2024,122.167390068889,13.277037479028
$GNHDT,282.523,T*27
$PYRTM,2024,122.167395905660,13.277043315799
$GNGGA,040103.00,3318.56057536,N,11856.81520915,W,2,12,0.8,7.602,M,-37.676,M,7.0,0135*6D
$PYRTM,2024,122.167395905660,13.277043315799
$GNHDT,282.886,T*25
$PYRTM,2024,122.167401628449,13.277049038588
$GNGGA,040103.50,3318.56083550,N,11856.81651737,W,2,12,0.8,7.456,M,-37.676,M,7.4,0135*6D
$PYRTM,2024,122.167401628449,13.277049038588
$GNHDT,282.622,T*25
$PYRTM,2024,122.167407473171,13.277054883310
$GNGGA,040104.00,3318.56108049,N,11856.81777361,W,2,12,0.8,7.539,M,-37.676,M,7.0,0135*6E
$PYRTM,2024,122.167407473171,13.277054883310
$GNHDT,282.769,T*2B
$PYRTM,2024,122.167413208715,13.277060618854
$GNGGA,040104.50,3318.56134436,N,11856.81901798,W,2,12,0.8,7.730,M,-37.676,M,7.4,0135*6A
$PYRTM,2024,122.167413208715,13.277060618854
$GNHDT,282.652,T*22
$PYRTM,2024,122.167419046238,13.277066456377
$GNGGA,040105.00,3318.56162613,N,11856.82030769,W,2,12,0.8,7.916,M,-37.676,M,4.0,0135*63
$PYRTM,2024,122.167419046238,13.277066456377
$GNHDT,282.612,T*26
$PYRTM,2024,122.167424778090,13.277072188229
$GNGGA,040105.50,3318.56191414,N,11856.82166449,W,2,12,0.8,7.988,M,-37.676,M,4.4,0135*6F
$PYRTM,2024,122.167424778090,13.277072188229
$GNHDT,282.494,T*2A
$PYRTM,2024,122.167430620370,13.277078030498
$GNGGA,040106.00,3318.56220138,N,11856.82302438,W,2,12,0.8,7.955,M,-37.676,M,5.0,0135*68
$PYRTM,2024,122.167430620370,13.277078030498
$GNHDT,282.491,T*2F
$PYRTM,2024,122.167436350069,13.277083760208
$GNGGA,040106.50,3318.56247413,N,11856.82437033,W,2,12,0.8,7.894,M,-37.676,M,5.4,0135*66
$PYRTM,2024,122.167436350069,13.277083760208
$GNHDT,282.471,T*21
$PYRTM,2024,122.167442195903,13.277089606030
$GNGGA,040107.00,3318.56273971,N,11856.82568866,W,2,12,0.8,7.833,M,-37.676,M,6.0,0135*65
$PYRTM,2024,122.167442195903,13.277089606030
$GNHDT,282.415,T*23
$PYRTM,2024,122.167447929780,13.277095339919
$GNGGA,040107.50,3318.56299834,N,11856.82702281,W,2,12,0.8,7.787,M,-37.676,M,6.4,0135*6D
$PYRTM,2024,122.167447929780,13.277095339919
$GNHDT,282.176,T*23
$PYRTM,2024,122.167453774711,13.277101184850
$GNGGA,040108.00,3318.56326545,N,11856.82838748,W,2,12,0.8,7.721,M,-37.676,M,7.0,0135*66
$PYRTM,2024,122.167453774711,13.277101184850
$GNHDT,281.933,T*29
$PYRTM,2024,122.167459499861,13.277106910000
$GNGGA,040108.50,3318.56354185,N,11856.82978484,W,2,12,0.8,7.623,M,-37.676,M,7.4,0135*6F
$PYRTM,2024,122.167459499861,13.277106910000
$GNHDT,282.062,T*27
$PYRTM,2024,122.167465345069,13.277112755208
$GNGGA,040109.00,3318.56381576,N,11856.83116542,W,2,12,0.8,7.548,M,-37.676,M,7.0,0135*6B
$PYRTM,2024,122.167465345069,13.277112755208
$GNHDT,282.038,T*28
$PYRTM,2024,122.167471077859,13.277118487998
$GNGGA,040109.50,3318.56407946,N,11856.83250356,W,2,12,0.8,7.574,M,-37.676,M,7.4,0135*61
$PYRTM,2024,122.167471077859,13.277118487998
$GNHDT,281.874,T*2B
$PYRTM,2024,122.167476917431,13.277124327569
$GNGGA,040110.00,3318.56434598,N,11856.83377755,W,2,12,0.8,7.752,M,-37.676,M,7.0,0135*62
$PYRTM,2024,122.167476917431,13.277124327569
$GNHDT,281.918,T*20
$PYRTM,2024,122.167482654711,13.277130064850
$GNGGA,040110.50,3318.56461957,N,11856.83501949,W,2,12,0.8,8.015,M,-37.676,M,7.4,0135*63
$PYRTM,2024,122.167482654711,13.277130064850
$GNHDT,281.771,T*21
$PYRTM,2024,122.167488495046,13.277135905185
$GNGGA,040111.00,3318.56490401,N,11856.83627815,W,2,12,0.8,8.277,M,-37.676,M,4.0,0135*69
$PYRTM,2024,122.167488495046,13.277135905185
$GNHDT,281.813,T*2A
$PYRTM,2024,122.167494220289,13.277141630428
$GNGGA,040111.50,3318.56518609,N,11856.83761875,W,2,12,0.8,8.311,M,-37.676,M,4.4,0135*67
$PYRTM,2024,122.167494220289,13.277141630428
$GNHDT,281.932,T*28
$PYRTM,2024,122.167500063831,13.277147473970
$GNGGA,040112.00,3318.56546051,N,11856.83903679,W,2,12,0.8,8.055,M,-37.676,M,5.0,0135*6F
$PYRTM,2024,122.167500063831,13.277147473970
$GNHDT,282.075,T*21
$PYRTM,2024,122.167505798912,13.277153209051
$GNGGA,040112.50,3318.56571647,N,11856.84051955,W,2,12,0.8,7.610,M,-37.676,M,5.4,0135*6B
$PYRTM,2024,122.167505798912,13.277153209051
$GNHDT,281.810,T*29
$PYRTM,2024,122.167511637315,13.277159047454
$GNGGA,040113.00,3318.56594050,N,11856.84201842,W,2,12,0.8,7.110,M,-37.676,M,6.0,0135*64
$PYRTM,2024,122.167511637315,13.277159047454
$GNHDT,281.916,T*2E
$PYRTM,2024,122.167517371169,13.277164781308
$GNGGA,040113.50,3318.56615248,N,11856.84344681,W,2,12,0.8,6.788,M,-37.676,M,6.4,0135*63
$PYRTM,2024,122.167517371169,13.277164781308
$GNHDT,282.044,T*23
$PYRTM,2024,122.167523218380,13.277170628519
$GNGGA,040114.00,3318.56637053,N,11856.84477651,W,2,12,0.8,6.863,M,-37.676,M,7.0,0135*6C
$PYRTM,2024,122.167523218380,13.277170628519
$GNHDT,282.095,T*2F
$PYRTM,2024,122.167528949549,13.277176359687
$GNGGA,040114.50,3318.56662248,N,11856.84600100,W,2,12,0.8,7.271,M,-37.676,M,7.4,0135*6C
$PYRTM,2024,122.167528949549,13.277176359687
$GNHDT,282.174,T*21
$PYRTM,2024,122.167534792303,13.277182202442
$GNGGA,040115.00,3318.56689444,N,11856.84720970,W,2,12,0.8,7.866,M,-37.676,M,7.0,0135*63
$PYRTM,2024,122.167534792303,13.277182202442
$GNHDT,282.272,T*24
$PYRTM,2024,122.167540522338,13.277187932465
$GNGGA,040115.50,3318.56717794,N,11856.84851032,W,2,12,0.8,8.375,M,-37.676,M,7.4,0135*6A
$PYRTM,2024,122.167540522338,13.277187932465
$GNHDT,282.210,T*20
$PYRTM,2024,122.167546361400,13.277193771539
$GNGGA,040116.00,3318.56747187,N,11856.84993944,W,2,12,0.8,8.585,M,-37.676,M,7.0,0135*67
$PYRTM,2024,122.167546361400,13.277193771539
$GNHDT,282.137,T*26
$PYRTM,2024,122.167552098542,13.277199508681
$GNGGA,040116.50,3318.56776466,N,11856.85140689,W,2,12,0.8,8.446,M,-37.676,M,7.4,0135*69
$PYRTM,2024,122.167552098542,13.277199508681
$GNHDT,282.093,T*29
$PYRTM,2024,122.167557939294,13.277205349433
$GNGGA,040117.00,3318.56804358,N,11856.85282866,W,2,12,0.8,8.121,M,-37.676,M,4.0,0135*6C
$PYRTM,2024,122.167557939294,13.277205349433
$GNHDT,282.146,T*20
$PYRTM,2024,122.167563674421,13.277211084560
$GNGGA,040117.50,3318.56830376,N,11856.85419136,W,2,12,0.8,7.845,M,-37.676,M,4.4,0135*6A
$PYRTM,2024,122.167563674421,13.277211084560
$GNHDT,282.196,T*2D
$PYRTM,2024,122.167569509826,13.277216919965
$GNGGA,040118.00,3318.56854919,N,11856.85550075,W,2,12,0.8,7.725,M,-37.676,M,5.0,0135*67
$PYRTM,2024,122.167569509826,13.277216919965
$GNHDT,282.559,T*2A
$PYRTM,2024,122.167575239676,13.277222649815
$GNGGA,040118.50,3318.56882113,N,11856.85675514,W,2,12,0.8,7.750,M,-37.676,M,5.4,0135*6B
$PYRTM,2024,122.167575239676,13.277222649815
$GNHDT,282.706,T*22
$PYRTM,2024,122.167581087326,13.277228497465
$GNGGA,040119.00,3318.56912932,N,11856.85799332,W,2,12,0.8,7.840,M,-37.676,M,6.0,0135*64
$PYRTM,2024,122.167581087326,13.277228497465
$GNHDT,282.754,T*25
$PYRTM,2024,122.167586822905,13.277234233044
$GNGGA,040119.50,3318.56944645,N,11856.85929453,W,2,12,0.8,7.851,M,-37.676,M,6.4,0135*6C
$PYRTM,2024,122.167586822905,13.277234233044
$GNHDT,282.504,T*22
$PYRTM,2024,122.167592657326,13.277240067465
$GNGGA,040120.00,3318.56975264,N,11856.86064828,W,2,12,0.8,7.768,M,-37.676,M,7.0,0135*65
$PYRTM,2024,122.167592657326,13.277240067465
$GNHDT,282.706,T*22
$PYRTM,2024,122.167598396667,13.277245806806
$GNGGA,040120.50,3318.57003259,N,11856.86201099,W,2,12,0.8,7.660,M,-37.676,M,7.4,0135*69
$PYRTM,2024,122.167598396667,13.277245806806
$GNHDT,282.990,T*23
$PYRTM,2024,122.167604230718,13.277251640856
$GNGGA,040121.00,3318.57028538,N,11856.86335247,W,2,12,0.8,7.606,M,-37.676,M,7.0,0135*67
$PYRTM,2024,122.167604230718,13.277251640856
$GNHDT,282.969,T*25
$PYRTM,2024,122.167609963958,13.277257374109
$GNGGA,040121.50,3318.57053081,N,11856.86466852,W,2,12,0.8,7.645,M,-37.676,M,7.4,0135*65
$PYRTM,2024,122.167609963958,13.277257374109
$GNHDT,282.815,T*2F
$PYRTM,2024,122.167615807917,13.277263218067
$GNGGA,040122.00,3318.57079898,N,11856.86597169,W,2,12,0.8,7.756,M,-37.676,M,7.0,0135*62
$PYRTM,2024,122.167615807917,13.277263218067
$GNHDT,282.977,T*2A
$PYRTM,2024,122.167621539606,13.277268949745
$GNGGA,040122.50,3318.57111160,N,11856.86727743,W,2,12,0.8,7.867,M,-37.676,M,7.4,0135*68
$PYRTM,2024,122.167621539606,13.277268949745
$GNHDT,283.061,T*25
$PYRTM,2024,122.167627387708,13.277274797847
$GNGGA,040123.00,3318.57145671,N,11856.86858547,W,2,12,0.8,7.945,M,-37.676,M,4.0,0135*6D
$PYRTM,2024,122.167627387708,13.277274797847
$GNHDT,283.268,T*2E
$PYRTM,2024,122.167633124190,13.277280534329
$GNGGA,040123.50,3318.57179113,N,11856.86989302,W,2,12,0.8,7.982,M,-37.676,M,4.4,0135*61
$PYRTM,2024,122.167633124190,13.277280534329
$GNHDT,283.260,T*26
$PYRTM,2024,122.167638957199,13.277286367338
$GNGGA,040124.00,3318.57207540,N,11856.87120552,W,2,12,0.8,7.994,M,-37.676,M,5.0,0135*60
$PYRTM,2024,122.167638957199,13.277286367338
$GNHDT,283.185,T*2E
$PYRTM,2024,122.167644689144,13.277292099282
$GNGGA,040124.50,3318.57231323,N,11856.87253500,W,2,12,0.8,7.952,M,-37.676,M,5.4,0135*6D
$PYRTM,2024,122.167644689144,13.277292099282
$GNHDT,283.154,T*22
$PYRTM,2024,122.167650528021,13.277297938160
$GNGGA,040125.00,3318.57251718,N,11856.87389703,W,2,12,0.8,7.841,M,-37.676,M,6.0,0135*60
$PYRTM,2024,122.167650528021,13.277297938160
$GNHDT,283.017,T*24
$PYRTM,2024,122.167656258461,13.277303668611
$GNGGA,040125.50,3318.57270465,N,11856.87529685,W,2,12,0.8,7.663,M,-37.676,M,6.4,0135*66
$PYRTM,2024,122.167656258461,13.277303668611
$GNHDT,282.801,T*2A
$PYRTM,2024,122.167662103681,13.277309513831
$GNGGA,040126.00,3318.57289022,N,11856.87673543,W,2,12,0.8,7.480,M,-37.676,M,7.0,0135*6E
$PYRTM,2024,122.167662103681,13.277309513831
$GNHDT,282.899,T*2B
$PYRTM,2024,122.167667841215,13.277315251354
$GNGGA,040126.50,3318.57311102,N,11856.87815219,W,2,12,0.8,7.335,M,-37.676,M,7.4,0135*63
$PYRTM,2024,122.167667841215,13.277315251354
$GNHDT,282.753,T*22
$PYRTM,2024,122.167673676065,13.277321086204
$GNGGA,040127.00,3318.57338291,N,11856.87954260,W,2,12,0.8,7.257,M,-37.676,M,7.0,0135*6E
$PYRTM,2024,122.167673676065,13.277321086204
$GNHDT,282.643,T*22
$PYRTM,2024,122.167679411759,13.277326821910
$GNGGA,040127.50,3318.57369839,N,11856.88089059,W,2,12,0.8,7.248,M,-37.676,M,7.4,0135*63
$PYRTM,2024,122.167679411759,13.277326821910
$GNHDT,282.534,T*21
$PYRTM,2024,122.167685251076,13.277332661215
$GNGGA,040128.00,3318.57402961,N,11856.88222824,W,2,12,0.8,7.296,M,-37.676,M,7.0,0135*69
$PYRTM,2024,122.167685251076,13.277332661215
$GNHDT,282.374,T*23
$PYRTM,2024,122.167690980799,13.277338390938
$GNGGA,040128.50,3318.57435609,N,11856.88359903,W,2,12,0.8,7.377,M,-37.676,M,7.4,0135*6A
$PYRTM,2024,122.167690980799,13.277338390938
$GNHDT,282.175,T*20
$PYRTM,2024,122.167696826887,13.277344237025
$GNGGA,040129.00,3318.57467639,N,11856.88500899,W,2,12,0.8,7.456,M,-37.676,M,4.0,0135*61
$PYRTM,2024,122.167696826887,13.277344237025
$GNHDT,282.049,T*2E
$PYRTM,2024,122.167702560463,13.277349970602
$GNGGA,040129.50,3318.57498229,N,11856.88640531,W,2,12,0.8,7.591,M,-37.676,M,4.4,0135*67
$PYRTM,2024,122.167702560463,13.277349970602
$GNHDT,282.167,T*23
$PYRTM,2024,122.167708400683,13.277355810822
$GNGGA,040130.00,3318.57527279,N,11856.88775594,W,2,12,0.8,7.808,M,-37.676,M,5.0,0135*6A
$PYRTM,2024,122.167708400683,13.277355810822
$GNHDT,282.382,T*2A
$PYRTM,2024,122.167714136354,13.277361546493
$GNGGA,040130.50,3318.57555122,N,11856.88909141,W,2,12,0.8,8.063,M,-37.676,M,5.4,0135*60
$PYRTM,2024,122.167714136354,13.277361546493
$GNHDT,282.215,T*25
$PYRTM,2024,122.167719972338,13.277367382477
$GNGGA,040131.00,3318.57582294,N,11856.89044092,W,2,12,0.8,8.278,M,-37.676,M,6.0,0135*61
$PYRTM,2024,122.167719972338,13.277367382477
$GNHDT,282.221,T*22
$PYRTM,2024,122.167725713137,13.277373123287
$GNGGA,040131.50,3318.57608977,N,11856.89185520,W,2,12,0.8,8.317,M,-37.676,M,6.4,0135*6F
$PYRTM,2024,122.167725713137,13.277373123287
$GNHDT,282.106,T*24
$PYRTM,2024,122.167731551863,13.277378962002
$GNGGA,040132.00,3318.57636795,N,11856.89328915,W,2,12,0.8,8.205,M,-37.676,M,7.0,0135*6E
$PYRTM,2024,122.167731551863,13.277378962002
$GNHDT,282.108,T*2A
$PYRTM,2024,122.167737278669,13.277384688808
$GNGGA,040132.50,3318.57665965,N,11856.89467536,W,2,12,0.8,8.074,M,-37.676,M,7.4,0135*6D
$PYRTM,2024,122.167737278669,13.277384688808
$GNHDT,282.074,T*20
$PYRTM,2024,122.167743123206,13.277390533345
$GNGGA,040133.00,3318.57695516,N,11856.89597216,W,2,12,0.8,8.042,M,-37.676,M,7.0,0135*64
$PYRTM,2024,122.167743123206,13.277390533345
$GNHDT,282.240,T*25
$PYRTM,2024,122.167748856574,13.277396266713
$GNGGA,040133.50,3318.57725768,N,11856.89719758,W,2,12,0.8,8.159,M,-37.676,M,7.4,0135*64
$PYRTM,2024,122.167748856574,13.277396266713
$GNHDT,282.405,T*22
$PYRTM,2024,122.167754694259,13.277402104410
$GNGGA,040134.00,3318.57757665,N,11856.89841309,W,2,12,0.8,8.337,M,-37.676,M,7.0,0135*63
$PYRTM,2024,122.167754694259,13.277402104410
$GNHDT,282.542,T*20
$PYRTM,2024,122.167760430926,13.277407841065
$GNGGA,040134.50,3318.57790865,N,11856.89970234,W,2,12,0.8,8.387,M,-37.676,M,7.4,0135*60
$PYRTM,2024,122.167760430926,13.277407841065
$GNHDT,282.647,T*26
$PYRTM,2024,122.167766271771,13.277413681910
$GNGGA,040135.00,3318.57823667,N,11856.90106261,W,2,12,0.8,8.236,M,-37.676,M,4.0,0135*62
$PYRTM,2024,122.167766271771,13.277413681910
$GNHDT,282.447,T*24
$PYRTM,2024,122.167772007454,13.277419417593
$GNGGA,040135.50,3318.57852711,N,11856.90247044,W,2,12,0.8,7.912,M,-37.676,M,4.4,0135*64
$PYRTM,2024,122.167772007454,13.277419417593
$GNHDT,282.340,T*24
$PYRTM,2024,122.167777843380,13.277425253530
$GNGGA,040136.00,3318.57877735,N,11856.90388308,W,2,12,0.8,7.506,M,-37.676,M,5.0,0135*66
$PYRTM,2024,122.167777843380,13.277425253530
$GNHDT,282.591,T*2E
$PYRTM,2024,122.167783573275,13.277430983414
$GNGGA,040136.50,3318.57900423,N,11856.90527649,W,2,12,0.8,7.162,M,-37.676,M,5.4,0135*67
$PYRTM,2024,122.167783573275,13.277430983414
$GNHDT,282.734,T*23
$PYRTM,2024,122.167789417419,13.277436827558
$GNGGA,040137.00,3318.57921555,N,11856.90666136,W,2,12,0.8,6.941,M,-37.676,M,6.0,0135*66
$PYRTM,2024,122.167789417419,13.277436827558
$GNHDT,282.879,T*25
$PYRTM,2024,122.167795155394,13.277442565532
$GNGGA,040137.50,3318.57943567,N,11856.90803744,W,2,12,0.8,6.868,M,-37.676,M,6.4,0135*66
$PYRTM,2024,122.167795155394,13.277442565532
$GNHDT,282.774,T*27
$PYRTM,2024,122.167800993125,13.277448403264
$GNGGA,040138.00,3318.57968447,N,11856.90943242,W,2,12,0.8,6.903,M,-37.676,M,7.0,0135*69
$PYRTM,2024,122.167800993125,13.277448403264
$GNHDT,282.831,T*29
$PYRTM,2024,122.167806727373,13.277454137512
$GNGGA,040138.50,3318.57997842,N,11856.91081018,W,2,12,0.8,7.009,M,-37.676,M,7.4,0135*68
$PYRTM,2024,122.167806727373,13.277454137512
$GNHDT,282.989,T*2B
$PYRTM,2024,122.167812570463,13.277459980787
$GNGGA,040139.00,3318.58027984,N,11856.91220536,W,2,12,0.8,7.158,M,-37.676,M,7.0,0135*6B
$PYRTM,2024,122.167812570463,13.277459980787
$GNHDT,283.167,T*22
$PYRTM,2024,122.167818299907,13.277465710046
$GNGGA,040139.50,3318.58059525,N,11856.91359610,W,2,12,0.8,7.323,M,-37.676,M,7.4,0135*62
$PYRTM,2024,122.167818299907,13.277465710046
$GNHDT,282.904,T*2E
$PYRTM,2024,122.167824140799,13.277471550937
$GNGGA,040140.00,3318.58091514,N,11856.91498140,W,2,12,0.8,7.482,M,-37.676,M,7.0,0135*6F
$PYRTM,2024,122.167824140799,13.277471550937
$GNHDT,282.722,T*24
$PYRTM,2024,122.167829870347,13.277477280486
$GNGGA,040140.50,3318.58119628,N,11856.91638322,W,2,12,0.8,7.632,M,-37.676,M,7.4,0135*64
$PYRTM,2024,122.167829870347,13.277477280486
$GNHDT,282.471,T*21
$PYRTM,2024,122.167835716238,13.277483126377
$GNGGA,040141.00,3318.58144294,N,11856.91776540,W,2,12,0.8,7.801,M,-37.676,M,4.0,0135*6B
$PYRTM,2024,122.167835716238,13.277483126377
$GNHDT,282.346,T*22
$PYRTM,2024,122.167841454120,13.277488864259
$GNGGA,040141.50,3318.58165627,N,11856.91910431,W,2,12,0.8,8.041,M,-37.676,M,4.4,0135*6F
$PYRTM,2024,122.167841454120,13.277488864259
$GNHDT,282.145,T*23
$PYRTM,2024,122.167847286435,13.277494696586
$GNGGA,040142.00,3318.58185514,N,11856.92039076,W,2,12,0.8,8.329,M,-37.676,M,5.0,0135*6A
$PYRTM,2024,122.167847286435,13.277494696586
$GNHDT,282.282,T*2B
$PYRTM,2024,122.167853019722,13.277500429861
$GNGGA,040142.50,3318.58207830,N,11856.92166025,W,2,12,0.8,8.588,M,-37.676,M,5.4,0135*69
$PYRTM,2024,122.167853019722,13.277500429861
$GNHDT,282.554,T*27
$PYRTM,2024,122.167858863079,13.277506273218
$GNGGA,040143.00,3318.58234458,N,11856.92297976,W,2,12,0.8,8.632,M,-37.676,M,6.0,0135*68
$PYRTM,2024,122.167858863079,13.277506273218
$GNHDT,282.630,T*26
$PYRTM,2024,122.167864604363,13.277512014514
$GNGGA,040143.50,3318.58265736,N,11856.92438221,W,2,12,0.8,8.351,M,-37.676,M,6.4,0135*6C
$PYRTM,2024,122.167864604363,13.277512014514
$GNHDT,282.701,T*25
$PYRTM,2024,122.167870437431,13.277517847569
$GNGGA,040144.00,3318.58298156,N,11856.92581598,W,2,12,0.8,7.911,M,-37.676,M,7.0,0135*6E
$PYRTM,2024,122.167870437431,13.277517847569
$GNHDT,282.633,T*25
$PYRTM,2024,122.167876165521,13.277523575660
$GNGGA,040144.50,3318.58330435,N,11856.92724198,W,2,12,0.8,7.430,M,-37.676,M,7.4,0135*6B
$PYRTM,2024,122.167876165521,13.277523575660
$GNHDT,282.368,T*2E
$PYRTM,2024,122.167882010243,13.277529420382
$GNGGA,040145.00,3318.58362072,N,11856.92858337,W,2,12,0.8,7.089,M,-37.676,M,7.0,0135*6E
$PYRTM,2024,122.167882010243,13.277529420382
$GNHDT,282.405,T*22
$PYRTM,2024,122.167887741400,13.277535151539
$GNGGA,040145.50,3318.58391052,N,11856.92988036,W,2,12,0.8,7.007,M,-37.676,M,7.4,0135*69
$PYRTM,2024,122.167887741400,13.277535151539
$GNHDT,282.611,T*25
$PYRTM,2024,122.167893586227,13.277540996377
$GNGGA,040146.00,3318.58419413,N,11856.93115981,W,2,12,0.8,7.151,M,-37.676,M,7.0,0135*67
$PYRTM,2024,122.167893586227,13.277540996377
$GNHDT,282.851,T*2F
$PYRTM,2024,122.167899325035,13.277546735185
$GNGGA,040146.50,3318.58449534,N,11856.93248886,W,2,12,0.8,7.381,M,-37.676,M,7.4,0135*65
$PYRTM,2024,122.167899325035,13.277546735185
$GNHDT,282.799,T*24
$PYRTM,2024,122.167905161956,13.277552572095
$GNGGA,040147.00,3318.58482247,N,11856.93389937,W,2,12,0.8,7.531,M,-37.676,M,4.0,0135*68
$PYRTM,2024,122.167905161956,13.277552572095
$GNHDT,282.835,T*2D
$PYRTM,2024,122.167910890231,13.277558300370
$GNGGA,040147.50,3318.58516082,N,11856.93540167,W,2,12,0.8,7.505,M,-37.676,M,4.4,0135*67
$PYRTM,2024,122.167910890231,13.277558300370
$GNHDT,282.849,T*26
$PYRTM,2024,122.167916732627,13.277564142766
$GNGGA,040148.00,3318.58547367,N,11856.93692487,W,2,12,0.8,7.374,M,-37.676,M,5.0,0135*63
$PYRTM,2024,122.167916732627,13.277564142766
$GNHDT,282.724,T*22
$PYRTM,2024,122.167922463808,13.277569873947
$GNGGA,040148.50,3318.58575631,N,11856.93837226,W,2,12,0.8,7.350,M,-37.676,M,5.4,0135*6F
$PYRTM,2024,122.167922463808,13.277569873947
$GNHDT,282.668,T*2B
$PYRTM,2024,122.167928308275,13.277575718426
$GNGGA,040149.00,3318.58600769,N,11856.93968979,W,2,12,0.8,7.568,M,-37.676,M,6.0,0135*66
$PYRTM,2024,122.167928308275,13.277575718426
$GNHDT,282.806,T*2D
$PYRTM,2024,122.167934040868,13.277581451007
$GNGGA,040149.50,3318.58624568,N,11856.94093709,W,2,12,0.8,7.951,M,-37.676,M,6.4,0135*67
$PYRTM,2024,122.167934040868,13.277581451007
$GNHDT,282.953,T*2C
$PYRTM,2024,122.167939882616,13.277587292755
$GNGGA,040150.00,3318.58648557,N,11856.94218012,W,2,12,0.8,8.389,M,-37.676,M,7.0,0135*65
$PYRTM,2024,122.167939882616,13.277587292755
$GNHDT,282.940,T*2E
$PYRTM,2024,122.167945623900,13.277593034051
$GNGGA,040150.50,3318.58673611,N,11856.94349437,W,2,12,0.8,8.642,M,-37.676,M,7.4,0135*69
$PYRTM,2024,122.167945623900,13.277593034051
$GNHDT,282.682,T*2F
$PYRTM,2024,122.167951458299,13.277598868438
$GNGGA,040151.00,3318.58699762,N,11856.94486413,W,2,12,0.8,8.618,M,-37.676,M,7.0,0135*65
$PYRTM,2024,122.167951458299,13.277598868438
$GNHDT,282.571,T*20
$PYRTM,2024,122.167957189167,13.277604599306
$GNGGA,040151.50,3318.58726720,N,11856.94624139,W,2,12,0.8,8.372,M,-37.676,M,7.4,0135*69
$PYRTM,2024,122.167957189167,13.277604599306
$GNHDT,282.530,T*25
$PYRTM,2024,122.167963032743,13.277610442882
$GNGGA,040152.00,3318.58753905,N,11856.94761125,W,2,12,0.8,7.974,M,-37.676,M,7.0,0135*6E
$PYRTM,2024,122.167963032743,13.277610442882
$GNHDT,282.657,T*27
$PYRTM,2024,122.167968763565,13.277616173704
$GNGGA,040152.50,3318.58781652,N,11856.94896499,W,2,12,0.8,7.550,M,-37.676,M,7.4,0135*62
$PYRTM,2024,122.167968763565,13.277616173704
$GNHDT,282.717,T*22
$PYRTM,2024,122.167974604201,13.277622014340
$GNGGA,040153.00,3318.58810507,N,11856.95031578,W,2,12,0.8,7.189,M,-37.676,M,4.0,0135*6F
$PYRTM,2024,122.167974604201,13.277622014340
$GNHDT,282.779,T*2A
$PYRTM,2024,122.167980342685,13.277627752824
$GNGGA,040153.50,3318.58839667,N,11856.95165910,W,2,12,0.8,6.997,M,-37.676,M,4.4,0135*64
$PYRTM,2024,122.167980342685,13.277627752824
$GNHDT,282.703,T*27
$PYRTM,2024,122.167986177454,13.277633587593
$GNGGA,040154.00,3318.58868849,N,11856.95298351,W,2,12,0.8,7.023,M,-37.676,M,5.0,0135*6C
$PYRTM,2024,122.167986177454,13.277633587593
$GNHDT,282.666,T*25
$PYRTM,2024,122.167991914560,13.277639324699
$GNGGA,040154.50,3318.58895953,N,11856.95429428,W,2,12,0.8,7.209,M,-37.676,M,5.4,0135*6A
$PYRTM,2024,122.167991914560,13.277639324699
$GNHDT,282.892,T*20
$PYRTM,2024,122.167997752523,13.277645162674
$GNGGA,040155.00,3318.58920844,N,11856.95561630,W,2,12,0.8,7.496,M,-37.676,M,6.0,0135*67
$PYRTM,2024,122.167997752523,13.277645162674
$GNHDT,282.822,T*2B
$PYRTM,2024,122.168003486516,13.277650896655
$GNGGA,040155.50,3318.58945432,N,11856.95699551,W,2,12,0.8,7.712,M,-37.676,M,6.4,0135*67
$PYRTM,2024,122.168003486516,13.277650896655
$GNHDT,282.827,T*2E
$PYRTM,2024,122.168009323206,13.277656733345
$GNGGA,040156.00,3318.58970526,N,11856.95845596,W,2,12,0.8,7.750,M,-37.676,M,7.0,0135*64
$PYRTM,2024,122.168009323206,13.277656733345
$GNHDT,282.591,T*2E
$PYRTM,2024,122.168015064942,13.277662475081
$GNGGA,040156.50,3318.58996893,N,11856.95993568,W,2,12,0.8,7.675,M,-37.676,M,7.4,0135*63
$PYRTM,2024,122.168015064942,13.277662475081
$GNHDT,282.439,T*2D
$PYRTM,2024,122.168020902130,13.277668312280
$GNGGA,040157.00,3318.59024995,N,11856.96138064,W,2,12,0.8,7.559,M,-37.676,M,7.0,0135*6B
$PYRTM,2024,122.168020902130,13.277668312280
$GNHDT,282.721,T*27
$PYRTM,2024,122.168026635579,13.277674045718
$GNGGA,040157.50,3318.59055237,N,11856.96274068,W,2,12,0.8,7.550,M,-37.676,M,7.4,0135*61
$PYRTM,2024,122.168026635579,13.277674045718
$GNHDT,282.527,T*23
$PYRTM,2024,122.168032473368,13.277679883507
$GNGGA,040158.00,3318.59088253,N,11856.96404636,W,2,12,0.8,7.648,M,-37.676,M,7.0,0135*6B
$PYRTM,2024,122.168032473368,13.277679883507
$GNHDT,282.454,T*26
$PYRTM,2024,122.168038208773,13.277685618912
$GNGGA,040158.50,3318.59123954,N,11856.96535165,W,2,12,0.8,7.780,M,-37.676,M,7.4,0135*61
$PYRTM,2024,122.168038208773,13.277685618912
$GNHDT,282.712,T*27
$PYRTM,2024,122.168044048993,13.277691459132
$GNGGA,040159.00,3318.59159067,N,11856.96670963,W,2,12,0.8,7.860,M,-37.676,M,4.0,0135*6B
$PYRTM,2024,122.168044048993,13.277691459132
$GNHDT,282.705,T*21
$PYRTM,2024,122.168049788056,13.277697198194
$GNGGA,040159.50,3318.59190806,N,11856.96810369,W,2,12,0.8,7.891,M,-37.676,M,4.4,0135*66
$PYRTM,2024,122.168049788056,13.277697198194
$GNHDT,282.299,T*21
$PYRTM,2024,122.168055625475,13.277703035613
$GNGGA,040200.00,3318.59217104,N,11856.96948288,W,2,12,0.8,7.925,M,-37.676,M,5.0,0135*62
$PYRTM,2024,122.168055625475,13.277703035613
$GNHDT,282.279,T*2F
$PYRTM,2024,122.168061355081,13.277708765220
$GNGGA,040200.50,3318.59239574,N,11856.97082223,W,2,12,0.8,8.020,M,-37.675,M,5.4,0135*63
$PYRTM,2024,122.168061355081,13.277708765220
$GNHDT,282.259,T*2D
$PYRTM,2024,122.168067194641,13.277714604792
$GNGGA,040201.00,3318.59260676,N,11856.97214587,W,2,12,0.8,8.115,M,-37.675,M,6.0,0135*6E
$PYRTM,2024,122.168067194641,13.277714604792
$GNHDT,282.463,T*22
$PYRTM,2024,122.168072932083,13.277720342222
$GNGGA,040201.50,3318.59283574,N,11856.97350010,W,2,12,0.8,8.165,M,-37.675,M,6.4,0135*6E
$PYRTM,2024,122.168072932083,13.277720342222
$GNHDT,282.370,T*27
$PYRTM,2024,122.168078776516,13.277726186655
$GNGGA,040202.00,3318.59311074,N,11856.97488210,W,2,12,0.8,8.107,M,-37.675,M,7.0,0135*66
$PYRTM,2024,122.168078776516,13.277726186655
$GNHDT,282.296,T*2E
$PYRTM,2024,122.168084506887,13.277731917025
$GNGGA,040202.50,3318.59342735,N,11856.97627036,W,2,12,0.8,7.949,M,-37.675,M,7.4,0135*6F
$PYRTM,2024,122.168084506887,13.277731917025
$GNHDT,282.178,T*2D
$PYRTM,2024,122.168090344850,13.277737754988
$GNGGA,040203.00,3318.59375772,N,11856.97765981,W,2,12,0.8,7.736,M,-37.675,M,7.0,0135*6C
$PYRTM,2024,122.168090344850,13.277737754988
$GNHDT,282.196,T*2D
$PYRTM,2024,122.168096075139,13.277743485278
$GNGGA,040203.50,3318.59407297,N,11856.97904262,W,2,12,0.8,7.551,M,-37.675,M,7.4,0135*6D
$PYRTM,2024,122.168096075139,13.277743485278
$GNHDT,281.990,T*20
$PYRTM,2024,122.168101922222,13.277749332373
$GNGGA,040204.00,3318.59436899,N,11856.98041431,W,2,12,0.8,7.435,M,-37.675,M,7.0,0135*69
$PYRTM,2024,122.168101922222,13.277749332373
$GNHDT,281.892,T*23
$PYRTM,2024,122.168107655903,13.277755066042
$GNGGA,040204.50,3318.59464284,N,11856.98178328,W,2,12,0.8,7.416,M,-37.675,M,7.4,0135*6C
$PYRTM,2024,122.168107655903,13.277755066042
$GNHDT,281.837,T*2C
$PYRTM,2024,122.168113497164,13.277760907315
$GNGGA,040205.00,3318.59490338,N,11856.98317993,W,2,12,0.8,7.457,M,-37.675,M,4.0,0135*66
$PYRTM,2024,122.168113497164,13.277760907315
$GNHDT,281.946,T*2B
$PYRTM,2024,122.168119231782,13.277766641933
$GNGGA,040205.50,3318.59516683,N,11856.98458689,W,2,12,0.8,7.567,M,-37.675,M,4.4,0135*67
$PYRTM,2024,122.168119231782,13.277766641933
$GNHDT,281.716,T*20
$PYRTM,2024,122.168125067106,13.277772477245
$GNGGA,040206.00,3318.59543755,N,11856.98596771,W,2,12,0.8,7.737,M,-37.675,M,5.0,0135*6C
$PYRTM,2024,122.168125067106,13.277772477245
$GNHDT,281.688,T*26
$PYRTM,2024,122.168130799641,13.277778209780
$GNGGA,040206.50,3318.59571591,N,11856.98732163,W,2,12,0.8,7.953,M,-37.675,M,5.4,0135*63
$PYRTM,2024,122.168130799641,13.277778209780
$GNHDT,281.983,T*22
$PYRTM,2024,122.168136642014,13.277784052153
$GNGGA,040207.00,3318.59598457,N,11856.98867365,W,2,12,0.8,8.140,M,-37.675,M,6.0,0135*62
$PYRTM,2024,122.168136642014,13.277784052153
$GNHDT,281.987,T*26
$PYRTM,2024,122.168142373461,13.277789783611
$GNGGA,040207.50,3318.59622902,N,11856.99004693,W,2,12,0.8,8.239,M,-37.675,M,6.4,0135*61
$PYRTM,2024,122.168142373461,13.277789783611
$GNHDT,281.745,T*26
$PYRTM,2024,122.168148218519,13.277795628657
$GNGGA,040208.00,3318.59646256,N,11856.99142883,W,2,12,0.8,8.224,M,-37.675,M,7.0,0135*66
$PYRTM,2024,122.168148218519,13.277795628657
$GNHDT,281.522,T*25
$PYRTM,2024,122.168153948808,13.277801358947
$GNGGA,040208.50,3318.59671018,N,11856.99280597,W,2,12,0.8,8.103,M,-37.675,M,7.4,0135*68
$PYRTM,2024,122.168153948808,13.277801358947
$GNHDT,281.709,T*2E
$PYRTM,2024,122.168159788218,13.277807198356
$GNGGA,040209.00,3318.59698369,N,11856.99419016,W,2,12,0.8,7.849,M,-37.675,M,7.0,0135*68
$PYRTM,2024,122.168159788218,13.277807198356
$GNHDT,281.867,T*29
$PYRTM,2024,122.168165524595,13.277812934734
$GNGGA,040209.50,3318.59727817,N,11856.99560812,W,2,12,0.8,7.490,M,-37.675,M,7.4,0135*65
$PYRTM,2024,122.168165524595,13.277812934734
$GNHDT,282.141,T*27
$PYRTM,2024,122.168171364051,13.277818774190
$GNGGA,040210.00,3318.59759527,N,11856.99705953,W,2,12,0.8,7.094,M,-37.675,M,7.0,0135*6E
$PYRTM,2024,122.168171364051,13.277818774190
$GNHDT,282.305,T*25
$PYRTM,2024,122.168177098264,13.277824508403
$GNGGA,040210.50,3318.59793264,N,11856.99849089,W,2,12,0.8,6.789,M,-37.675,M,7.4,0135*6A
$PYRTM,2024,122.168177098264,13.277824508403
$GNHDT,282.217,T*27
$PYRTM,2024,122.168182938079,13.277830348218
$GNGGA,040211.00,3318.59827139,N,11856.99986116,W,2,12,0.8,6.707,M,-37.675,M,4.0,0135*61
$PYRTM,2024,122.168182938079,13.277830348218
$GNHDT,282.124,T*24
$PYRTM,2024,122.168188669433,13.277836079572
$GNGGA,040211.50,3318.59856911,N,11857.00118498,W,2,12,0.8,6.905,M,-37.675,M,4.4,0135*65
$PYRTM,2024,122.168188669433,13.277836079572
$GNHDT,282.186,T*2C
$PYRTM,2024,122.168194511968,13.277841922106
$GNGGA,040212.00,3318.59880947,N,11857.00247942,W,2,12,0.8,7.346,M,-37.675,M,5.0,0135*61
$PYRTM,2024,122.168194511968,13.277841922106
$GNHDT,282.078,T*2C
$PYRTM,2024,122.168200247778,13.277847657917
$GNGGA,040212.50,3318.59900496,N,11857.00380576,W,2,12,0.8,7.885,M,-37.675,M,5.4,0135*6D
$PYRTM,2024,122.168200247778,13.277847657917
$GNHDT,281.842,T*2E
$PYRTM,2024,122.168206084826,13.277853494965
$GNGGA,040213.00,3318.59920190,N,11857.00517457,W,2,12,0.8,8.369,M,-37.675,M,6.0,0135*63
$PYRTM,2024,122.168206084826,13.277853494965
$GNHDT,281.556,T*26
$PYRTM,2024,122.168211824977,13.277859235127
$GNGGA,040213.50,3318.59943678,N,11857.00658633,W,2,12,0.8,8.618,M,-37.675,M,6.4,0135*6D
$PYRTM,2024,122.168211824977,13.277859235127
$GNHDT,281.733,T*27
$PYRTM,2024,122.168217659317,13.277865069456
$GNGGA,040214.00,3318.59970986,N,11857.00801095,W,2,12,0.8,8.542,M,-37.675,M,7.0,0135*60
$PYRTM,2024,122.168217659317,13.277865069456
$GNHDT,281.613,T*24
$PYRTM,2024,122.168223404086,13.277870814236
$GNGGA,040214.50,3318.60001168,N,11857.00944239,W,2,12,0.8,8.207,M,-37.675,M,7.4,0135*6E
$PYRTM,2024,122.168223404086,13.277870814236
$GNHDT,282.028,T*29
$PYRTM,2024,122.168229236042,13.277876646181
$GNGGA,040215.00,3318.60030743,N,11857.01088278,W,2,12,0.8,7.754,M,-37.675,M,7.0,0135*62
$PYRTM,2024,122.168229236042,13.277876646181
$GNHDT,281.893,T*22
$PYRTM,2024,122.168234969213,13.277882379352
$GNGGA,040215.50,3318.60058807,N,11857.01227102,W,2,12,0.8,7.340,M,-37.675,M,7.4,0135*6A
$PYRTM,2024,122.168234969213,13.277882379352
$GNHDT,281.573,T*21
$PYRTM,2024,122.168240807766,13.277888217905
$GNGGA,040216.00,3318.60081698,N,11857.01363094,W,2,12,0.8,7.111,M,-37.675,M,7.0,0135*6D
$PYRTM,2024,122.168240807766,13.277888217905
$GNHDT,281.305,T*26
$PYRTM,2024,122.168246540648,13.277893950787
$GNGGA,040216.50,3318.60101896,N,11857.01496752,W,2,12,0.8,7.115,M,-37.675,M,7.4,0135*61
$PYRTM,2024,122.168246540648,13.277893950787
$GNHDT,281.458,T*29
$PYRTM,2024,122.168252387801,13.277899797940
$GNGGA,040217.00,3318.60121154,N,11857.01632015,W,2,12,0.8,7.268,M,-37.675,M,4.0,0135*66
$PYRTM,2024,122.168252387801,13.277899797940
$GNHDT,281.687,T*29
$PYRTM,2024,122.168258124502,13.277905534641
$GNGGA,040217.50,3318.60144420,N,11857.01767777,W,2,12,0.8,7.481,M,-37.675,M,4.4,0135*61
$PYRTM,2024,122.168258124502,13.277905534641
$GNHDT,281.681,T*2F
$PYRTM,2024,122.168263959687,13.277911369826
$GNGGA,040218.00,3318.60172580,N,11857.01906959,W,2,12,0.8,7.637,M,-37.675,M,5.0,0135*64
$PYRTM,2024,122.168263959687,13.277911369826
$GNHDT,282.021,T*20
$PYRTM,2024,122.168269692141,13.277917102280
$GNGGA,040218.50,3318.60206313,N,11857.02048011,W,2,12,0.8,7.696,M,-37.675,M,5.4,0135*67
$PYRTM,2024,122.168269692141,13.277917102280
$GNHDT,282.303,T*23
$PYRTM,2024,122.168275528345,13.277922938484
$GNGGA,040219.00,3318.60241534,N,11857.02187465,W,2,12,0.8,7.653,M,-37.675,M,6.0,0135*68
$PYRTM,2024,122.168275528345,13.277922938484
$GNHDT,282.182,T*28
$PYRTM,2024,122.168281264537,13.277928674676
$GNGGA,040219.50,3318.60271722,N,11857.02327230,W,2,12,0.8,7.584,M,-37.675,M,6.4,0135*68
$PYRTM,2024,122.168281264537,13.277928674676
$GNHDT,281.961,T*2E
$PYRTM,2024,122.168287105313,13.277934515451
$GNGGA,040220.00,3318.60294624,N,11857.02466064,W,2,12,0.8,7.541,M,-37.675,M,7.0,0135*66
$PYRTM,2024,122.168287105313,13.277934515451
$GNHDT,281.727,T*22
$PYRTM,2024,122.168292834583,13.277940244734
$GNGGA,040220.50,3318.60313138,N,11857.02605111,W,2,12,0.8,7.542,M,-37.675,M,7.4,0135*64
$PYRTM,2024,122.168292834583,13.277940244734
$GNHDT,281.749,T*2A
$PYRTM,2024,122.168298684537,13.277946094676
$GNGGA,040221.00,3318.60332534,N,11857.02743043,W,2,12,0.8,7.576,M,-37.675,M,7.0,0135*6D
$PYRTM,2024,122.168298684537,13.277946094676
$GNHDT,281.771,T*21
$PYRTM,2024,122.168304414444,13.277951824583
$GNGGA,040221.50,3318.60357806,N,11857.02880520,W,2,12,0.8,7.615,M,-37.675,M,7.4,0135*65
$PYRTM,2024,122.168304414444,13.277951824583
$GNHDT,281.894,T*25
$PYRTM,2024,122.168310254271,13.277957664410
$GNGGA,040222.00,3318.60389815,N,11857.03016764,W,2,12,0.8,7.618,M,-37.675,M,7.0,0135*6F
$PYRTM,2024,122.168310254271,13.277957664410
$GNHDT,282.025,T*24
$PYRTM,2024,122.168315985278,13.277963395417
$GNGGA,040222.50,3318.60425885,N,11857.03152377,W,2,12,0.8,7.600,M,-37.675,M,7.4,0135*68
$PYRTM,2024,122.168315985278,13.277963395417
$GNHDT,281.950,T*2C
$PYRTM,2024,122.168321828299,13.277969238449
$GNGGA,040223.00,3318.60461302,N,11857.03288251,W,2,12,0.8,7.558,M,-37.675,M,4.0,0135*60
$PYRTM,2024,122.168321828299,13.277969238449
$GNHDT,281.692,T*2D
$PYRTM,2024,122.168327560556,13.277974970706
$GNGGA,040223.50,3318.60491628,N,11857.03426869,W,2,12,0.8,7.518,M,-37.675,M,4.4,0135*64
$PYRTM,2024,122.168327560556,13.277974970706
$GNHDT,281.721,T*24
$PYRTM,2024,122.168333405359,13.277980815509
$GNGGA,040224.00,3318.60517195,N,11857.03567842,W,2,12,0.8,7.454,M,-37.675,M,5.0,0135*69
$PYRTM,2024,122.168333405359,13.277980815509
$GNHDT,281.748,T*2B
$PYRTM,2024,122.168339134549,13.277986544688
$GNGGA,040224.50,3318.60538776,N,11857.03712780,W,2,12,0.8,7.380,M,-37.675,M,5.4,0135*61
$PYRTM,2024,122.168339134549,13.277986544688
$GNHDT,281.523,T*24
$PYRTM,2024,122.168344983380,13.277992393519
$GNGGA,040225.00,3318.60558534,N,11857.03859341,W,2,12,0.8,7.312,M,-37.675,M,6.0,0135*62
$PYRTM,2024,122.168344983380,13.277992393519
$GNHDT,281.603,T*25
$PYRTM,2024,122.168350707002,13.277998117141
$GNGGA,040225.50,3318.60579998,N,11857.04002680,W,2,12,0.8,7.339,M,-37.675,M,6.4,0135*6A
$PYRTM,2024,122.168350707002,13.277998117141
$GNHDT,281.774,T*24
$PYRTM,2024,122.168356552222,13.278003962373
$GNGGA,040226.00,3318.60603592,N,11857.04141232,W,2,12,0.8,7.472,M,-37.675,M,7.0,0135*62
$PYRTM,2024,122.168356552222,13.278003962373
$GNHDT,281.678,T*29
$PYRTM,2024,122.168362281400,13.278009691539
$GNGGA,040226.50,3318.60628392,N,11857.04275001,W,2,12,0.8,7.700,M,-37.675,M,7.4,0135*6C
$PYRTM,2024,122.168362281400,13.278009691539
$GNHDT,281.577,T*25
$PYRTM,2024,122.168368123866,13.278015534005
$GNGGA,040227.00,3318.60653502,N,11857.04405021,W,2,12,0.8,8.003,M,-37.675,M,7.0,0135*67
$PYRTM,2024,122.168368123866,13.278015534005
$GNHDT,281.426,T*20
$PYRTM,2024,122.168373862303,13.278021272442
$GNGGA,040227.50,3318.60679572,N,11857.04534181,W,2,12,0.8,8.291,M,-37.675,M,7.4,0135*68
$PYRTM,2024,122.168373862303,13.278021272442
$GNHDT,281.373,T*27
$PYRTM,2024,122.168379700243,13.278027110382
$GNGGA,040228.00,3318.60707475,N,11857.04667700,W,2,12,0.8,8.381,M,-37.675,M,7.0,0135*62
$PYRTM,2024,122.168379700243,13.278027110382
$GNHDT,281.220,T*20
$PYRTM,2024,122.168385435984,13.278032846123
$GNGGA,040228.50,3318.60736441,N,11857.04812781,W,2,12,0.8,8.081,M,-37.675,M,7.4,0135*60
$PYRTM,2024,122.168385435984,13.278032846123
$GNHDT,281.632,T*27
$PYRTM,2024,122.168391274444,13.278038684583
