$PYRTM,2024,123.750005705694,14.859653115845
$GNGGA,180000.50,3435.62243966,N,12103.90413922,W,2,11,0.9,6.061,M,-37.515,M,5.4,0135*69
$PYRTM,2024,123.750005705694,14.859653115845
$GNHDT,320.606,T*2A
$PYRTM,2024,123.750011544086,14.859658954225
$GNGGA,180001.00,3435.62295266,N,12103.90479368,W,2,11,0.9,6.094,M,-37.515,M,6.0,0135*68
$PYRTM,2024,123.750011544086,14.859658954225
$GNHDT,320.816,T*25
$PYRTM,2024,123.750017282581,14.859664692720
$GNGGA,180001.50,3435.62345297,N,12103.90546347,W,2,11,0.9,6.120,M,-37.515,M,6.4,0135*65
$PYRTM,2024,123.750017282581,14.859664692720
$GNHDT,320.575,T*2D
$PYRTM,2024,123.750023119653,14.859670529780
$GNGGA,180002.00,3435.62397151,N,12103.90613742,W,2,11,0.9,6.112,M,-37.515,M,7.0,0135*63
$PYRTM,2024,123.750023119653,14.859670529780
$GNHDT,320.444,T*2E
$PYRTM,2024,123.750028854815,14.859676264954
$GNGGA,180002.50,3435.62451798,N,12103.90681083,W,2,11,0.9,6.032,M,-37.515,M,7.4,0135*6E
$PYRTM,2024,123.750028854815,14.859676264954
$GNHDT,320.420,T*2C
$PYRTM,2024,123.750034694410,14.859682104549
$GNGGA,180003.00,3435.62509112,N,12103.90748462,W,2,11,0.9,5.925,M,-37.515,M,7.0,0135*65
$PYRTM,2024,123.750034694410,14.859682104549
$GNHDT,320.100,T*2B
$PYRTM,2024,123.750040427604,14.859687837743
$GNGGA,180003.50,3435.62568775,N,12103.90811892,W,2,11,0.9,5.810,M,-37.515,M,7.4,0135*63
$PYRTM,2024,123.750040427604,14.859687837743
$GNHDT,320.114,T*2E
$PYRTM,2024,123.750046273171,14.859693683310
$GNGGA,180004.00,3435.62629930,N,12103.90870708,W,2,11,0.9,5.751,M,-37.515,M,7.0,0135*6D
$PYRTM,2024,123.750046273171,14.859693683310
$GNHDT,320.278,T*27
$PYRTM,2024,123.750052003611,14.859699413750
$GNGGA,180004.50,3435.62692704,N,12103.90923731,W,2,11,0.9,5.791,M,-37.515,M,7.4,0135*64
$PYRTM,2024,123.750052003611,14.859699413750
$GNHDT,320.716,T*2A
$PYRTM,2024,123.750057843241,14.859705253380
$GNGGA,180005.00,3435.62756057,N,12103.90975707,W,2,11,0.9,5.933,M,-37.515,M,4.0,0135*6F
$PYRTM,2024,123.750057843241,14.859705253380
$GNHDT,320.749,T*20
$PYRTM,2024,123.750063574630,14.859710984769
$GNGGA,180005.50,3435.62818934,N,12103.91028482,W,2,11,0.9,6.142,M,-37.515,M,4.4,0135*64
$PYRTM,2024,123.750063574630,14.859710984769
$GNHDT,320.782,T*27
$PYRTM,2024,123.750069420023,14.859716830162
$GNGGA,180006.00,3435.62878754,N,12103.91083264,W,2,11,0.9,6.393,M,-37.515,M,5.0,0135*68
$PYRTM,2024,123.750069420023,14.859716830162
$GNHDT,321.029,T*20
$PYRTM,2024,123.750075151574,14.859722561713
$GNGGA,180006.50,3435.62935810,N,12103.91142805,W,2,11,0.9,6.583,M,-37.515,M,5.4,0135*68
$PYRTM,2024,123.750075151574,14.859722561713
$GNHDT,321.076,T*2A
$PYRTM,2024,123.750080993877,14.859728404028
$GNGGA,180007.00,3435.62991725,N,12103.91211771,W,2,11,0.9,6.566,M,-37.515,M,6.0,0135*6E
$PYRTM,2024,123.750080993877,14.859728404028
$GNHDT,321.241,T*2C
$PYRTM,2024,123.750086728218,14.859734138356
$GNGGA,180007.50,3435.63049529,N,12103.91291267,W,2,11,0.9,6.267,M,-37.515,M,6.4,0135*60
$PYRTM,2024,123.750086728218,14.859734138356
$GNHDT,321.120,T*28
$PYRTM,2024,123.750092568461,14.859739978600
$GNGGA,180008.00,3435.63109136,N,12103.91376824,W,2,11,0.9,5.742,M,-37.515,M,7.0,0135*64
$PYRTM,2024,123.750092568461,14.859739978600
$GNHDT,320.938,T*28
$PYRTM,2024,123.750098299132,14.859745709282
$GNGGA,180008.50,3435.63168648,N,12103.91457907,W,2,11,0.9,5.207,M,-37.515,M,7.4,0135*6C
$PYRTM,2024,123.750098299132,14.859745709282
$GNHDT,320.923,T*22
$PYRTM,2024,123.750104140544,14.859751550683
$GNGGA,180009.00,3435.63224420,N,12103.91524234,W,2,11,0.9,4.956,M,-37.515,M,7.0,0135*6B
$PYRTM,2024,123.750104140544,14.859751550683
$GNHDT,320.759,T*21
$PYRTM,2024,123.750109872269,14.859757282407
$GNGGA,180009.50,3435.63276057,N,12103.91570872,W,2,11,0.9,5.143,M,-37.515,M,7.4,0135*6D
$PYRTM,2024,123.750109872269,14.859757282407
$GNHDT,321.262,T*2D
$PYRTM,2024,123.750115708495,14.859763118634
$GNGGA,180010.00,3435.63326977,N,12103.91609368,W,2,11,0.9,5.650,M,-37.515,M,7.0,0135*63
$PYRTM,2024,123.750115708495,14.859763118634
$GNHDT,321.550,T*2B
$PYRTM,2024,123.750121448507,14.859768858646
$GNGGA,180010.50,3435.63380103,N,12103.91648659,W,2,11,0.9,6.256,M,-37.515,M,7.4,0135*66
$PYRTM,2024,123.750121448507,14.859768858646
$GNHDT,321.533,T*2E
$PYRTM,2024,123.750127287326,14.859774697465
$GNGGA,180011.00,3435.63439551,N,12103.91696653,W,2,11,0.9,6.678,M,-37.515,M,4.0,0135*62
$PYRTM,2024,123.750127287326,14.859774697465
$GNHDT,321.675,T*2F
$PYRTM,2024,123.750133021910,14.859780432049
$GNGGA,180011.50,3435.63501671,N,12103.91756390,W,2,11,0.9,6.750,M,-37.515,M,4.4,0135*64
$PYRTM,2024,123.750133021910,14.859780432049
$GNHDT,321.535,T*28
$PYRTM,2024,123.750138864352,14.859786274491
$GNGGA,180012.00,3435.63563006,N,12103.91821913,W,2,11,0.9,6.532,M,-37.515,M,5.0,0135*6D
$PYRTM,2024,123.750138864352,14.859786274491
$GNHDT,321.426,T*2B
$PYRTM,2024,123.750144603588,14.859792013727
$GNGGA,180012.50,3435.63623646,N,12103.91891007,W,2,11,0.9,6.100,M,-37.515,M,5.4,0135*6B
$PYRTM,2024,123.750144603588,14.859792013727
$GNHDT,322.027,T*2D
$PYRTM,2024,123.750150441192,14.859797851331
$GNGGA,180013.00,3435.63682317,N,12103.91958593,W,2,11,0.9,5.635,M,-37.515,M,6.0,0135*6C
$PYRTM,2024,123.750150441192,14.859797851331
$GNHDT,322.251,T*2E
$PYRTM,2024,123.750156169641,14.859803579780
$GNGGA,180013.50,3435.63736707,N,12103.92024454,W,2,11,0.9,5.330,M,-37.515,M,6.4,0135*6D
$PYRTM,2024,123.750156169641,14.859803579780
$GNHDT,321.522,T*2E
$PYRTM,2024,123.750162008715,14.859809419190
$GNGGA,180014.00,3435.63784040,N,12103.92084402,W,2,11,0.9,5.372,M,-37.515,M,7.0,0135*68
$PYRTM,2024,123.750162008715,14.859809419190
$GNHDT,321.347,T*2B
$PYRTM,2024,123.750167743299,14.859815153438
$GNGGA,180014.50,3435.63827201,N,12103.92140664,W,2,11,0.9,5.687,M,-37.515,M,7.4,0135*6C
$PYRTM,2024,123.750167743299,14.859815153438
$GNHDT,321.489,T*2E
$PYRTM,2024,123.750173586088,14.859820996227
$GNGGA,180015.00,3435.63870048,N,12103.92192196,W,2,11,0.9,6.188,M,-37.515,M,7.0,0135*6F
$PYRTM,2024,123.750173586088,14.859820996227
$GNHDT,320.976,T*22
$PYRTM,2024,123.750179317593,14.859826727743
$GNGGA,180015.50,3435.63921849,N,12103.92243516,W,2,11,0.9,6.575,M,-37.515,M,7.4,0135*67
$PYRTM,2024,123.750179317593,14.859826727743
$GNHDT,321.068,T*25
$PYRTM,2024,123.750185158090,14.859832568229
$GNGGA,180016.00,3435.63987603,N,12103.92299168,W,2,11,0.9,6.630,M,-37.515,M,7.0,0135*61
$PYRTM,2024,123.750185158090,14.859832568229
$GNHDT,320.871,T*24
$PYRTM,2024,123.750190890752,14.859838300903
$GNGGA,180016.50,3435.64061748,N,12103.92361691,W,2,11,0.9,6.310,M,-37.515,M,7.4,0135*68
$PYRTM,2024,123.750190890752,14.859838300903
$GNHDT,320.835,T*24
$PYRTM,2024,123.750196731331,14.859844141470
$GNGGA,180017.00,3435.64136818,N,12103.92428279,W,2,11,0.9,5.820,M,-37.515,M,4.0,0135*61
$PYRTM,2024,123.750196731331,14.859844141470
$GNHDT,320.784,T*21
$PYRTM,2024,123.750202468958,14.859849879097
$GNGGA,180017.50,3435.64203903,N,12103.92496248,W,2,11,0.9,5.444,M,-37.515,M,4.4,0135*67
$PYRTM,2024,123.750202468958,14.859849879097
$GNHDT,320.902,T*21
$PYRTM,2024,123.750208304109,14.859855714248
$GNGGA,180018.00,3435.64257699,N,12103.92561097,W,2,11,0.9,5.485,M,-37.515,M,5.0,0135*61
$PYRTM,2024,123.750208304109,14.859855714248
$GNHDT,320.449,T*23
$PYRTM,2024,123.750214044884,14.859861455023
$GNGGA,180018.50,3435.64301585,N,12103.92616953,W,2,11,0.9,5.954,M,-37.515,M,5.4,0135*6F
$PYRTM,2024,123.750214044884,14.859861455023
$GNHDT,320.818,T*2B
$PYRTM,2024,123.750219883021,14.859867293160
$GNGGA,180019.00,3435.64340250,N,12103.92664229,W,2,11,0.9,6.657,M,-37.515,M,6.0,0135*6A
$PYRTM,2024,123.750219883021,14.859867293160
$GNHDT,321.397,T*26
$PYRTM,2024,123.750225614988,14.859873025127
$GNGGA,180019.50,3435.64381259,N,12103.92706075,W,2,11,0.9,7.316,M,-37.515,M,6.4,0135*60
$PYRTM,2024,123.750225614988,14.859873025127
$GNHDT,322.460,T*2A
$PYRTM,2024,123.750231453519,14.859878863657
$GNGGA,180020.00,3435.64432328,N,12103.92748514,W,2,11,0.9,7.669,M,-37.515,M,7.0,0135*67
$PYRTM,2024,123.750231453519,14.859878863657
$GNHDT,322.995,T*2D
$PYRTM,2024,123.750237188704,14.859884598854
$GNGGA,180020.50,3435.64496274,N,12103.92797787,W,2,11,0.9,7.501,M,-37.515,M,7.4,0135*67
$PYRTM,2024,123.750237188704,14.859884598854
$GNHDT,322.896,T*2F
$PYRTM,2024,123.750243030486,14.859890440625
$GNGGA,180021.00,3435.64570045,N,12103.92853822,W,2,11,0.9,6.738,M,-37.515,M,7.0,0135*60
$PYRTM,2024,123.750243030486,14.859890440625
$GNHDT,322.879,T*2E
$PYRTM,2024,123.750248766713,14.859896176852
$GNGGA,180021.50,3435.64641759,N,12103.92916054,W,2,11,0.9,5.724,M,-37.515,M,7.4,0135*6D
$PYRTM,2024,123.750248766713,14.859896176852
$GNHDT,322.502,T*2F
$PYRTM,2024,123.750254600741,14.859902010880
$GNGGA,180022.00,3435.64702343,N,12103.92985019,W,2,11,0.9,4.816,M,-37.515,M,7.0,0135*6A
$PYRTM,2024,123.750254600741,14.859902010880
$GNHDT,322.173,T*2D
$PYRTM,2024,123.750260341725,14.859907751863
$GNGGA,180022.50,3435.64747916,N,12103.93053991,W,2,11,0.9,4.417,M,-37.515,M,7.4,0135*67
$PYRTM,2024,123.750260341725,14.859907751863
$GNHDT,321.970,T*25
$PYRTM,2024,123.750266177998,14.859913588137
$GNGGA,180023.00,3435.64782690,N,12103.93118119,W,2,11,0.9,4.633,M,-37.515,M,4.0,0135*6E
$PYRTM,2024,123.750266177998,14.859913588137
$GNHDT,321.551,T*2A
$PYRTM,2024,123.750271908600,14.859919318738
$GNGGA,180023.50,3435.64816901,N,12103.93171819,W,2,11,0.9,5.223,M,-37.515,M,4.4,0135*68
$PYRTM,2024,123.750271908600,14.859919318738
$GNHDT,321.698,T*2C
$PYRTM,2024,123.750277754167,14.859925164306
$GNGGA,180024.00,3435.64857159,N,12103.93218530,W,2,11,0.9,5.931,M,-37.515,M,5.0,0135*6D
$PYRTM,2024,123.750277754167,14.859925164306
$GNHDT,321.408,T*27
$PYRTM,2024,123.750283486146,14.859930896285
$GNGGA,180024.50,3435.64907608,N,12103.93262822,W,2,11,0.9,6.497,M,-37.515,M,5.4,0135*6A
$PYRTM,2024,123.750283486146,14.859930896285
$GNHDT,321.888,T*23
$PYRTM,2024,123.750289322998,14.859936733137
$GNGGA,180025.00,3435.64966916,N,12103.93310986,W,2,11,0.9,6.720,M,-37.515,M,6.0,0135*6A
$PYRTM,2024,123.750289322998,14.859936733137
$GNHDT,322.213,T*28
$PYRTM,2024,123.750295059375,14.859942469525
$GNGGA,180025.50,3435.65030462,N,12103.93362886,W,2,11,0.9,6.548,M,-37.515,M,6.4,0135*66
$PYRTM,2024,123.750295059375,14.859942469525
$GNHDT,322.010,T*29
$PYRTM,2024,123.750300897407,14.859948307546
$GNGGA,180026.00,3435.65091787,N,12103.93417532,W,2,11,0.9,6.154,M,-37.515,M,7.0,0135*68
$PYRTM,2024,123.750300897407,14.859948307546
$GNHDT,322.260,T*2C
$PYRTM,2024,123.750306631007,14.859954041146
$GNGGA,180026.50,3435.65146853,N,12103.93474448,W,2,11,0.9,5.739,M,-37.515,M,7.4,0135*63
$PYRTM,2024,123.750306631007,14.859954041146
$GNHDT,322.558,T*20
$PYRTM,2024,123.750312481366,14.859959891505
$GNGGA,180027.00,3435.65194630,N,12103.93531978,W,2,11,0.9,5.458,M,-37.515,M,7.0,0135*6D
$PYRTM,2024,123.750312481366,14.859959891505
$GNHDT,322.801,T*21
$PYRTM,2024,123.750318204861,14.859965615012
$GNGGA,180027.50,3435.65239408,N,12103.93590054,W,2,11,0.9,5.428,M,-37.515,M,7.4,0135*6A
$PYRTM,2024,123.750318204861,14.859965615012
$GNHDT,322.729,T*24
$PYRTM,2024,123.750324046736,14.859971456875
$GNGGA,180028.00,3435.65285055,N,12103.93646755,W,2,11,0.9,5.569,M,-37.515,M,7.0,0135*65
$PYRTM,2024,123.750324046736,14.859971456875
$GNHDT,322.599,T*2D
$PYRTM,2024,123.750329779167,14.859977189317
$GNGGA,180028.50,3435.65333580,N,12103.93703309,W,2,11,0.9,5.807,M,-37.515,M,7.4,0135*6D
$PYRTM,2024,123.750329779167,14.859977189317
$GNHDT,322.071,T*2E
$PYRTM,2024,123.750335621563,14.859983031701
$GNGGA,180029.00,3435.65385505,N,12103.93761784,W,2,11,0.9,6.061,M,-37.515,M,4.0,0135*60
$PYRTM,2024,123.750335621563,14.859983031701
$GNHDT,321.692,T*26
$PYRTM,2024,123.750341352708,14.859988762847
$GNGGA,180029.50,3435.65441665,N,12103.93823375,W,2,11,0.9,6.230,M,-37.515,M,4.4,0135*6E
$PYRTM,2024,123.750341352708,14.859988762847
$GNHDT,321.341,T*2D
$PYRTM,2024,123.750347202616,14.859994612755
$GNGGA,180030.00,3435.65500540,N,12103.93886573,W,2,11,0.9,6.321,M,-37.515,M,5.0,0135*68
$PYRTM,2024,123.750347202616,14.859994612755
$GNHDT,320.993,T*29
$PYRTM,2024,123.750352927998,14.860000338148
$GNGGA,180030.50,3435.65558165,N,12103.93946202,W,2,11,0.9,6.430,M,-37.515,M,5.4,0135*6C
$PYRTM,2024,123.750352927998,14.860000338148
$GNHDT,320.697,T*22
$PYRTM,2024,123.750358766053,14.860006176192
$GNGGA,180031.00,3435.65610667,N,12103.94001011,W,2,11,0.9,6.656,M,-37.515,M,6.0,0135*6A
$PYRTM,2024,123.750358766053,14.860006176192
$GNHDT,320.955,T*23
$PYRTM,2024,123.750364503762,14.860011913900
$GNGGA,180031.50,3435.65659111,N,12103.94051328,W,2,11,0.9,6.952,M,-37.515,M,6.4,0135*67
$PYRTM,2024,123.750364503762,14.860011913900
$GNHDT,321.069,T*24
$PYRTM,2024,123.750370347280,14.860017757419
$GNGGA,180032.00,3435.65708679,N,12103.94099802,W,2,11,0.9,7.141,M,-37.515,M,7.0,0135*64
$PYRTM,2024,123.750370347280,14.860017757419
$GNHDT,321.209,T*20
$PYRTM,2024,123.750376080023,14.860023490162
$GNGGA,180032.50,3435.65765080,N,12103.94152690,W,2,11,0.9,6.982,M,-37.515,M,7.4,0135*6B
$PYRTM,2024,123.750376080023,14.860023490162
$GNHDT,321.309,T*21
$PYRTM,2024,123.750381918472,14.860029328611
$GNGGA,180033.00,3435.65829399,N,12103.94214738,W,2,11,0.9,6.349,M,-37.515,M,7.0,0135*68
$PYRTM,2024,123.750381918472,14.860029328611
$GNHDT,321.409,T*26
$PYRTM,2024,123.750387654340,14.860035064479
$GNGGA,180033.50,3435.65895076,N,12103.94287081,W,2,11,0.9,5.520,M,-37.515,M,7.4,0135*69
$PYRTM,2024,123.750387654340,14.860035064479
$GNHDT,321.677,T*2D
$PYRTM,2024,123.750393494236,14.860040904375
$GNGGA,180034.00,3435.65953378,N,12103.94358502,W,2,11,0.9,4.916,M,-37.515,M,7.0,0135*6C
$PYRTM,2024,123.750393494236,14.860040904375
$GNHDT,321.699,T*2D
$PYRTM,2024,123.750399226331,14.860046636481
$GNGGA,180034.50,3435.66000866,N,12103.94417901,W,2,11,0.9,4.896,M,-37.515,M,7.4,0135*6F
$PYRTM,2024,123.750399226331,14.860046636481
$GNHDT,321.665,T*2E
$PYRTM,2024,123.750405070764,14.860052480903
$GNGGA,180035.00,3435.66039741,N,12103.94455100,W,2,11,0.9,5.389,M,-37.515,M,4.0,0135*67
$PYRTM,2024,123.750405070764,14.860052480903
$GNHDT,321.900,T*22
$PYRTM,2024,123.750410806979,14.860058217130
$GNGGA,180035.50,3435.66079037,N,12103.94485322,W,2,11,0.9,6.221,M,-37.515,M,4.4,0135*6B
$PYRTM,2024,123.750410806979,14.860058217130
$GNHDT,321.783,T*27
$PYRTM,2024,123.750416644572,14.860064054711
$GNGGA,180036.00,3435.66126341,N,12103.94515457,W,2,11,0.9,7.068,M,-37.515,M,5.0,0135*62
$PYRTM,2024,123.750416644572,14.860064054711
$GNHDT,322.179,T*27
$PYRTM,2024,123.750422374074,14.860069784213
$GNGGA,180036.50,3435.66181615,N,12103.94551230,W,2,11,0.9,7.636,M,-37.515,M,5.4,0135*60
$PYRTM,2024,123.750422374074,14.860069784213
$GNHDT,322.539,T*27
$PYRTM,2024,123.750428218113,14.860075628252
$GNGGA,180037.00,3435.66240586,N,12103.94600335,W,2,11,0.9,7.721,M,-37.515,M,6.0,0135*60
$PYRTM,2024,123.750428218113,14.860075628252
$GNHDT,322.746,T*2D
$PYRTM,2024,123.750433950880,14.860081361019
$GNGGA,180037.50,3435.66299586,N,12103.94658009,W,2,11,0.9,7.363,M,-37.515,M,6.4,0135*66
$PYRTM,2024,123.750433950880,14.860081361019
$GNHDT,322.666,T*2E
$PYRTM,2024,123.750439788252,14.860087198391
$GNGGA,180038.00,3435.66351480,N,12103.94720207,W,2,11,0.9,6.754,M,-37.515,M,7.0,0135*68
$PYRTM,2024,123.750439788252,14.860087198391
$GNHDT,322.784,T*23
$PYRTM,2024,123.750445523206,14.860092933345
$GNGGA,180038.50,3435.66395581,N,12103.94778802,W,2,11,0.9,6.141,M,-37.515,M,7.4,0135*61
$PYRTM,2024,123.750445523206,14.860092933345
$GNHDT,323.106,T*2E
$PYRTM,2024,123.750451359144,14.860098769282
$GNGGA,180039.00,3435.66434086,N,12103.94833479,W,2,11,0.9,5.711,M,-37.515,M,7.0,0135*6F
$PYRTM,2024,123.750451359144,14.860098769282
$GNHDT,323.233,T*2B
$PYRTM,2024,123.750457102593,14.860104512743
$GNGGA,180039.50,3435.66472047,N,12103.94880887,W,2,11,0.9,5.495,M,-37.515,M,7.4,0135*6B
$PYRTM,2024,123.750457102593,14.860104512743
$GNHDT,323.591,T*24
$PYRTM,2024,123.750462941748,14.860110351887
$GNGGA,180040.00,3435.66514855,N,12103.94924741,W,2,11,0.9,5.427,M,-37.515,M,7.0,0135*6D
$PYRTM,2024,123.750462941748,14.860110351887
$GNHDT,323.818,T*28
$PYRTM,2024,123.750468670266,14.860116080417
$GNGGA,180040.50,3435.66565275,N,12103.94970221,W,2,11,0.9,5.424,M,-37.515,M,7.4,0135*63
$PYRTM,2024,123.750468670266,14.860116080417
$GNHDT,323.744,T*2E
$PYRTM,2024,123.750474511644,14.860121921782
$GNGGA,180041.00,3435.66622534,N,12103.95018490,W,2,11,0.9,5.404,M,-37.515,M,4.0,0135*6A
$PYRTM,2024,123.750474511644,14.860121921782
$GNHDT,324.072,T*2B
$PYRTM,2024,123.750480244167,14.860127654306
$GNGGA,180041.50,3435.66680131,N,12103.95067431,W,2,11,0.9,5.448,M,-37.515,M,4.4,0135*69
$PYRTM,2024,123.750480244167,14.860127654306
$GNHDT,323.508,T*24
$PYRTM,2024,123.750486083785,14.860133493924
$GNGGA,180042.00,3435.66735025,N,12103.95115942,W,2,11,0.9,5.575,M,-37.515,M,5.0,0135*63
$PYRTM,2024,123.750486083785,14.860133493924
$GNHDT,323.833,T*21
$PYRTM,2024,123.750491816262,14.860139226400
$GNGGA,180042.50,3435.66786265,N,12103.95166526,W,2,11,0.9,5.768,M,-37.515,M,5.4,0135*68
$PYRTM,2024,123.750491816262,14.860139226400
$GNHDT,323.955,T*20
$PYRTM,2024,123.750497661343,14.860145071481
$GNGGA,180043.00,3435.66835916,N,12103.95222935,W,2,11,0.9,5.962,M,-37.515,M,6.0,0135*6A
$PYRTM,2024,123.750497661343,14.860145071481
$GNHDT,323.978,T*2F
$PYRTM,2024,123.750503394641,14.860150804780
$GNGGA,180043.50,3435.66885826,N,12103.95285711,W,2,11,0.9,6.062,M,-37.515,M,6.4,0135*6D
$PYRTM,2024,123.750503394641,14.860150804780
$GNHDT,324.115,T*2B
$PYRTM,2024,123.750509232581,14.860156642720
$GNGGA,180044.00,3435.66935219,N,12103.95351719,W,2,11,0.9,6.079,M,-37.515,M,7.0,0135*6C
$PYRTM,2024,123.750509232581,14.860156642720
$GNHDT,324.345,T*2C
$PYRTM,2024,123.750514968252,14.860162378391
$GNGGA,180044.50,3435.66984245,N,12103.95412885,W,2,11,0.9,6.084,M,-37.515,M,7.4,0135*66
$PYRTM,2024,123.750514968252,14.860162378391
$GNHDT,324.176,T*2E
$PYRTM,2024,123.750520807674,14.860168217812
$GNGGA,180045.00,3435.67036110,N,12103.95464891,W,2,11,0.9,6.130,M,-37.515,M,7.0,0135*6E
$PYRTM,2024,123.750520807674,14.860168217812
$GNHDT,324.181,T*26
$PYRTM,2024,123.750526541134,14.860173951273
$GNGGA,180045.50,3435.67091970,N,12103.95507362,W,2,11,0.9,6.194,M,-37.515,M,7.4,0135*61
$PYRTM,2024,123.750526541134,14.860173951273
$GNHDT,324.223,T*2D
$PYRTM,2024,123.750532382685,14.860179792824
$GNGGA,180046.00,3435.67150834,N,12103.95541945,W,2,11,0.9,6.305,M,-37.515,M,7.0,0135*69
$PYRTM,2024,123.750532382685,14.860179792824
$GNHDT,324.438,T*21
$PYRTM,2024,123.750538119306,14.860185529444
$GNGGA,180046.50,3435.67206769,N,12103.95574775,W,2,11,0.9,6.501,M,-37.515,M,7.4,0135*66
$PYRTM,2024,123.750538119306,14.860185529444
$GNHDT,324.380,T*25
$PYRTM,2024,123.750543954144,14.860191364282
$GNGGA,180047.00,3435.67258787,N,12103.95611200,W,2,11,0.9,6.718,M,-37.515,M,4.0,0135*63
$PYRTM,2024,123.750543954144,14.860191364282
$GNHDT,324.258,T*21
$PYRTM,2024,123.750549686632,14.860197096771
$GNGGA,180047.50,3435.67309035,N,12103.95658091,W,2,11,0.9,6.834,M,-37.515,M,4.4,0135*6F
$PYRTM,2024,123.750549686632,14.860197096771
$GNHDT,324.084,T*22
$PYRTM,2024,123.750555526065,14.860202936204
$GNGGA,180048.00,3435.67361378,N,12103.95718627,W,2,11,0.9,6.705,M,-37.515,M,5.0,0135*67
$PYRTM,2024,123.750555526065,14.860202936204
$GNHDT,323.927,T*25
$PYRTM,2024,123.750561270613,14.860208680752
$GNGGA,180048.50,3435.67417713,N,12103.95786891,W,2,11,0.9,6.323,M,-37.515,M,5.4,0135*6D
$PYRTM,2024,123.750561270613,14.860208680752
$GNHDT,323.982,T*2A
$PYRTM,2024,123.750567105718,14.860214515856
$GNGGA,180049.00,3435.67478542,N,12103.95855024,W,2,11,0.9,5.828,M,-37.515,M,6.0,0135*65
$PYRTM,2024,123.750567105718,14.860214515856
$GNHDT,324.264,T*2E
$PYRTM,2024,123.750572838461,14.860220248611
$GNGGA,180049.50,3435.67539854,N,12103.95919062,W,2,11,0.9,5.384,M,-37.515,M,6.4,0135*6C
$PYRTM,2024,123.750572838461,14.860220248611
$GNHDT,324.705,T*2C
$PYRTM,2024,123.750578681389,14.860226091528
$GNGGA,180050.00,3435.67599829,N,12103.95974494,W,2,11,0.9,5.171,M,-37.515,M,7.0,0135*6A
$PYRTM,2024,123.750578681389,14.860226091528
$GNHDT,324.507,T*2C
$PYRTM,2024,123.750584411007,14.860231821134
$GNGGA,180050.50,3435.67654711,N,12103.96019137,W,2,11,0.9,5.324,M,-37.515,M,7.4,0135*62
$PYRTM,2024,123.750584411007,14.860231821134
$GNHDT,324.183,T*24
$PYRTM,2024,123.750590257222,14.860237667361
$GNGGA,180051.00,3435.67705455,N,12103.96057076,W,2,11,0.9,5.830,M,-37.515,M,7.0,0135*64
$PYRTM,2024,123.750590257222,14.860237667361
$GNHDT,323.721,T*2D
$PYRTM,2024,123.750595989120,14.860243399259
$GNGGA,180051.50,3435.67756864,N,12103.96089468,W,2,11,0.9,6.442,M,-37.515,M,7.4,0135*6F
$PYRTM,2024,123.750595989120,14.860243399259
$GNHDT,323.365,T*29
$PYRTM,2024,123.750601828553,14.860249238692
$GNGGA,180052.00,3435.67811040,N,12103.96124561,W,2,11,0.9,7.002,M,-37.515,M,7.0,0135*60
$PYRTM,2024,123.750601828553,14.860249238692
$GNHDT,323.651,T*2B
$PYRTM,2024,123.750607559606,14.860254969734
$GNGGA,180052.50,3435.67870446,N,12103.96170825,W,2,11,0.9,7.232,M,-37.515,M,7.4,0135*69
$PYRTM,2024,123.750607559606,14.860254969734
$GNHDT,323.818,T*28
$PYRTM,2024,123.750613400428,14.860260810567
$GNGGA,180053.00,3435.67934516,N,12103.96227983,W,2,11,0.9,7.053,M,-37.515,M,4.0,0135*66
$PYRTM,2024,123.750613400428,14.860260810567
$GNHDT,324.305,T*28
$PYRTM,2024,123.750619134525,14.860266544664
$GNGGA,180053.50,3435.67997839,N,12103.96293327,W,2,11,0.9,6.540,M,-37.515,M,4.4,0135*63
$PYRTM,2024,123.750619134525,14.860266544664
$GNHDT,324.150,T*2A
$PYRTM,2024,123.750624982523,14.860272392662
$GNGGA,180054.00,3435.68053029,N,12103.96360370,W,2,11,0.9,6.012,M,-37.515,M,5.0,0135*6E
$PYRTM,2024,123.750624982523,14.860272392662
$GNHDT,324.146,T*2D
$PYRTM,2024,123.750630706042,14.860278116181
$GNGGA,180054.50,3435.68097175,N,12103.96420084,W,2,11,0.9,5.703,M,-37.515,M,5.4,0135*60
$PYRTM,2024,123.750630706042,14.860278116181
$GNHDT,323.902,T*22
$PYRTM,2024,123.750636551007,14.860283961146
$GNGGA,180055.00,3435.68132766,N,12103.96471728,W,2,11,0.9,5.692,M,-37.515,M,6.0,0135*65
$PYRTM,2024,123.750636551007,14.860283961146
$GNHDT,324.028,T*24
$PYRTM,2024,123.750642285648,14.860289695787
$GNGGA,180055.50,3435.68168123,N,12103.96517270,W,2,11,0.9,5.925,M,-37.515,M,6.4,0135*66
$PYRTM,2024,123.750642285648,14.860289695787
$GNHDT,324.306,T*2B
$PYRTM,2024,123.750648125220,14.860295535359
$GNGGA,180056.00,3435.68211588,N,12103.96561260,W,2,11,0.9,6.150,M,-37.515,M,7.0,0135*64
$PYRTM,2024,123.750648125220,14.860295535359
$GNHDT,324.532,T*2A
$PYRTM,2024,123.750653861169,14.860301271308
$GNGGA,180056.50,3435.68272367,N,12103.96609712,W,2,11,0.9,6.069,M,-37.515,M,7.4,0135*61
$PYRTM,2024,123.750653861169,14.860301271308
$GNHDT,323.880,T*29
$PYRTM,2024,123.750659702593,14.860307112731
$GNGGA,180057.00,3435.68342719,N,12103.96660756,W,2,11,0.9,5.738,M,-37.515,M,7.0,0135*61
$PYRTM,2024,123.750659702593,14.860307112731
$GNHDT,323.357,T*28
$PYRTM,2024,123.750665431169,14.860312841308
$GNGGA,180057.50,3435.68412535,N,12103.96710683,W,2,11,0.9,5.361,M,-37.515,M,7.4,0135*69
$PYRTM,2024,123.750665431169,14.860312841308
$GNHDT,323.375,T*28
$PYRTM,2024,123.750671269734,14.860318679873
$GNGGA,180058.00,3435.68472209,N,12103.96758125,W,2,11,0.9,5.223,M,-37.515,M,7.0,0135*69
$PYRTM,2024,123.750671269734,14.860318679873
$GNHDT,323.456,T*2E
$PYRTM,2024,123.750677005752,14.860324415891
$GNGGA,180058.50,3435.68519153,N,12103.96803425,W,2,11,0.9,5.428,M,-37.515,M,7.4,0135*61
$PYRTM,2024,123.750677005752,14.860324415891
$GNHDT,323.425,T*2A
$PYRTM,2024,123.750682843519,14.860330253669
$GNGGA,180059.00,3435.68558090,N,12103.96849697,W,2,11,0.9,5.910,M,-37.515,M,4.0,0135*6A
$PYRTM,2024,123.750682843519,14.860330253669
$GNHDT,323.554,T*2D
$PYRTM,2024,123.750688578738,14.860335988877
$GNGGA,180059.50,3435.68595449,N,12103.96900673,W,2,11,0.9,6.403,M,-37.515,M,4.4,0135*60
$PYRTM,2024,123.750688578738,14.860335988877
$GNHDT,323.804,T*25
$PYRTM,2024,123.750694421204,14.860341831343
$GNGGA,180100.00,3435.68639290,N,12103.96959017,W,2,11,0.9,6.664,M,-37.515,M,5.0,0135*61
$PYRTM,2024,123.750694421204,14.860341831343
$GNHDT,323.839,T*2B
$PYRTM,2024,123.750700156655,14.860347566794
$GNGGA,180100.50,3435.68691551,N,12103.97020845,W,2,11,0.9,6.595,M,-37.515,M,5.4,0135*6C
$PYRTM,2024,123.750700156655,14.860347566794
$GNHDT,323.515,T*28
$PYRTM,2024,123.750705998623,14.860353408762
$GNGGA,180101.00,3435.68747703,N,12103.97078709,W,2,11,0.9,6.385,M,-37.515,M,6.0,0135*6D
$PYRTM,2024,123.750705998623,14.860353408762
$GNHDT,323.307,T*2D
$PYRTM,2024,123.750711723588,14.860359133727
$GNGGA,180101.50,3435.68801963,N,12103.97128661,W,2,11,0.9,6.177,M,-37.515,M,6.4,0135*6D
$PYRTM,2024,123.750711723588,14.860359133727
$GNHDT,323.137,T*2C
$PYRTM,2024,123.750717564016,14.860364974155
$GNGGA,180102.00,3435.68853064,N,12103.97168087,W,2,11,0.9,6.056,M,-37.515,M,7.0,0135*6F
$PYRTM,2024,123.750717564016,14.860364974155
$GNHDT,322.961,T*26
$PYRTM,2024,123.750723301076,14.860370711215
$GNGGA,180102.50,3435.68903494,N,12103.97200704,W,2,11,0.9,6.038,M,-37.515,M,7.4,0135*68
$PYRTM,2024,123.750723301076,14.860370711215
$GNHDT,322.937,T*25
$PYRTM,2024,123.750729143449,14.860376553588
$GNGGA,180103.00,3435.68957759,N,12103.97231730,W,2,11,0.9,6.021,M,-37.515,M,7.0,0135*66
$PYRTM,2024,123.750729143449,14.860376553588
$GNHDT,323.009,T*20
$PYRTM,2024,123.750734878275,14.860382288426
$GNGGA,180103.50,3435.69017087,N,12103.97270823,W,2,11,0.9,5.901,M,-37.515,M,7.4,0135*6F
$PYRTM,2024,123.750734878275,14.860382288426
$GNHDT,323.156,T*2B
$PYRTM,2024,123.750740713310,14.860388123449
$GNGGA,180104.00,3435.69079384,N,12103.97322172,W,2,11,0.9,5.681,M,-37.515,M,7.0,0135*6D
$PYRTM,2024,123.750740713310,14.860388123449
$GNHDT,323.086,T*27
$PYRTM,2024,123.750746451435,14.860393861574
$GNGGA,180104.50,3435.69140667,N,12103.97384157,W,2,11,0.9,5.470,M,-37.515,M,7.4,0135*68
$PYRTM,2024,123.750746451435,14.860393861574
$GNHDT,322.829,T*2B
$PYRTM,2024,123.750752288403,14.860399698542
$GNGGA,180105.00,3435.69192698,N,12103.97450451,W,2,11,0.9,5.442,M,-37.515,M,4.0,0135*68
$PYRTM,2024,123.750752288403,14.860399698542
$GNHDT,322.647,T*2D
$PYRTM,2024,123.750758021308,14.860405431447
$GNGGA,180105.50,3435.69234481,N,12103.97512544,W,2,11,0.9,5.660,M,-37.515,M,4.4,0135*6C
$PYRTM,2024,123.750758021308,14.860405431447
$GNHDT,322.511,T*2D
$PYRTM,2024,123.750763864653,14.860411274792
$GNGGA,180106.00,3435.69270557,N,12103.97568038,W,2,11,0.9,6.081,M,-37.515,M,5.0,0135*6C
$PYRTM,2024,123.750763864653,14.860411274792
$GNHDT,322.555,T*2D
$PYRTM,2024,123.750769597685,14.860417007824
$GNGGA,180106.50,3435.69308463,N,12103.97615617,W,2,11,0.9,6.561,M,-37.515,M,5.4,0135*6C
$PYRTM,2024,123.750769597685,14.860417007824
$GNHDT,323.348,T*26
$PYRTM,2024,123.750775435648,14.860422845787
$GNGGA,180107.00,3435.69358644,N,12103.97658424,W,2,11,0.9,6.865,M,-37.515,M,6.0,0135*6F
$PYRTM,2024,123.750775435648,14.860422845787
$GNHDT,323.502,T*2E
$PYRTM,2024,123.750781175116,14.860428585255
$GNGGA,180107.50,3435.69421211,N,12103.97699743,W,2,11,0.9,6.841,M,-37.515,M,6.4,0135*6A
$PYRTM,2024,123.750781175116,14.860428585255
$GNHDT,323.453,T*2B
$PYRTM,2024,123.750787010637,14.860434420775
$GNGGA,180108.00,3435.69491699,N,12103.97741087,W,2,11,0.9,6.458,M,-37.515,M,7.0,0135*65
$PYRTM,2024,123.750787010637,14.860434420775
$GNHDT,323.265,T*28
$PYRTM,2024,123.750792746424,14.860440156562
$GNGGA,180108.50,3435.69562679,N,12103.97785145,W,2,11,0.9,5.868,M,-37.515,M,7.4,0135*6C
$PYRTM,2024,123.750792746424,14.860440156562
$GNHDT,322.893,T*2A
$PYRTM,2024,123.750798587292,14.860445997431
$GNGGA,180109.00,3435.69626963,N,12103.97835321,W,2,11,0.9,5.309,M,-37.515,M,7.0,0135*63
$PYRTM,2024,123.750798587292,14.860445997431
$GNHDT,322.553,T*2B
$PYRTM,2024,123.750804318993,14.860451729132
$GNGGA,180109.50,3435.69679572,N,12103.97894175,W,2,11,0.9,5.032,M,-37.515,M,7.4,0135*67
$PYRTM,2024,123.750804318993,14.860451729132
$GNHDT,321.825,T*24
$PYRTM,2024,123.750810158692,14.860457568843
$GNGGA,180110.00,3435.69720672,N,12103.97957858,W,2,11,0.9,5.170,M,-37.515,M,7.0,0135*6F
$PYRTM,2024,123.750810158692,14.860457568843
$GNHDT,321.719,T*24
$PYRTM,2024,123.750815898750,14.860463308889
$GNGGA,180110.50,3435.69754952,N,12103.98022110,W,2,11,0.9,5.595,M,-37.515,M,7.4,0135*6E
$PYRTM,2024,123.750815898750,14.860463308889
$GNHDT,321.645,T*2C
$PYRTM,2024,123.750821738958,14.860469149097
$GNGGA,180111.00,3435.69787750,N,12103.98085817,W,2,11,0.9,6.131,M,-37.515,M,4.0,0135*65
$PYRTM,2024,123.750821738958,14.860469149097
$GNHDT,321.666,T*2D
$PYRTM,2024,123.750827467373,14.860474877512
$GNGGA,180111.50,3435.69829326,N,12103.98145171,W,2,11,0.9,6.588,M,-37.515,M,4.4,0135*68
$PYRTM,2024,123.750827467373,14.860474877512
$GNHDT,321.840,T*27
$PYRTM,2024,123.750833308507,14.860480718646
$GNGGA,180112.00,3435.69884653,N,12103.98196239,W,2,11,0.9,6.825,M,-37.515,M,5.0,0135*60
$PYRTM,2024,123.750833308507,14.860480718646
$GNHDT,321.618,T*24
$PYRTM,2024,123.750839041076,14.860486451215
$GNGGA,180112.50,3435.69951032,N,12103.98237826,W,2,11,0.9,6.841,M,-37.515,M,5.4,0135*67
$PYRTM,2024,123.750839041076,14.860486451215
$GNHDT,321.010,T*2A
$PYRTM,2024,123.750844886007,14.860492296146
$GNGGA,180113.00,3435.70020255,N,12103.98275355,W,2,11,0.9,6.610,M,-37.515,M,6.0,0135*63
$PYRTM,2024,123.750844886007,14.860492296146
$GNHDT,320.494,T*23
$PYRTM,2024,123.750850613588,14.860498023738
$GNGGA,180113.50,3435.70087296,N,12103.98314668,W,2,11,0.9,6.283,M,-37.515,M,6.4,0135*63
$PYRTM,2024,123.750850613588,14.860498023738
$GNHDT,320.967,T*22
$PYRTM,2024,123.750856456424,14.860503866563
$GNGGA,180114.00,3435.70146581,N,12103.98359449,W,2,11,0.9,5.965,M,-37.515,M,7.0,0135*61
$PYRTM,2024,123.750856456424,14.860503866563
$GNHDT,321.214,T*2C
$PYRTM,2024,123.750862192095,14.860509602234
$GNGGA,180114.50,3435.70196587,N,12103.98414040,W,2,11,0.9,5.744,M,-37.515,M,7.4,0135*65
$PYRTM,2024,123.750862192095,14.860509602234
$GNHDT,320.866,T*22
$PYRTM,2024,123.750868034236,14.860515444375
$GNGGA,180115.00,3435.70239101,N,12103.98480341,W,2,11,0.9,5.620,M,-37.515,M,7.0,0135*65
$PYRTM,2024,123.750868034236,14.860515444375
$GNHDT,320.776,T*2C
$PYRTM,2024,123.750873766273,14.860521176424
$GNGGA,180115.50,3435.70278616,N,12103.98557337,W,2,11,0.9,5.537,M,-37.515,M,7.4,0135*6F
$PYRTM,2024,123.750873766273,14.860521176424
$GNHDT,320.117,T*2D
$PYRTM,2024,123.750879603125,14.860527013275
$GNGGA,180116.00,3435.70320856,N,12103.98639408,W,2,11,0.9,5.466,M,-37.515,M,7.0,0135*6E
$PYRTM,2024,123.750879603125,14.860527013275
$GNHDT,319.410,T*25
$PYRTM,2024,123.750885342731,14.860532752870
$GNGGA,180116.50,3435.70370138,N,12103.98711138,W,2,11,0.9,5.457,M,-37.515,M,7.4,0135*64
$PYRTM,2024,123.750885342731,14.860532752870
$GNHDT,319.307,T*24
$PYRTM,2024,123.750891180127,14.860538590266
$GNGGA,180117.00,3435.70424810,N,12103.98760845,W,2,11,0.9,5.564,M,-37.515,M,4.0,0135*66
$PYRTM,2024,123.750891180127,14.860538590266
$GNHDT,319.203,T*21
$PYRTM,2024,123.750896915359,14.860544325498
$GNGGA,180117.50,3435.70484135,N,12103.98793751,W,2,11,0.9,5.854,M,-37.515,M,4.4,0135*6B
$PYRTM,2024,123.750896915359,14.860544325498
$GNHDT,319.969,T*26
$PYRTM,2024,123.750902750845,14.860550160984
$GNGGA,180118.00,3435.70545132,N,12103.98824440,W,2,11,0.9,6.254,M,-37.515,M,5.0,0135*66
$PYRTM,2024,123.750902750845,14.860550160984
$GNHDT,320.264,T*2A
$PYRTM,2024,123.750908486076,14.860555896215
$GNGGA,180118.50,3435.70604377,N,12103.98857331,W,2,11,0.9,6.624,M,-37.515,M,5.4,0135*64
$PYRTM,2024,123.750908486076,14.860555896215
$GNHDT,320.278,T*27
$PYRTM,2024,123.750914327766,14.860561737905
$GNGGA,180119.00,3435.70661533,N,12103.98903758,W,2,11,0.9,6.753,M,-37.515,M,6.0,0135*68
$PYRTM,2024,123.750914327766,14.860561737905
$GNHDT,320.290,T*21
$PYRTM,2024,123.750920066701,14.860567476840
$GNGGA,180119.50,3435.70715873,N,12103.98965134,W,2,11,0.9,6.565,M,-37.515,M,6.4,0135*69
$PYRTM,2024,123.750920066701,14.860567476840
$GNHDT,320.335,T*2F
$PYRTM,2024,123.750925905012,14.860573315162
$GNGGA,180120.00,3435.70767127,N,12103.99036808,W,2,11,0.9,6.220,M,-37.515,M,7.0,0135*60
$PYRTM,2024,123.750925905012,14.860573315162
$GNHDT,320.764,T*2F
$PYRTM,2024,123.750931641609,14.860579051748
$GNGGA,180120.50,3435.70814522,N,12103.99115977,W,2,11,0.9,5.801,M,-37.515,M,7.4,0135*68
$PYRTM,2024,123.750931641609,14.860579051748
$GNHDT,320.161,T*2C
$PYRTM,2024,123.750937474421,14.860584884560
$GNGGA,180121.00,3435.70860259,N,12103.99193331,W,2,11,0.9,5.436,M,-37.515,M,7.0,0135*6E
$PYRTM,2024,123.750937474421,14.860584884560
$GNHDT,320.521,T*2C
$PYRTM,2024,123.750943209028,14.860590619167
$GNGGA,180121.50,3435.70906248,N,12103.99256100,W,2,11,0.9,5.279,M,-37.515,M,7.4,0135*69
$PYRTM,2024,123.750943209028,14.860590619167
$GNHDT,320.985,T*2E
$PYRTM,2024,123.750949052708,14.860596462859
$GNGGA,180122.00,3435.70955100,N,12103.99299176,W,2,11,0.9,5.381,M,-37.515,M,7.0,0135*66
$PYRTM,2024,123.750949052708,14.860596462859
$GNHDT,321.566,T*2E
$PYRTM,2024,123.750954794074,14.860602204213
$GNGGA,180122.50,3435.71007974,N,12103.99327977,W,2,11,0.9,5.641,M,-37.515,M,7.4,0135*67
$PYRTM,2024,123.750954794074,14.860602204213
$GNHDT,322.508,T*25
$PYRTM,2024,123.750960627894,14.860608038044
$GNGGA,180123.00,3435.71066699,N,12103.99351861,W,2,11,0.9,5.937,M,-37.515,M,4.0,0135*66
$PYRTM,2024,123.750960627894,14.860608038044
$GNHDT,323.013,T*2B
$PYRTM,2024,123.750966356979,14.860613767118
$GNGGA,180123.50,3435.71131538,N,12103.99384625,W,2,11,0.9,6.113,M,-37.515,M,4.4,0135*67
$PYRTM,2024,123.750966356979,14.860613767118
$GNHDT,322.478,T*23
$PYRTM,2024,123.750972195440,14.860619605579
$GNGGA,180124.00,3435.71198822,N,12103.99434429,W,2,11,0.9,6.105,M,-37.515,M,5.0,0135*60
$PYRTM,2024,123.750972195440,14.860619605579
$GNHDT,322.221,T*29
$PYRTM,2024,123.750977937407,14.860625347546
$GNGGA,180124.50,3435.71260674,N,12103.99502076,W,2,11,0.9,5.942,M,-37.515,M,5.4,0135*6A
$PYRTM,2024,123.750977937407,14.860625347546
$GNHDT,321.159,T*26
$PYRTM,2024,123.750983776539,14.860631186678
$GNGGA,180125.00,3435.71312965,N,12103.99579300,W,2,11,0.9,5.791,M,-37.515,M,6.0,0135*6C
$PYRTM,2024,123.750983776539,14.860631186678
$GNHDT,321.918,T*2B
$PYRTM,2024,123.750989505671,14.860636915810
$GNGGA,180125.50,3435.71352984,N,12103.99654984,W,2,11,0.9,5.803,M,-37.515,M,6.4,0135*68
$PYRTM,2024,123.750989505671,14.860636915810
$GNHDT,321.953,T*24
$PYRTM,2024,123.750995343565,14.860642753715
$GNGGA,180126.00,3435.71388483,N,12103.99720995,W,2,11,0.9,5.936,M,-37.515,M,7.0,0135*63
$PYRTM,2024,123.750995343565,14.860642753715
$GNHDT,322.989,T*20
$PYRTM,2024,123.751001084097,14.860648494248
$GNGGA,180126.50,3435.71427193,N,12103.99770957,W,2,11,0.9,6.142,M,-37.515,M,7.4,0135*67
$PYRTM,2024,123.751001084097,14.860648494248
$GNHDT,323.751,T*2A
$PYRTM,2024,123.751006918495,14.860654328634
$GNGGA,180127.00,3435.71478876,N,12103.99807136,W,2,11,0.9,6.280,M,-37.515,M,7.0,0135*62
$PYRTM,2024,123.751006918495,14.860654328634
$GNHDT,324.157,T*2D
$PYRTM,2024,123.751012653495,14.860660063634
$GNGGA,180127.50,3435.71545680,N,12103.99838144,W,2,11,0.9,6.186,M,-37.515,M,7.4,0135*67
$PYRTM,2024,123.751012653495,14.860660063634
$GNHDT,324.032,T*2F
$PYRTM,2024,123.751018494722,14.860665904861
$GNGGA,180128.00,3435.71620110,N,12103.99870194,W,2,11,0.9,5.925,M,-37.515,M,7.0,0135*64
$PYRTM,2024,123.751018494722,14.860665904861
$GNHDT,323.996,T*2F
$PYRTM,2024,123.751024227130,14.860671637269
$GNGGA,180128.50,3435.71691032,N,12103.99907581,W,2,11,0.9,5.656,M,-37.515,M,7.4,0135*64
$PYRTM,2024,123.751024227130,14.860671637269
$GNHDT,323.275,T*29
$PYRTM,2024,123.751030066146,14.860677476285
$GNGGA,180129.00,3435.71752515,N,12103.99955555,W,2,11,0.9,5.572,M,-37.515,M,4.0,0135*62
$PYRTM,2024,123.751030066146,14.860677476285
$GNHDT,322.720,T*2D
$PYRTM,2024,123.751035802998,14.860683213137
$GNGGA,180129.50,3435.71804339,N,12104.00017142,W,2,11,0.9,5.641,M,-37.515,M,4.4,0135*6E
$PYRTM,2024,123.751035802998,14.860683213137
$GNHDT,322.988,T*21
$PYRTM,2024,123.751041648414,14.860689058553
$GNGGA,180130.00,3435.71851567,N,12104.00093021,W,2,11,0.9,5.772,M,-37.515,M,5.0,0135*62
$PYRTM,2024,123.751041648414,14.860689058553
$GNHDT,322.367,T*2A
$PYRTM,2024,123.751047378322,14.860694788472
$GNGGA,180130.50,3435.71899001,N,12104.00176061,W,2,11,0.9,5.837,M,-37.515,M,5.4,0135*62
$PYRTM,2024,123.751047378322,14.860694788472
$GNHDT,322.406,T*2A
$PYRTM,2024,123.751053218472,14.860700628623
$GNGGA,180131.00,3435.71949654,N,12104.00255270,W,2,11,0.9,5.878,M,-37.515,M,6.0,0135*60
$PYRTM,2024,123.751053218472,14.860700628623
$GNHDT,322.511,T*2D
$PYRTM,2024,123.751058948796,14.860706358935
$GNGGA,180131.50,3435.72002266,N,12104.00316170,W,2,11,0.9,6.023,M,-37.515,M,6.4,0135*61
$PYRTM,2024,123.751058948796,14.860706358935
$GNHDT,322.952,T*26
$PYRTM,2024,123.751064794861,14.860712205000
$GNGGA,180132.00,3435.72058107,N,12104.00355789,W,2,11,0.9,6.324,M,-37.515,M,7.0,0135*6A
$PYRTM,2024,123.751064794861,14.860712205000
$GNHDT,323.414,T*28
$PYRTM,2024,123.751070523356,14.860717933495
$GNGGA,180132.50,3435.72117941,N,12104.00378709,W,2,11,0.9,6.721,M,-37.515,M,7.4,0135*6D
$PYRTM,2024,123.751070523356,14.860717933495
$GNHDT,323.696,T*20
$PYRTM,2024,123.751076369965,14.860723780104
$GNGGA,180133.00,3435.72181170,N,12104.00395719,W,2,11,0.9,7.061,M,-37.515,M,7.0,0135*68
$PYRTM,2024,123.751076369965,14.860723780104
$GNHDT,323.644,T*2F
$PYRTM,2024,123.751082101181,14.860729511331
$GNGGA,180133.50,3435.72246047,N,12104.00422828,W,2,11,0.9,7.191,M,-37.515,M,7.4,0135*6C
$PYRTM,2024,123.751082101181,14.860729511331
$GNHDT,323.421,T*2E
$PYRTM,2024,123.751087939109,14.860735349248
$GNGGA,180134.00,3435.72308834,N,12104.00464971,W,2,11,0.9,7.043,M,-37.515,M,7.0,0135*6C
$PYRTM,2024,123.751087939109,14.860735349248
$GNHDT,323.172,T*2D
$PYRTM,2024,123.751093671701,14.860741081840
$GNGGA,180134.50,3435.72367323,N,12104.00521670,W,2,11,0.9,6.652,M,-37.515,M,7.4,0135*60
$PYRTM,2024,123.751093671701,14.860741081840
$GNHDT,322.949,T*2C
$PYRTM,2024,123.751099515521,14.860746925671
$GNGGA,180135.00,3435.72422103,N,12104.00593591,W,2,11,0.9,6.054,M,-37.515,M,4.0,0135*60
$PYRTM,2024,123.751099515521,14.860746925671
$GNHDT,322.700,T*2F
$PYRTM,2024,123.751105255741,14.860752665880
$GNGGA,180135.50,3435.72474506,N,12104.00673326,W,2,11,0.9,5.445,M,-37.515,M,4.4,0135*63
$PYRTM,2024,123.751105255741,14.860752665880
$GNHDT,322.607,T*29
$PYRTM,2024,123.751111088160,14.860758498310
$GNGGA,180136.00,3435.72522673,N,12104.00752686,W,2,11,0.9,5.032,M,-37.515,M,5.0,0135*6A
$PYRTM,2024,123.751111088160,14.860758498310
$GNHDT,322.703,T*2C
$PYRTM,2024,123.751116823090,14.860764233229
$GNGGA,180136.50,3435.72567377,N,12104.00818829,W,2,11,0.9,5.019,M,-37.515,M,5.4,0135*68
$PYRTM,2024,123.751116823090,14.860764233229
$GNHDT,322.359,T*27
$PYRTM,2024,123.751122666817,14.860770076956
$GNGGA,180137.00,3435.72611640,N,12104.00864983,W,2,11,0.9,5.418,M,-37.515,M,6.0,0135*67
$PYRTM,2024,123.751122666817,14.860770076956
$GNHDT,321.994,T*2F
$PYRTM,2024,123.751128402650,14.860775812789
$GNGGA,180137.50,3435.72662525,N,12104.00893645,W,2,11,0.9,5.991,M,-37.515,M,6.4,0135*63
$PYRTM,2024,123.751128402650,14.860775812789
$GNHDT,322.696,T*21
$PYRTM,2024,123.751134240787,14.860781650926
$GNGGA,180138.00,3435.72722802,N,12104.00915151,W,2,11,0.9,6.504,M,-37.515,M,7.0,0135*6F
$PYRTM,2024,123.751134240787,14.860781650926
$GNHDT,323.468,T*23
$PYRTM,2024,123.751139975093,14.860787385231
$GNGGA,180138.50,3435.72792380,N,12104.00944176,W,2,11,0.9,6.751,M,-37.515,M,7.4,0135*67
$PYRTM,2024,123.751139975093,14.860787385231
$GNHDT,323.100,T*28
$PYRTM,2024,123.751145813333,14.860793223472
$GNGGA,180139.00,3435.72865540,N,12104.00987474,W,2,11,0.9,6.678,M,-37.515,M,7.0,0135*68
$PYRTM,2024,123.751145813333,14.860793223472
$GNHDT,322.859,T*2C
$PYRTM,2024,123.751151548021,14.860798958171
$GNGGA,180139.50,3435.72932612,N,12104.01040844,W,2,11,0.9,6.431,M,-37.515,M,7.4,0135*6D
$PYRTM,2024,123.751151548021,14.860798958171
$GNHDT,322.974,T*22
$PYRTM,2024,123.751157379861,14.860804790000
$GNGGA,180140.00,3435.72988275,N,12104.01097444,W,2,11,0.9,6.232,M,-37.515,M,7.0,0135*65
$PYRTM,2024,123.751157379861,14.860804790000
$GNHDT,322.945,T*20
$PYRTM,2024,123.751163117442,14.860810527581
$GNGGA,180140.50,3435.73030210,N,12104.01153103,W,2,11,0.9,6.239,M,-37.515,M,7.4,0135*68
$PYRTM,2024,123.751163117442,14.860810527581
$GNHDT,323.071,T*2F
$PYRTM,2024,123.751168958519,14.860816368669
$GNGGA,180141.00,3435.73061627,N,12104.01207364,W,2,11,0.9,6.445,M,-37.515,M,4.0,0135*63
$PYRTM,2024,123.751168958519,14.860816368669
$GNHDT,323.342,T*2C
$PYRTM,2024,123.751174694363,14.860822104502
$GNGGA,180141.50,3435.73092327,N,12104.01261403,W,2,11,0.9,6.705,M,-37.515,M,4.4,0135*6A
$PYRTM,2024,123.751174694363,14.860822104502
$GNHDT,323.577,T*2C
$PYRTM,2024,123.751180530903,14.860827941042
$GNGGA,180142.00,3435.73131020,N,12104.01320192,W,2,11,0.9,6.772,M,-37.515,M,5.0,0135*6C
$PYRTM,2024,123.751180530903,14.860827941042
$GNHDT,323.407,T*2A
$PYRTM,2024,123.751186273738,14.860833683877
$GNGGA,180142.50,3435.73185268,N,12104.01384256,W,2,11,0.9,6.412,M,-37.515,M,5.4,0135*6C
$PYRTM,2024,123.751186273738,14.860833683877
$GNHDT,322.684,T*22
$PYRTM,2024,123.751192113542,14.860839523681
$GNGGA,180143.00,3435.73251073,N,12104.01446774,W,2,11,0.9,5.768,M,-37.515,M,6.0,0135*6C
$PYRTM,2024,123.751192113542,14.860839523681
$GNHDT,322.015,T*2C
$PYRTM,2024,123.751197847847,14.860845257986
$GNGGA,180143.50,3435.73319182,N,12104.01497876,W,2,11,0.9,5.163,M,-37.515,M,6.4,0135*63
$PYRTM,2024,123.751197847847,14.860845257986
$GNHDT,321.701,T*2D
$PYRTM,2024,123.751203682002,14.860851092141
$GNGGA,180144.00,3435.73380802,N,12104.01533878,W,2,11,0.9,4.959,M,-37.515,M,7.0,0135*64
$PYRTM,2024,123.751203682002,14.860851092141
$GNHDT,321.986,T*2C
$PYRTM,2024,123.751209420648,14.860856830787
$GNGGA,180144.50,3435.73432028,N,12104.01559969,W,2,11,0.9,5.330,M,-37.515,M,7.4,0135*62
$PYRTM,2024,123.751209420648,14.860856830787
$GNHDT,322.751,T*2B
$PYRTM,2024,123.751215265035,14.860862675174
$GNGGA,180145.00,3435.73476995,N,12104.01582387,W,2,11,0.9,6.044,M,-37.515,M,7.0,0135*62
$PYRTM,2024,123.751215265035,14.860862675174
$GNHDT,323.233,T*2B
$PYRTM,2024,123.751220990023,14.860868400162
$GNGGA,180145.50,3435.73522855,N,12104.01609491,W,2,11,0.9,6.836,M,-37.515,M,7.4,0135*63
$PYRTM,2024,123.751220990023,14.860868400162
$GNHDT,323.512,T*2F
$PYRTM,2024,123.751226830255,14.860874240405
$GNGGA,180146.00,3435.73574087,N,12104.01649168,W,2,11,0.9,7.326,M,-37.515,M,7.0,0135*69
$PYRTM,2024,123.751226830255,14.860874240405
$GNHDT,323.318,T*23
$PYRTM,2024,123.751232565347,14.860879975486
$GNGGA,180146.50,3435.73630869,N,12104.01703060,W,2,11,0.9,7.347,M,-37.515,M,7.4,0135*62
$PYRTM,2024,123.751232565347,14.860879975486
$GNHDT,323.446,T*2F
$PYRTM,2024,123.751238404167,14.860885814306
$GNGGA,180147.00,3435.73688543,N,12104.01766746,W,2,11,0.9,6.951,M,-37.515,M,4.0,0135*6B
$PYRTM,2024,123.751238404167,14.860885814306
$GNHDT,323.401,T*2C
$PYRTM,2024,123.751244140012,14.860891550150
$GNGGA,180147.50,3435.73741632,N,12104.01833195,W,2,11,0.9,6.453,M,-37.515,M,4.4,0135*63
$PYRTM,2024,123.751244140012,14.860891550150
$GNHDT,323.621,T*2C
$PYRTM,2024,123.751249977419,14.860897387558
$GNGGA,180148.00,3435.73788727,N,12104.01893030,W,2,11,0.9,6.076,M,-37.515,M,5.0,0135*6B
$PYRTM,2024,123.751249977419,14.860897387558
$GNHDT,323.692,T*24
$PYRTM,2024,123.751255709282,14.860903119421
$GNGGA,180148.50,3435.73830207,N,12104.01939840,W,2,11,0.9,6.010,M,-37.515,M,5.4,0135*6F
$PYRTM,2024,123.751255709282,14.860903119421
$GNHDT,323.439,T*27
$PYRTM,2024,123.751261554456,14.860908964595
$GNGGA,180149.00,3435.73870230,N,12104.01971203,W,2,11,0.9,6.248,M,-37.515,M,6.0,0135*62
$PYRTM,2024,123.751261554456,14.860908964595
$GNHDT,323.326,T*2E
$PYRTM,2024,123.751267289375,14.860914699514
$GNGGA,180149.50,3435.73914839,N,12104.01995003,W,2,11,0.9,6.600,M,-37.515,M,6.4,0135*63
$PYRTM,2024,123.751267289375,14.860914699514
$GNHDT,323.299,T*2B
$PYRTM,2024,123.751273123669,14.860920533808
$GNGGA,180150.00,3435.73968639,N,12104.02014458,W,2,11,0.9,6.878,M,-37.515,M,7.0,0135*66
$PYRTM,2024,123.751273123669,14.860920533808
$GNHDT,323.629,T*24
$PYRTM,2024,123.751278864329,14.860926274468
$GNGGA,180150.50,3435.74031543,N,12104.02039276,W,2,11,0.9,6.935,M,-37.515,M,7.4,0135*66
$PYRTM,2024,123.751278864329,14.860926274468
$GNHDT,323.836,T*24
$PYRTM,2024,123.751284699120,14.860932109259
$GNGGA,180151.00,3435.74098352,N,12104.02076641,W,2,11,0.9,6.742,M,-37.515,M,7.0,0135*66
$PYRTM,2024,123.751284699120,14.860932109259
$GNHDT,323.461,T*2A
$PYRTM,2024,123.751290434225,14.860937844363
$GNGGA,180151.50,3435.74162580,N,12104.02128706,W,2,11,0.9,6.343,M,-37.515,M,7.4,0135*67
$PYRTM,2024,123.751290434225,14.860937844363
$GNHDT,323.032,T*28
$PYRTM,2024,123.751296276192,14.860943686331
$GNGGA,180152.00,3435.74220116,N,12104.02194496,W,2,11,0.9,5.923,M,-37.515,M,7.0,0135*69
$PYRTM,2024,123.751296276192,14.860943686331
$GNHDT,322.622,T*2E
$PYRTM,2024,123.751302011944,14.860949422083
$GNGGA,180152.50,3435.74268350,N,12104.02267888,W,2,11,0.9,5.642,M,-37.515,M,7.4,0135*60
$PYRTM,2024,123.751302011944,14.860949422083
$GNHDT,322.827,T*25
$PYRTM,2024,123.751307850174,14.860955260312
$GNGGA,180153.00,3435.74307695,N,12104.02337524,W,2,11,0.9,5.655,M,-37.515,M,4.0,0135*6E
$PYRTM,2024,123.751307850174,14.860955260312
$GNHDT,322.698,T*2F
$PYRTM,2024,123.751313587106,14.860960997245
$GNGGA,180153.50,3435.74342411,N,12104.02395257,W,2,11,0.9,5.918,M,-37.515,M,4.4,0135*6D
$PYRTM,2024,123.751313587106,14.860960997245
$GNHDT,323.064,T*2B
$PYRTM,2024,123.751319423623,14.860966833762
$GNGGA,180154.00,3435.74378411,N,12104.02437638,W,2,11,0.9,6.346,M,-37.515,M,5.0,0135*63
$PYRTM,2024,123.751319423623,14.860966833762
$GNHDT,323.212,T*28
$PYRTM,2024,123.751325163299,14.860972573438
$GNGGA,180154.50,3435.74422582,N,12104.02468065,W,2,11,0.9,6.712,M,-37.515,M,5.4,0135*60
$PYRTM,2024,123.751325163299,14.860972573438
$GNHDT,323.093,T*23
$PYRTM,2024,123.751330997940,14.860978408079
$GNGGA,180155.00,3435.74478607,N,12104.02493101,W,2,11,0.9,6.856,M,-37.515,M,6.0,0135*6A
$PYRTM,2024,123.751330997940,14.860978408079
$GNHDT,322.970,T*26
$PYRTM,2024,123.751336731146,14.860984141285
$GNGGA,180155.50,3435.74543179,N,12104.02524196,W,2,11,0.9,6.693,M,-37.515,M,6.4,0135*68
$PYRTM,2024,123.751336731146,14.860984141285
$GNHDT,323.023,T*28
$PYRTM,2024,123.751342568750,14.860989978889
$GNGGA,180156.00,3435.74610108,N,12104.02563696,W,2,11,0.9,6.262,M,-37.515,M,7.0,0135*66
$PYRTM,2024,123.751342568750,14.860989978889
$GNHDT,322.646,T*2C
$PYRTM,2024,123.751348311273,14.860995721412
$GNGGA,180156.50,3435.74671130,N,12104.02612173,W,2,11,0.9,5.809,M,-37.515,M,7.4,0135*66
$PYRTM,2024,123.751348311273,14.860995721412
$GNHDT,322.248,T*26
$PYRTM,2024,123.751354144317,14.861001554456
$GNGGA,180157.00,3435.74720151,N,12104.02667691,W,2,11,0.9,5.534,M,-37.515,M,7.0,0135*6E
$PYRTM,2024,123.751354144317,14.861001554456
$GNHDT,322.492,T*27
$PYRTM,2024,123.751359877639,14.861007287789
$GNGGA,180157.50,3435.74756093,N,12104.02726678,W,2,11,0.9,5.623,M,-37.515,M,7.4,0135*67
$PYRTM,2024,123.751359877639,14.861007287789
$GNHDT,322.132,T*28
$PYRTM,2024,123.751365724826,14.861013134965
$GNGGA,180158.00,3435.74785908,N,12104.02785921,W,2,11,0.9,5.957,M,-37.515,M,7.0,0135*6A
$PYRTM,2024,123.751365724826,14.861013134965
$GNHDT,322.192,T*22
$PYRTM,2024,123.751371451910,14.861018862049
$GNGGA,180158.50,3435.74817490,N,12104.02841237,W,2,11,0.9,6.345,M,-37.515,M,7.4,0135*62
$PYRTM,2024,123.751371451910,14.861018862049
$GNHDT,322.173,T*2D
$PYRTM,2024,123.751377295301,14.861024705440
$GNGGA,180159.00,3435.74857456,N,12104.02887718,W,2,11,0.9,6.644,M,-37.515,M,4.0,0135*69
$PYRTM,2024,123.751377295301,14.861024705440
$GNHDT,322.728,T*25
$PYRTM,2024,123.751383024780,14.861030434919
$GNGGA,180159.50,3435.74911979,N,12104.02927044,W,2,11,0.9,6.703,M,-37.515,M,4.4,0135*6C
$PYRTM,2024,123.751383024780,14.861030434919
$GNHDT,322.720,T*2D
$PYRTM,2024,123.751388864375,14.861036274514
$GNGGA,180200.00,3435.74979745,N,12104.02964401,W,2,11,0.9,6.450,M,-37.515,M,5.0,0135*6B
$PYRTM,2024,123.751388864375,14.861036274514
$GNHDT,322.747,T*2C
$PYRTM,2024,123.751394601042,14.861042011181
$GNGGA,180200.50,3435.75051373,N,12104.03007485,W,2,11,0.9,5.988,M,-37.515,M,5.4,0135*63
$PYRTM,2024,123.751394601042,14.861042011181
$GNHDT,322.078,T*27
$PYRTM,2024,123.751400438021,14.861047848171
$GNGGA,180201.00,3435.75117239,N,12104.03057300,W,2,11,0.9,5.617,M,-37.515,M,6.0,0135*6A
$PYRTM,2024,123.751400438021,14.861047848171
$GNHDT,321.405,T*2A
$PYRTM,2024,123.751406172234,14.861053582373
$GNGGA,180201.50,3435.75167813,N,12104.03112744,W,2,11,0.9,5.606,M,-37.515,M,6.4,0135*6A
$PYRTM,2024,123.751406172234,14.861053582373
$GNHDT,321.284,T*25
$PYRTM,2024,123.751412020590,14.861059430729
$GNGGA,180202.00,3435.75204722,N,12104.03167516,W,2,11,0.9,5.996,M,-37.515,M,7.0,0135*63
$PYRTM,2024,123.751412020590,14.861059430729
$GNHDT,321.122,T*2A
$PYRTM,2024,123.751417753669,14.861065163819
$GNGGA,180202.50,3435.75236301,N,12104.03221383,W,2,11,0.9,6.613,M,-37.515,M,7.4,0135*6C
$PYRTM,2024,123.751417753669,14.861065163819
$GNHDT,320.909,T*2A
$PYRTM,2024,123.751423586400,14.861070996539
$GNGGA,180203.00,3435.75271964,N,12104.03274266,W,2,11,0.9,7.171,M,-37.515,M,7.0,0135*6E
$PYRTM,2024,123.751423586400,14.861070996539
$GNHDT,321.057,T*29
$PYRTM,2024,123.751429325104,14.861076735243
$GNGGA,180203.50,3435.75319123,N,12104.03328600,W,2,11,0.9,7.387,M,-37.515,M,7.4,0135*6C
$PYRTM,2024,123.751429325104,14.861076735243
$GNHDT,321.063,T*2E
$PYRTM,2024,123.751435162789,14.861082572928
$GNGGA,180204.00,3435.75379016,N,12104.03383328,W,2,11,0.9,7.136,M,-37.514,M,7.0,0135*6C
$PYRTM,2024,123.751435162789,14.861082572928
$GNHDT,321.049,T*26
$PYRTM,2024,123.751440894583,14.861088304722
$GNGGA,180204.50,3435.75446361,N,12104.03434801,W,2,11,0.9,6.525,M,-37.514,M,7.4,0135*69
$PYRTM,2024,123.751440894583,14.861088304722
$GNHDT,321.027,T*2E
$PYRTM,2024,123.751446736238,14.861094146377
$GNGGA,180205.00,3435.75513011,N,12104.03482746,W,2,11,0.9,5.809,M,-37.514,M,4.0,0135*6E
$PYRTM,2024,123.751446736238,14.861094146377
$GNHDT,321.196,T*25
$PYRTM,2024,123.751452470694,14.861099880833
$GNGGA,180205.50,3435.75573711,N,12104.03529520,W,2,11,0.9,5.324,M,-37.514,M,4.4,0135*68
$PYRTM,2024,123.751452470694,14.861099880833
$GNHDT,321.019,T*23
$PYRTM,2024,123.751458319144,14.861105729282
$GNGGA,180206.00,3435.75623886,N,12104.03578011,W,2,11,0.9,5.264,M,-37.514,M,5.0,0135*6A
$PYRTM,2024,123.751458319144,14.861105729282
$GNHDT,320.771,T*2B
$PYRTM,2024,123.751464046852,14.861111456979
$GNGGA,180206.50,3435.75664534,N,12104.03629065,W,2,11,0.9,5.622,M,-37.514,M,5.4,0135*6E
$PYRTM,2024,123.751464046852,14.861111456979
$GNHDT,320.406,T*28
$PYRTM,2024,123.751469887581,14.861117297720
$GNGGA,180207.00,3435.75696289,N,12104.03684154,W,2,11,0.9,6.301,M,-37.514,M,6.0,0135*62
$PYRTM,2024,123.751469887581,14.861117297720
$GNHDT,320.078,T*25
$PYRTM,2024,123.751475623032,14.861123033171
$GNGGA,180207.50,3435.75727996,N,12104.03739912,W,2,11,0.9,7.039,M,-37.514,M,6.4,0135*69
$PYRTM,2024,123.751475623032,14.861123033171
$GNHDT,320.101,T*2A
$PYRTM,2024,123.751481464144,14.861128874282
$GNGGA,180208.00,3435.75765769,N,12104.03793358,W,2,11,0.9,7.589,M,-37.514,M,7.0,0135*64
$PYRTM,2024,123.751481464144,14.861128874282
$GNHDT,319.638,T*2D
$PYRTM,2024,123.751487190359,14.861134600498
$GNGGA,180208.50,3435.75813707,N,12104.03842700,W,2,11,0.9,7.760,M,-37.514,M,7.4,0135*6C
$PYRTM,2024,123.751487190359,14.861134600498
$GNHDT,319.641,T*23
$PYRTM,2024,123.751493037940,14.861140448090
$GNGGA,180209.00,3435.75867074,N,12104.03891741,W,2,11,0.9,7.480,M,-37.514,M,7.0,0135*6A
$PYRTM,2024,123.751493037940,14.861140448090
$GNHDT,319.641,T*23
$PYRTM,2024,123.751498770116,14.861146180255
$GNGGA,180209.50,3435.75921864,N,12104.03944327,W,2,11,0.9,6.819,M,-37.514,M,7.4,0135*61
$PYRTM,2024,123.751498770116,14.861146180255
$GNHDT,319.872,T*2D
$PYRTM,2024,123.751504606389,14.861152016528
$GNGGA,180210.00,3435.75977562,N,12104.04000265,W,2,11,0.9,5.916,M,-37.514,M,7.0,0135*64
$PYRTM,2024,123.751504606389,14.861152016528
$GNHDT,319.810,T*29
$PYRTM,2024,123.751510341076,14.861157751215
$GNGGA,180210.50,3435.76033038,N,12104.04058485,W,2,11,0.9,4.988,M,-37.514,M,7.4,0135*66
$PYRTM,2024,123.751510341076,14.861157751215
$GNHDT,319.440,T*20
$PYRTM,2024,123.751516181609,14.861163591748
$GNGGA,180211.00,3435.76087401,N,12104.04119005,W,2,11,0.9,4.316,M,-37.514,M,4.0,0135*61
$PYRTM,2024,123.751516181609,14.861163591748
$GNHDT,319.381,T*2A
$PYRTM,2024,123.751521918542,14.861169328681
$GNGGA,180211.50,3435.76137043,N,12104.04180214,W,2,11,0.9,4.128,M,-37.514,M,4.4,0135*65
$PYRTM,2024,123.751521918542,14.861169328681
$GNHDT,319.606,T*20
$PYRTM,2024,123.751527759178,14.861175169317
$GNGGA,180212.00,3435.76179235,N,12104.04240692,W,2,11,0.9,4.497,M,-37.514,M,5.0,0135*6B
$PYRTM,2024,123.751527759178,14.861175169317
$GNHDT,319.956,T*2A
$PYRTM,2024,123.751533496586,14.861180906725
$GNGGA,180212.50,3435.76213326,N,12104.04297630,W,2,11,0.9,5.300,M,-37.514,M,5.4,0135*6C
$PYRTM,2024,123.751533496586,14.861180906725
$GNHDT,319.649,T*2B
$PYRTM,2024,123.751539336840,14.861186746979
$GNGGA,180213.00,3435.76245884,N,12104.04351587,W,2,11,0.9,6.290,M,-37.514,M,6.0,0135*60
$PYRTM,2024,123.751539336840,14.861186746979
$GNHDT,319.622,T*26
$PYRTM,2024,123.751545062257,14.861192472396
$GNGGA,180213.50,3435.76283646,N,12104.04401545,W,2,11,0.9,7.240,M,-37.514,M,6.4,0135*6B
$PYRTM,2024,123.751545062257,14.861192472396
$GNHDT,319.634,T*21
$PYRTM,2024,123.751550907766,14.861198317905
$GNGGA,180214.00,3435.76331014,N,12104.04447385,W,2,11,0.9,7.891,M,-37.514,M,7.0,0135*6B
$PYRTM,2024,123.751550907766,14.861198317905
$GNHDT,319.851,T*2C
$PYRTM,2024,123.751556635220,14.861204045370
$GNGGA,180214.50,3435.76385058,N,12104.04489845,W,2,11,0.9,8.126,M,-37.514,M,7.4,0135*62
$PYRTM,2024,123.751556635220,14.861204045370
$GNHDT,319.696,T*29
$PYRTM,2024,123.751562483900,14.861209894039
$GNGGA,180215.00,3435.76440642,N,12104.04534697,W,2,11,0.9,7.892,M,-37.514,M,7.0,0135*6E
$PYRTM,2024,123.751562483900,14.861209894039
$GNHDT,319.744,T*27
$PYRTM,2024,123.751568209201,14.861215619340
$GNGGA,180215.50,3435.76494630,N,12104.04586602,W,2,11,0.9,7.249,M,-37.514,M,7.4,0135*6A
$PYRTM,2024,123.751568209201,14.861215619340
$GNHDT,319.220,T*20
$PYRTM,2024,123.751574049977,14.861221460116
$GNGGA,180216.00,3435.76544688,N,12104.04647619,W,2,11,0.9,6.300,M,-37.514,M,7.0,0135*6E
$PYRTM,2024,123.751574049977,14.861221460116
$GNHDT,319.697,T*28
$PYRTM,2024,123.751579793137,14.861227203275
$GNGGA,180216.50,3435.76589817,N,12104.04716159,W,2,11,0.9,5.325,M,-37.514,M,7.4,0135*64
$PYRTM,2024,123.751579793137,14.861227203275
$GNHDT,318.958,T*25
$PYRTM,2024,123.751585633102,14.861233043252
$GNGGA,180217.00,3435.76632899,N,12104.04785821,W,2,11,0.9,4.570,M,-37.514,M,4.0,0135*69
$PYRTM,2024,123.751585633102,14.861233043252
$GNHDT,318.931,T*2A
$PYRTM,2024,123.751591367002,14.861238777141
$GNGGA,180217.50,3435.76673565,N,12104.04850902,W,2,11,0.9,4.299,M,-37.514,M,4.4,0135*64
$PYRTM,2024,123.751591367002,14.861238777141
$GNHDT,319.560,T*23
$PYRTM,2024,123.751597207674,14.861244617812
$GNGGA,180218.00,3435.76713130,N,12104.04904827,W,2,11,0.9,4.581,M,-37.514,M,5.0,0135*60
$PYRTM,2024,123.751597207674,14.861244617812
$GNHDT,319.867,T*29
$PYRTM,2024,123.751602936470,14.861250346609
$GNGGA,180218.50,3435.76753548,N,12104.04947101,W,2,11,0.9,5.219,M,-37.514,M,5.4,0135*63
$PYRTM,2024,123.751602936470,14.861250346609
$GNHDT,320.009,T*23
$PYRTM,2024,123.751608776435,14.861256186574
$GNGGA,180219.00,3435.76800544,N,12104.04982183,W,2,11,0.9,6.011,M,-37.514,M,6.0,0135*6F
$PYRTM,2024,123.751608776435,14.861256186574
$GNHDT,320.094,T*27
$PYRTM,2024,123.751614509444,14.861261919583
$GNGGA,180219.50,3435.76855157,N,12104.05018936,W,2,11,0.9,6.716,M,-37.514,M,6.4,0135*65
$PYRTM,2024,123.751614509444,14.861261919583
$GNHDT,319.878,T*27
$PYRTM,2024,123.751620357303,14.861267767442
$GNGGA,180220.00,3435.76914519,N,12104.05061258,W,2,11,0.9,7.226,M,-37.514,M,7.0,0135*6F
$PYRTM,2024,123.751620357303,14.861267767442
$GNHDT,319.738,T*2C
$PYRTM,2024,123.751626088194,14.861273498333
$GNGGA,180220.50,3435.76972634,N,12104.05111274,W,2,11,0.9,7.437,M,-37.514,M,7.4,0135*6C
$PYRTM,2024,123.751626088194,14.861273498333
$GNHDT,319.602,T*24
$PYRTM,2024,123.751631926562,14.861279336701
$GNGGA,180221.00,3435.77023960,N,12104.05167581,W,2,11,0.9,7.372,M,-37.514,M,7.0,0135*64
$PYRTM,2024,123.751631926562,14.861279336701
$GNHDT,319.812,T*2B
$PYRTM,2024,123.751637655775,14.861285065914
$GNGGA,180221.50,3435.77067564,N,12104.05229805,W,2,11,0.9,7.095,M,-37.514,M,7.4,0135*6F
$PYRTM,2024,123.751637655775,14.861285065914
$GNHDT,319.933,T*29
$PYRTM,2024,123.751643497477,14.861290907627
$GNGGA,180222.00,3435.77102874,N,12104.05296223,W,2,11,0.9,6.693,M,-37.514,M,7.0,0135*68
$PYRTM,2024,123.751643497477,14.861290907627
$GNHDT,319.934,T*2E
$PYRTM,2024,123.751649236875,14.861296647014
$GNGGA,180222.50,3435.77135255,N,12104.05364020,W,2,11,0.9,6.228,M,-37.514,M,7.4,0135*6D
$PYRTM,2024,123.751649236875,14.861296647014
$GNHDT,319.584,T*29
$PYRTM,2024,123.751655070208,14.861302480347
$GNGGA,180223.00,3435.77170599,N,12104.05428128,W,2,11,0.9,5.764,M,-37.514,M,4.0,0135*60
$PYRTM,2024,123.751655070208,14.861302480347
$GNHDT,319.653,T*20
$PYRTM,2024,123.751660811343,14.861308221481
$GNGGA,180223.50,3435.77211356,N,12104.05483690,W,2,11,0.9,5.395,M,-37.514,M,4.4,0135*6F
$PYRTM,2024,123.751660811343,14.861308221481
$GNHDT,320.035,T*2C
$PYRTM,2024,123.751666646215,14.861314056354
$GNGGA,180224.00,3435.77258912,N,12104.05533207,W,2,11,0.9,5.183,M,-37.514,M,5.0,0135*6A
$PYRTM,2024,123.751666646215,14.861314056354
$GNHDT,319.638,T*2D
$PYRTM,2024,123.751672378160,14.861319788310
$GNGGA,180224.50,3435.77313327,N,12104.05579578,W,2,11,0.9,5.131,M,-37.514,M,5.4,0135*61
$PYRTM,2024,123.751672378160,14.861319788310
$GNHDT,319.820,T*2A
$PYRTM,2024,123.751678219942,14.861325630093
$GNGGA,180225.00,3435.77374033,N,12104.05628319,W,2,11,0.9,5.140,M,-37.514,M,6.0,0135*65
$PYRTM,2024,123.751678219942,14.861325630093
$GNHDT,320.060,T*2C
$PYRTM,2024,123.751683953935,14.861331364074
$GNGGA,180225.50,3435.77437530,N,12104.05680197,W,2,11,0.9,5.278,M,-37.514,M,6.4,0135*6C
$PYRTM,2024,123.751683953935,14.861331364074
$GNHDT,320.067,T*2B
$PYRTM,2024,123.751689802315,14.861337212454
$GNGGA,180226.00,3435.77500157,N,12104.05732897,W,2,11,0.9,5.511,M,-37.514,M,7.0,0135*66
$PYRTM,2024,123.751689802315,14.861337212454
$GNHDT,320.464,T*2C
$PYRTM,2024,123.751695524502,14.861342934641
$GNGGA,180226.50,3435.77557403,N,12104.05784635,W,2,11,0.9,5.890,M,-37.514,M,7.4,0135*6E
$PYRTM,2024,123.751695524502,14.861342934641
$GNHDT,320.841,T*27
$PYRTM,2024,123.751701368657,14.861348778796
$GNGGA,180227.00,3435.77605985,N,12104.05837448,W,2,11,0.9,6.395,M,-37.514,M,7.0,0135*6B
$PYRTM,2024,123.751701368657,14.861348778796
$GNHDT,320.994,T*2E
$PYRTM,2024,123.751707103356,14.861354513495
$GNGGA,180227.50,3435.77645675,N,12104.05895688,W,2,11,0.9,6.922,M,-37.514,M,7.4,0135*6E
$PYRTM,2024,123.751707103356,14.861354513495
$GNHDT,321.384,T*24
$PYRTM,2024,123.751712939074,14.861360349213
$GNGGA,180228.00,3435.77679997,N,12104.05962116,W,2,11,0.9,7.297,M,-37.514,M,7.0,0135*61
$PYRTM,2024,123.751712939074,14.861360349213
$GNHDT,320.904,T*27
$PYRTM,2024,123.751718685880,14.861366096030
$GNGGA,180228.50,3435.77717574,N,12104.06033635,W,2,11,0.9,7.326,M,-37.514,M,7.4,0135*6B
$PYRTM,2024,123.751718685880,14.861366096030
$GNHDT,320.684,T*20
$PYRTM,2024,123.751724515475,14.861371925613
$GNGGA,180229.00,3435.77762439,N,12104.06105161,W,2,11,0.9,6.987,M,-37.514,M,4.0,0135*60
$PYRTM,2024,123.751724515475,14.861371925613
$GNHDT,320.222,T*28
$PYRTM,2024,123.751730248623,14.861377658762
