$PYRTM,2024,125.833333415625,16.942980825764
$GNGGA,200000.00,3454.23726500,N,12154.94916490,W,2,11,1.0,7.510,M,-39.180,M,4.0,0131*68
$PYRTM,2024,125.833333415625,16.942980825764
$GNHDT,85.313,T*17
$PYRTM,2024,125.833339152338,16.942986562477
$GNGGA,200000.50,3454.23735851,N,12154.94774622,W,2,11,1.0,7.376,M,-39.180,M,4.4,0131*65
$PYRTM,2024,125.833339152338,16.942986562477
$GNHDT,85.678,T*1F
$PYRTM,2024,125.833344991794,16.942992401933
$GNGGA,200001.00,3454.23742960,N,12154.94632696,W,2,11,1.0,7.196,M,-39.180,M,5.0,0131*67
$PYRTM,2024,125.833344991794,16.942992401933
$GNHDT,85.441,T*17
$PYRTM,2024,125.833350724132,16.942998134271
$GNGGA,200001.50,3454.23748445,N,12154.94491153,W,2,11,1.0,7.077,M,-39.180,M,5.4,0131*6D
$PYRTM,2024,125.833350724132,16.942998134271
$GNHDT,85.088,T*16
$PYRTM,2024,125.833356567118,16.943003977269
$GNGGA,200002.00,3454.23753193,N,12154.94349824,W,2,11,1.0,6.991,M,-39.180,M,6.0,0131*63
$PYRTM,2024,125.833356567118,16.943003977269
$GNHDT,84.662,T*15
$PYRTM,2024,125.833362304931,16.943009715069
$GNGGA,200002.50,3454.23760364,N,12154.94207963,W,2,11,1.0,6.941,M,-39.180,M,6.4,0131*6C
$PYRTM,2024,125.833362304931,16.943009715069
$GNHDT,84.142,T*10
$PYRTM,2024,125.833368143275,16.943015553414
$GNGGA,200003.00,3454.23771457,N,12154.94066815,W,2,11,1.0,6.951,M,-39.180,M,7.0,0131*6E
$PYRTM,2024,125.833368143275,16.943015553414
$GNHDT,83.841,T*1D
$PYRTM,2024,125.833373873171,16.943021283310
$GNGGA,200003.50,3454.23784205,N,12154.93927838,W,2,11,1.0,7.047,M,-39.180,M,7.4,0131*6F
$PYRTM,2024,125.833373873171,16.943021283310
$GNHDT,83.605,T*13
$PYRTM,2024,125.833379715347,16.943027125498
$GNGGA,200004.00,3454.23793055,N,12154.93791241,W,2,11,1.0,7.222,M,-39.180,M,7.0,0131*6E
$PYRTM,2024,125.833379715347,16.943027125498
$GNHDT,83.429,T*1F
$PYRTM,2024,125.833385445579,16.943032855718
$GNGGA,200004.50,3454.23796649,N,12154.93653909,W,2,11,1.0,7.440,M,-39.180,M,7.4,0131*6B
$PYRTM,2024,125.833385445579,16.943032855718
$GNHDT,83.927,T*1C
$PYRTM,2024,125.833391287847,16.943038697998
$GNGGA,200005.00,3454.23796216,N,12154.93514564,W,2,11,1.0,7.616,M,-39.180,M,7.0,0131*63
$PYRTM,2024,125.833391287847,16.943038697998
$GNHDT,84.081,T*1E
$PYRTM,2024,125.833397019363,16.943044429502
$GNGGA,200005.50,3454.23798633,N,12154.93371124,W,2,11,1.0,7.697,M,-39.180,M,7.4,0131*63
$PYRTM,2024,125.833397019363,16.943044429502
$GNHDT,83.792,T*1C
$PYRTM,2024,125.833402863044,16.943050273183
$GNGGA,200006.00,3454.23808770,N,12154.93224812,W,2,11,1.0,7.636,M,-39.180,M,4.0,0131*64
$PYRTM,2024,125.833402863044,16.943050273183
$GNHDT,83.770,T*10
$PYRTM,2024,125.833408600579,16.943056010729
$GNGGA,200006.50,3454.23829005,N,12154.93079616,W,2,11,1.0,7.510,M,-39.180,M,4.4,0131*64
$PYRTM,2024,125.833408600579,16.943056010729
$GNHDT,83.910,T*18
$PYRTM,2024,125.833414437083,16.943061847222
$GNGGA,200007.00,3454.23854238,N,12154.92937004,W,2,11,1.0,7.346,M,-39.179,M,5.0,0131*67
$PYRTM,2024,125.833414437083,16.943061847222
$GNHDT,83.885,T*15
$PYRTM,2024,125.833420173866,16.943067584005
$GNGGA,200007.50,3454.23876707,N,12154.92795856,W,2,11,1.0,7.235,M,-39.179,M,5.4,0131*63
$PYRTM,2024,125.833420173866,16.943067584005
$GNHDT,84.156,T*15
$PYRTM,2024,125.833426013588,16.943073423727
$GNGGA,200008.00,3454.23890822,N,12154.92653728,W,2,11,1.0,7.175,M,-39.179,M,6.0,0131*64
$PYRTM,2024,125.833426013588,16.943073423727
$GNHDT,84.531,T*10
$PYRTM,2024,125.833431741285,16.943079151435
$GNGGA,200008.50,3454.23894165,N,12154.92508968,W,2,11,1.0,7.176,M,-39.179,M,6.4,0131*6F
$PYRTM,2024,125.833431741285,16.943079151435
$GNHDT,83.917,T*1F
$PYRTM,2024,125.833437587731,16.943084997882
$GNGGA,200009.00,3454.23888782,N,12154.92361492,W,2,11,1.0,7.159,M,-39.179,M,7.0,0131*60
$PYRTM,2024,125.833437587731,16.943084997882
$GNHDT,83.970,T*1E
$PYRTM,2024,125.833443317894,16.943090728032
$GNGGA,200009.50,3454.23881921,N,12154.92210634,W,2,11,1.0,7.095,M,-39.179,M,7.4,0131*67
$PYRTM,2024,125.833443317894,16.943090728032
$GNHDT,83.897,T*16
$PYRTM,2024,125.833449157801,16.943096567940
$GNGGA,200010.00,3454.23881074,N,12154.92058394,W,2,11,1.0,6.961,M,-39.179,M,7.0,0131*65
$PYRTM,2024,125.833449157801,16.943096567940
$GNHDT,83.690,T*1F
$PYRTM,2024,125.833454891620,16.943102301759
$GNGGA,200010.50,3454.23891680,N,12154.91908473,W,2,11,1.0,6.826,M,-39.179,M,7.4,0131*6B
$PYRTM,2024,125.833454891620,16.943102301759
$GNHDT,83.684,T*1A
$PYRTM,2024,125.833460729769,16.943108139919
$GNGGA,200011.00,3454.23913955,N,12154.91763675,W,2,11,1.0,6.725,M,-39.179,M,7.0,0131*6C
$PYRTM,2024,125.833460729769,16.943108139919
$GNHDT,83.505,T*10
$PYRTM,2024,125.833466465648,16.943113875787
$GNGGA,200011.50,3454.23942398,N,12154.91623970,W,2,11,1.0,6.692,M,-39.179,M,7.4,0131*60
$PYRTM,2024,125.833466465648,16.943113875787
$GNHDT,83.695,T*1A
$PYRTM,2024,125.833472308831,16.943119718970
$GNGGA,200012.00,3454.23969903,N,12154.91489153,W,2,11,1.0,6.746,M,-39.179,M,4.0,0131*63
$PYRTM,2024,125.833472308831,16.943119718970
$GNHDT,84.070,T*10
$PYRTM,2024,125.833478038576,16.943125448715
$GNGGA,200012.50,3454.23987856,N,12154.91358196,W,2,11,1.0,6.849,M,-39.179,M,4.4,0131*61
$PYRTM,2024,125.833478038576,16.943125448715
$GNHDT,84.295,T*19
$PYRTM,2024,125.833483881065,16.943131291204
$GNGGA,200013.00,3454.23994231,N,12154.91228023,W,2,11,1.0,6.937,M,-39.179,M,5.0,0131*68
$PYRTM,2024,125.833483881065,16.943131291204
$GNHDT,84.548,T*1E
$PYRTM,2024,125.833489612708,16.943137022847
$GNGGA,200013.50,3454.23991180,N,12154.91097198,W,2,11,1.0,6.918,M,-39.179,M,5.4,0131*6F
$PYRTM,2024,125.833489612708,16.943137022847
$GNHDT,84.844,T*1F
$PYRTM,2024,125.833495454201,16.943142864340
$GNGGA,200014.00,3454.23984205,N,12154.90966672,W,2,11,1.0,6.747,M,-39.179,M,6.0,0131*61
$PYRTM,2024,125.833495454201,16.943142864340
$GNHDT,85.163,T*12
$PYRTM,2024,125.833501188681,16.943148598819
$GNGGA,200014.50,3454.23979799,N,12154.90837646,W,2,11,1.0,6.546,M,-39.179,M,6.4,0131*63
$PYRTM,2024,125.833501188681,16.943148598819
$GNHDT,85.696,T*1F
$PYRTM,2024,125.833507029074,16.943154439213
$GNGGA,200015.00,3454.23981306,N,12154.90711484,W,2,11,1.0,6.354,M,-39.179,M,7.0,0131*65
$PYRTM,2024,125.833507029074,16.943154439213
$GNHDT,86.290,T*1E
$PYRTM,2024,125.833512762037,16.943160172176
$GNGGA,200015.50,3454.23991821,N,12154.90586946,W,2,11,1.0,6.281,M,-39.178,M,7.4,0131*6C
$PYRTM,2024,125.833512762037,16.943160172176
$GNHDT,86.314,T*13
$PYRTM,2024,125.833518604618,16.943166014757
$GNGGA,200016.00,3454.24011123,N,12154.90461402,W,2,11,1.0,6.333,M,-39.178,M,7.0,0131*6E
$PYRTM,2024,125.833518604618,16.943166014757
$GNHDT,86.526,T*14
$PYRTM,2024,125.833524337095,16.943171747245
$GNGGA,200016.50,3454.24036250,N,12154.90331938,W,2,11,1.0,6.475,M,-39.178,M,7.4,0131*6E
$PYRTM,2024,125.833524337095,16.943171747245
$GNHDT,86.363,T*13
$PYRTM,2024,125.833530175405,16.943177585544
$GNGGA,200017.00,3454.24063024,N,12154.90196373,W,2,11,1.0,6.655,M,-39.178,M,7.0,0131*65
$PYRTM,2024,125.833530175405,16.943177585544
$GNHDT,86.089,T*14
$PYRTM,2024,125.833535910729,16.943183320868
$GNGGA,200017.50,3454.24085835,N,12154.90054864,W,2,11,1.0,6.831,M,-39.178,M,7.4,0131*6A
$PYRTM,2024,125.833535910729,16.943183320868
$GNHDT,85.765,T*12
$PYRTM,2024,125.833541754537,16.943189164676
$GNGGA,200018.00,3454.24101393,N,12154.89907291,W,2,11,1.0,7.005,M,-39.178,M,4.0,0131*64
$PYRTM,2024,125.833541754537,16.943189164676
$GNHDT,85.466,T*12
$PYRTM,2024,125.833547483495,16.943194893634
$GNGGA,200018.50,3454.24108442,N,12154.89755525,W,2,11,1.0,7.163,M,-39.178,M,4.4,0131*67
$PYRTM,2024,125.833547483495,16.943194893634
$GNHDT,84.637,T*15
$PYRTM,2024,125.833553323738,16.943200733877
$GNGGA,200019.00,3454.24108062,N,12154.89600589,W,2,11,1.0,7.327,M,-39.178,M,5.0,0131*65
$PYRTM,2024,125.833553323738,16.943200733877
$GNHDT,84.447,T*10
$PYRTM,2024,125.833559063194,16.943206473333
$GNGGA,200019.50,3454.24105330,N,12154.89444373,W,2,11,1.0,7.472,M,-39.178,M,5.4,0131*6B
$PYRTM,2024,125.833559063194,16.943206473333
$GNHDT,84.261,T*12
$PYRTM,2024,125.833564902616,16.943212312766
$GNGGA,200020.00,3454.24103582,N,12154.89287253,W,2,11,1.0,7.619,M,-39.178,M,6.0,0131*6F
$PYRTM,2024,125.833564902616,16.943212312766
$GNHDT,84.400,T*13
$PYRTM,2024,125.833570630926,16.943218041065
$GNGGA,200020.50,3454.24106688,N,12154.89130087,W,2,11,1.0,7.766,M,-39.178,M,6.4,0131*6F
$PYRTM,2024,125.833570630926,16.943218041065
$GNHDT,84.445,T*12
$PYRTM,2024,125.833576475174,16.943223885312
$GNGGA,200021.00,3454.24114770,N,12154.88972665,W,2,11,1.0,7.881,M,-39.178,M,7.0,0131*68
$PYRTM,2024,125.833576475174,16.943223885312
$GNHDT,84.385,T*19
$PYRTM,2024,125.833582209479,16.943229619618
$GNGGA,200021.50,3454.24127535,N,12154.88815098,W,2,11,1.0,7.944,M,-39.178,M,7.4,0131*66
$PYRTM,2024,125.833582209479,16.943229619618
$GNHDT,84.498,T*12
$PYRTM,2024,125.833588047303,16.943235457442
$GNGGA,200022.00,3454.24143342,N,12154.88658868,W,2,11,1.0,7.911,M,-39.178,M,7.0,0131*60
$PYRTM,2024,125.833588047303,16.943235457442
$GNHDT,84.524,T*14
$PYRTM,2024,125.833593778229,16.943241188368
$GNGGA,200022.50,3454.24161199,N,12154.88502971,W,2,11,1.0,7.890,M,-39.178,M,7.4,0131*68
$PYRTM,2024,125.833593778229,16.943241188368
$GNHDT,83.638,T*1D
$PYRTM,2024,125.833599621019,16.943247031157
$GNGGA,200023.00,3454.24172770,N,12154.88352702,W,2,11,1.0,7.908,M,-39.178,M,7.0,0131*62
$PYRTM,2024,125.833599621019,16.943247031157
$GNHDT,83.416,T*13
$PYRTM,2024,125.833605357083,16.943252767222
$GNGGA,200023.50,3454.24171796,N,12154.88210432,W,2,11,1.0,7.951,M,-39.177,M,7.4,0131*6C
$PYRTM,2024,125.833605357083,16.943252767222
$GNHDT,83.390,T*1A
$PYRTM,2024,125.833611196146,16.943258606296
$GNGGA,200024.00,3454.24162409,N,12154.88072253,W,2,11,1.0,7.953,M,-39.177,M,4.0,0131*6B
$PYRTM,2024,125.833611196146,16.943258606296
$GNHDT,83.469,T*1B
$PYRTM,2024,125.833616928947,16.943264339086
$GNGGA,200024.50,3454.24155101,N,12154.87934396,W,2,11,1.0,7.797,M,-39.177,M,4.4,0131*69
$PYRTM,2024,125.833616928947,16.943264339086
$GNHDT,83.540,T*11
$PYRTM,2024,125.833622767731,16.943270177870
$GNGGA,200025.00,3454.24157197,N,12154.87797425,W,2,11,1.0,7.455,M,-39.177,M,5.0,0131*60
$PYRTM,2024,125.833622767731,16.943270177870
$GNHDT,83.521,T*16
$PYRTM,2024,125.833628507512,16.943275917650
$GNGGA,200025.50,3454.24172586,N,12154.87664976,W,2,11,1.0,7.044,M,-39.177,M,5.4,0131*60
$PYRTM,2024,125.833628507512,16.943275917650
$GNHDT,83.807,T*1F
$PYRTM,2024,125.833634346829,16.943281756968
$GNGGA,200026.00,3454.24193966,N,12154.87540881,W,2,11,1.0,6.613,M,-39.177,M,6.0,0131*65
$PYRTM,2024,125.833634346829,16.943281756968
$GNHDT,84.546,T*10
$PYRTM,2024,125.833640074572,16.943287484711
$GNGGA,200026.50,3454.24216017,N,12154.87421438,W,2,11,1.0,6.302,M,-39.177,M,6.4,0131*68
$PYRTM,2024,125.833640074572,16.943287484711
$GNHDT,85.045,T*17
$PYRTM,2024,125.833645919387,16.943293329537
$GNGGA,200027.00,3454.24231053,N,12154.87304638,W,2,11,1.0,6.141,M,-39.177,M,7.0,0131*6B
$PYRTM,2024,125.833645919387,16.943293329537
$GNHDT,85.670,T*17
$PYRTM,2024,125.833651651169,16.943299061319
$GNGGA,200027.50,3454.24237822,N,12154.87185047,W,2,11,1.0,6.113,M,-39.177,M,7.4,0131*60
$PYRTM,2024,125.833651651169,16.943299061319
$GNHDT,86.262,T*13
$PYRTM,2024,125.833657490197,16.943304900336
$GNGGA,200028.00,3454.24239328,N,12154.87059890,W,2,11,1.0,6.148,M,-39.177,M,7.0,0131*6D
$PYRTM,2024,125.833657490197,16.943304900336
$GNHDT,86.394,T*1B
$PYRTM,2024,125.833663225868,16.943310636007
$GNGGA,200028.50,3454.24242677,N,12154.86928839,W,2,11,1.0,6.189,M,-39.177,M,7.4,0131*6F
$PYRTM,2024,125.833663225868,16.943310636007
$GNHDT,85.930,T*1C
$PYRTM,2024,125.833669067442,16.943316477581
$GNGGA,200029.00,3454.24251366,N,12154.86792291,W,2,11,1.0,6.269,M,-39.177,M,7.0,0131*62
$PYRTM,2024,125.833669067442,16.943316477581
$GNHDT,85.803,T*1D
$PYRTM,2024,125.833674800220,16.943322210359
$GNGGA,200029.50,3454.24267733,N,12154.86651659,W,2,11,1.0,6.415,M,-39.177,M,7.4,0131*61
$PYRTM,2024,125.833674800220,16.943322210359
$GNHDT,85.433,T*12
$PYRTM,2024,125.833680637222,16.943328047361
$GNGGA,200030.00,3454.24289836,N,12154.86506987,W,2,11,1.0,6.670,M,-39.177,M,4.0,0131*6D
$PYRTM,2024,125.833680637222,16.943328047361
$GNHDT,84.730,T*13
$PYRTM,2024,125.833686372697,16.943333782836
$GNGGA,200030.50,3454.24311291,N,12154.86360754,W,2,11,1.0,7.039,M,-39.177,M,4.4,0131*67
$PYRTM,2024,125.833686372697,16.943333782836
$GNHDT,83.913,T*1B
$PYRTM,2024,125.833692216412,16.943339626551
$GNGGA,200031.00,3454.24327473,N,12154.86212000,W,2,11,1.0,7.485,M,-39.177,M,5.0,0131*68
$PYRTM,2024,125.833692216412,16.943339626551
$GNHDT,83.421,T*17
$PYRTM,2024,125.833697949051,16.943345359190
$GNGGA,200031.50,3454.24335955,N,12154.86061495,W,2,11,1.0,7.898,M,-39.177,M,5.4,0131*6D
$PYRTM,2024,125.833697949051,16.943345359190
$GNHDT,82.998,T*19
$PYRTM,2024,125.833703788877,16.943351199016
$GNGGA,200032.00,3454.24339731,N,12154.85905817,W,2,11,1.0,8.149,M,-39.177,M,6.0,0131*68
$PYRTM,2024,125.833703788877,16.943351199016
$GNHDT,82.547,T*17
$PYRTM,2024,125.833709523866,16.943356934005
$GNGGA,200032.50,3454.24341315,N,12154.85748956,W,2,11,1.0,8.184,M,-39.177,M,6.4,0131*66
$PYRTM,2024,125.833709523866,16.943356934005
$GNHDT,82.244,T*13
$PYRTM,2024,125.833715359745,16.943362769884
$GNGGA,200033.00,3454.24345857,N,12154.85594351,W,2,11,1.0,8.009,M,-39.177,M,7.0,0131*64
$PYRTM,2024,125.833715359745,16.943362769884
$GNHDT,82.460,T*13
$PYRTM,2024,125.833721093461,16.943368503600
$GNGGA,200033.50,3454.24353542,N,12154.85445423,W,2,11,1.0,7.708,M,-39.177,M,7.4,0131*6D
$PYRTM,2024,125.833721093461,16.943368503600
$GNHDT,83.048,T*1C
$PYRTM,2024,125.833726935903,16.943374346042
$GNGGA,200034.00,3454.24360676,N,12154.85302980,W,2,11,1.0,7.374,M,-39.176,M,7.0,0131*61
$PYRTM,2024,125.833726935903,16.943374346042
$GNHDT,83.789,T*16
$PYRTM,2024,125.833732668426,16.943380078576
$GNGGA,200034.50,3454.24364519,N,12154.85165719,W,2,11,1.0,7.085,M,-39.176,M,7.4,0131*6E
$PYRTM,2024,125.833732668426,16.943380078576
$GNHDT,84.762,T*14
$PYRTM,2024,125.833738508762,16.943385918900
$GNGGA,200035.00,3454.24364584,N,12154.85032578,W,2,11,1.0,6.880,M,-39.176,M,7.0,0131*60
$PYRTM,2024,125.833738508762,16.943385918900
$GNHDT,85.388,T*15
$PYRTM,2024,125.833744245602,16.943391655741
$GNGGA,200035.50,3454.24366226,N,12154.84898467,W,2,11,1.0,6.735,M,-39.176,M,7.4,0131*6B
$PYRTM,2024,125.833744245602,16.943391655741
$GNHDT,85.473,T*16
$PYRTM,2024,125.833750086181,16.943397496319
$GNGGA,200036.00,3454.24369784,N,12154.84761634,W,2,11,1.0,6.625,M,-39.176,M,4.0,0131*65
$PYRTM,2024,125.833750086181,16.943397496319
$GNHDT,85.655,T*10
$PYRTM,2024,125.833755820613,16.943403230752
$GNGGA,200036.50,3454.24377159,N,12154.84624642,W,2,11,1.0,6.578,M,-39.176,M,4.4,0131*67
$PYRTM,2024,125.833755820613,16.943403230752
$GNHDT,85.776,T*10
$PYRTM,2024,125.833761661308,16.943409071447
$GNGGA,200037.00,3454.24387742,N,12154.84490615,W,2,11,1.0,6.626,M,-39.176,M,5.0,0131*62
$PYRTM,2024,125.833761661308,16.943409071447
$GNHDT,85.659,T*1C
$PYRTM,2024,125.833767391968,16.943414802106
$GNGGA,200037.50,3454.24402068,N,12154.84359887,W,2,11,1.0,6.747,M,-39.176,M,5.4,0131*67
$PYRTM,2024,125.833767391968,16.943414802106
$GNHDT,85.472,T*17
$PYRTM,2024,125.833773230405,16.943420640544
$GNGGA,200038.00,3454.24419833,N,12154.84230432,W,2,11,1.0,6.879,M,-39.176,M,6.0,0131*68
$PYRTM,2024,125.833773230405,16.943420640544
$GNHDT,85.308,T*1D
$PYRTM,2024,125.833778975741,16.943426385880
$GNGGA,200038.50,3454.24438177,N,12154.84098847,W,2,11,1.0,6.968,M,-39.176,M,6.4,0131*6C
$PYRTM,2024,125.833778975741,16.943426385880
$GNHDT,84.931,T*1C
$PYRTM,2024,125.833784804375,16.943432214514
$GNGGA,200039.00,3454.24451760,N,12154.83965732,W,2,11,1.0,7.013,M,-39.176,M,7.0,0131*67
$PYRTM,2024,125.833784804375,16.943432214514
$GNHDT,84.888,T*1F
$PYRTM,2024,125.833790539016,16.943437949155
$GNGGA,200039.50,3454.24456969,N,12154.83829987,W,2,11,1.0,7.012,M,-39.176,M,7.4,0131*6E
$PYRTM,2024,125.833790539016,16.943437949155
$GNHDT,85.368,T*1B
$PYRTM,2024,125.833796380532,16.943443790683
$GNGGA,200040.00,3454.24455027,N,12154.83690496,W,2,11,1.0,6.984,M,-39.176,M,7.0,0131*67
$PYRTM,2024,125.833796380532,16.943443790683
$GNHDT,85.157,T*15
$PYRTM,2024,125.833802116192,16.943449526331
$GNGGA,200040.50,3454.24448836,N,12154.83548126,W,2,11,1.0,6.948,M,-39.176,M,7.4,0131*6A
$PYRTM,2024,125.833802116192,16.943449526331
$GNHDT,84.892,T*14
$PYRTM,2024,125.833807954132,16.943455364282
$GNGGA,200041.00,3454.24444011,N,12154.83404357,W,2,11,1.0,6.932,M,-39.176,M,7.0,0131*6B
$PYRTM,2024,125.833807954132,16.943455364282
$GNHDT,84.654,T*10
$PYRTM,2024,125.833813689410,16.943461099549
$GNGGA,200041.50,3454.24444562,N,12154.83259087,W,2,11,1.0,6.991,M,-39.176,M,7.4,0131*62
$PYRTM,2024,125.833813689410,16.943461099549
$GNHDT,84.101,T*17
$PYRTM,2024,125.833819531343,16.943466941481
$GNGGA,200042.00,3454.24455058,N,12154.83112815,W,2,11,1.0,7.146,M,-39.176,M,4.0,0131*63
$PYRTM,2024,125.833819531343,16.943466941481
$GNHDT,83.566,T*15
$PYRTM,2024,125.833825270417,16.943472680556
$GNGGA,200042.50,3454.24474803,N,12154.82966466,W,2,11,1.0,7.366,M,-39.175,M,4.4,0131*66
$PYRTM,2024,125.833825270417,16.943472680556
$GNHDT,83.211,T*12
$PYRTM,2024,125.833831107373,16.943478517512
$GNGGA,200043.00,3454.24501288,N,12154.82821292,W,2,11,1.0,7.618,M,-39.175,M,5.0,0131*6E
$PYRTM,2024,125.833831107373,16.943478517512
$GNHDT,82.721,T*15
$PYRTM,2024,125.833836840058,16.943484250208
$GNGGA,200043.50,3454.24528442,N,12154.82678560,W,2,11,1.0,7.874,M,-39.175,M,5.4,0131*68
$PYRTM,2024,125.833836840058,16.943484250208
$GNHDT,82.518,T*1D
$PYRTM,2024,125.833842684861,16.943490095000
$GNGGA,200044.00,3454.24552204,N,12154.82534571,W,2,11,1.0,8.066,M,-39.175,M,6.0,0131*6B
$PYRTM,2024,125.833842684861,16.943490095000
$GNHDT,82.498,T*14
$PYRTM,2024,125.833848419560,16.943495829699
$GNGGA,200044.50,3454.24567297,N,12154.82389626,W,2,11,1.0,8.124,M,-39.175,M,6.4,0131*60
$PYRTM,2024,125.833848419560,16.943495829699
$GNHDT,82.641,T*12
$PYRTM,2024,125.833854255995,16.943501666134
$GNGGA,200045.00,3454.24575945,N,12154.82242934,W,2,11,1.0,8.039,M,-39.175,M,7.0,0131*61
$PYRTM,2024,125.833854255995,16.943501666134
$GNHDT,83.039,T*1A
$PYRTM,2024,125.833859993646,16.943507403785
$GNGGA,200045.50,3454.24579452,N,12154.82097496,W,2,11,1.0,7.826,M,-39.175,M,7.4,0131*61
$PYRTM,2024,125.833859993646,16.943507403785
$GNHDT,83.533,T*15
$PYRTM,2024,125.833865827211,16.943513237361
$GNGGA,200046.00,3454.24581915,N,12154.81956138,W,2,11,1.0,7.538,M,-39.175,M,7.0,0131*6E
$PYRTM,2024,125.833865827211,16.943513237361
$GNHDT,84.006,T*11
$PYRTM,2024,125.833871562338,16.943518972477
$GNGGA,200046.50,3454.24587923,N,12154.81819740,W,2,11,1.0,7.255,M,-39.175,M,7.4,0131*63
$PYRTM,2024,125.833871562338,16.943518972477
$GNHDT,84.570,T*15
$PYRTM,2024,125.833877399294,16.943524809433
$GNGGA,200047.00,3454.24600559,N,12154.81685406,W,2,11,1.0,7.017,M,-39.175,M,7.0,0131*60
$PYRTM,2024,125.833877399294,16.943524809433
$GNHDT,85.169,T*18
$PYRTM,2024,125.833883135602,16.943530545752
$GNGGA,200047.50,3454.24619862,N,12154.81549775,W,2,11,1.0,6.819,M,-39.175,M,7.4,0131*6F
$PYRTM,2024,125.833883135602,16.943530545752
$GNHDT,85.475,T*10
$PYRTM,2024,125.833888977106,16.943536387245
$GNGGA,200048.00,3454.24643978,N,12154.81413334,W,2,11,1.0,6.699,M,-39.175,M,4.0,0131*6E
$PYRTM,2024,125.833888977106,16.943536387245
$GNHDT,85.498,T*13
$PYRTM,2024,125.833894712523,16.943542122662
$GNGGA,200048.50,3454.24669198,N,12154.81275425,W,2,11,1.0,6.668,M,-39.175,M,4.4,0131*6E
$PYRTM,2024,125.833894712523,16.943542122662
$GNHDT,85.413,T*10
$PYRTM,2024,125.833900550637,16.943547960787
$GNGGA,200049.00,3454.24690489,N,12154.81135999,W,2,11,1.0,6.734,M,-39.175,M,5.0,0131*69
$PYRTM,2024,125.833900550637,16.943547960787
$GNHDT,85.122,T*17
$PYRTM,2024,125.833906282894,16.943553693032
$GNGGA,200049.50,3454.24704899,N,12154.80994833,W,2,11,1.0,6.858,M,-39.175,M,5.4,0131*6F
$PYRTM,2024,125.833906282894,16.943553693032
$GNHDT,85.184,T*1B
$PYRTM,2024,125.833912126215,16.943559536354
$GNGGA,200050.00,3454.24710610,N,12154.80853781,W,2,11,1.0,7.017,M,-39.175,M,6.0,0131*61
$PYRTM,2024,125.833912126215,16.943559536354
$GNHDT,85.089,T*17
$PYRTM,2024,125.833917861042,16.943565271181
$GNGGA,200050.50,3454.24710214,N,12154.80712703,W,2,11,1.0,7.176,M,-39.175,M,6.4,0131*66
$PYRTM,2024,125.833917861042,16.943565271181
$GNHDT,85.243,T*13
$PYRTM,2024,125.833923696887,16.943571107025
$GNGGA,200051.00,3454.24706946,N,12154.80573045,W,2,11,1.0,7.319,M,-39.174,M,7.0,0131*66
$PYRTM,2024,125.833923696887,16.943571107025
$GNHDT,85.414,T*17
$PYRTM,2024,125.833929430532,16.943576840671
$GNGGA,200051.50,3454.24702416,N,12154.80435337,W,2,11,1.0,7.355,M,-39.174,M,7.4,0131*66
$PYRTM,2024,125.833929430532,16.943576840671
$GNHDT,85.222,T*14
$PYRTM,2024,125.833935272604,16.943582682743
$GNGGA,200052.00,3454.24700366,N,12154.80297424,W,2,11,1.0,7.282,M,-39.174,M,7.0,0131*66
$PYRTM,2024,125.833935272604,16.943582682743
$GNHDT,85.498,T*13
$PYRTM,2024,125.833941010926,16.943588421065
$GNGGA,200052.50,3454.24704008,N,12154.80157793,W,2,11,1.0,7.110,M,-39.174,M,7.4,0131*60
$PYRTM,2024,125.833941010926,16.943588421065
$GNHDT,85.672,T*15
$PYRTM,2024,125.833946850463,16.943594260613
$GNGGA,200053.00,3454.24712753,N,12154.80019484,W,2,11,1.0,6.874,M,-39.174,M,7.0,0131*6A
$PYRTM,2024,125.833946850463,16.943594260613
$GNHDT,85.886,T*10
$PYRTM,2024,125.833952583900,16.943599994039
$GNGGA,200053.50,3454.24724467,N,12154.79882658,W,2,11,1.0,6.702,M,-39.174,M,7.4,0131*6B
$PYRTM,2024,125.833952583900,16.943599994039
$GNHDT,86.217,T*11
$PYRTM,2024,125.833958419051,16.943605829190
$GNGGA,200054.00,3454.24735868,N,12154.79746798,W,2,11,1.0,6.610,M,-39.174,M,4.0,0131*65
$PYRTM,2024,125.833958419051,16.943605829190
$GNHDT,86.078,T*1A
$PYRTM,2024,125.833964151227,16.943611561366
$GNGGA,200054.50,3454.24745481,N,12154.79608550,W,2,11,1.0,6.634,M,-39.174,M,4.4,0131*63
$PYRTM,2024,125.833964151227,16.943611561366
$GNHDT,86.103,T*17
$PYRTM,2024,125.833969994572,16.943617404711
$GNGGA,200055.00,3454.24752861,N,12154.79464264,W,2,11,1.0,6.710,M,-39.174,M,5.0,0131*69
$PYRTM,2024,125.833969994572,16.943617404711
$GNHDT,85.800,T*1E
$PYRTM,2024,125.833975726447,16.943623136586
$GNGGA,200055.50,3454.24755219,N,12154.79315745,W,2,11,1.0,6.804,M,-39.174,M,5.4,0131*67
$PYRTM,2024,125.833975726447,16.943623136586
$GNHDT,84.810,T*1E
$PYRTM,2024,125.833981568009,16.943628978148
$GNGGA,200056.00,3454.24755363,N,12154.79165955,W,2,11,1.0,6.938,M,-39.174,M,6.0,0131*6E
$PYRTM,2024,125.833981568009,16.943628978148
$GNHDT,84.099,T*17
$PYRTM,2024,125.833987300544,16.943634710683
$GNGGA,200056.50,3454.24757429,N,12154.79017459,W,2,11,1.0,7.116,M,-39.174,M,6.4,0131*64
$PYRTM,2024,125.833987300544,16.943634710683
$GNHDT,83.664,T*14
$PYRTM,2024,125.833993140775,16.943640550914
$GNGGA,200057.00,3454.24766955,N,12154.78869354,W,2,11,1.0,7.321,M,-39.174,M,7.0,0131*6D
$PYRTM,2024,125.833993140775,16.943640550914
$GNHDT,83.251,T*16
$PYRTM,2024,125.833998872905,16.943646283044
$GNGGA,200057.50,3454.24785617,N,12154.78721585,W,2,11,1.0,7.477,M,-39.174,M,7.4,0131*65
$PYRTM,2024,125.833998872905,16.943646283044
$GNHDT,83.327,T*16
$PYRTM,2024,125.834004716956,16.943652127095
$GNGGA,200058.00,3454.24812466,N,12154.78573457,W,2,11,1.0,7.588,M,-39.174,M,7.0,0131*64
$PYRTM,2024,125.834004716956,16.943652127095
$GNHDT,83.468,T*1A
$PYRTM,2024,125.834010450544,16.943657860694
$GNGGA,200058.50,3454.24837220,N,12154.78428476,W,2,11,1.0,7.694,M,-39.174,M,7.4,0131*64
$PYRTM,2024,125.834010450544,16.943657860694
$GNHDT,83.520,T*17
$PYRTM,2024,125.834016293889,16.943663704028
$GNGGA,200059.00,3454.24852747,N,12154.78285706,W,2,11,1.0,7.821,M,-39.174,M,7.0,0131*66
$PYRTM,2024,125.834016293889,16.943663704028
$GNHDT,84.066,T*17
$PYRTM,2024,125.834022027234,16.943669437373
$GNGGA,200059.50,3454.24853841,N,12154.78145433,W,2,11,1.0,7.913,M,-39.174,M,7.4,0131*65
$PYRTM,2024,125.834022027234,16.943669437373
$GNHDT,84.752,T*17
$PYRTM,2024,125.834027865683,16.943675275822
$GNGGA,200100.00,3454.24845621,N,12154.78004584,W,2,11,1.0,7.896,M,-39.174,M,4.0,0131*60
$PYRTM,2024,125.834027865683,16.943675275822
$GNHDT,84.960,T*18
$PYRTM,2024,125.834033597639,16.943681007778
$GNGGA,200100.50,3454.24838591,N,12154.77862156,W,2,11,1.0,7.751,M,-39.174,M,4.4,0131*6B
$PYRTM,2024,125.834033597639,16.943681007778
$GNHDT,85.220,T*16
$PYRTM,2024,125.834039437963,16.943686848102
$GNGGA,200101.00,3454.24840830,N,12154.77721529,W,2,11,1.0,7.487,M,-39.174,M,5.0,0131*6F
$PYRTM,2024,125.834039437963,16.943686848102
$GNHDT,85.371,T*13
$PYRTM,2024,125.834045171968,16.943692582106
$GNGGA,200101.50,3454.24856283,N,12154.77583850,W,2,11,1.0,7.190,M,-39.173,M,5.4,0131*66
$PYRTM,2024,125.834045171968,16.943692582106
$GNHDT,85.426,T*16
$PYRTM,2024,125.834051013611,16.943698423750
$GNGGA,200102.00,3454.24880523,N,12154.77449547,W,2,11,1.0,6.916,M,-39.173,M,6.0,0131*6A
$PYRTM,2024,125.834051013611,16.943698423750
$GNHDT,85.500,T*13
$PYRTM,2024,125.834056743646,16.943704153785
$GNGGA,200102.50,3454.24908094,N,12154.77314007,W,2,11,1.0,6.724,M,-39.173,M,6.4,0131*62
$PYRTM,2024,125.834056743646,16.943704153785
$GNHDT,85.597,T*1D
$PYRTM,2024,125.834062586910,16.943709997060
$GNGGA,200103.00,3454.24933136,N,12154.77175054,W,2,11,1.0,6.618,M,-39.173,M,7.0,0131*6F
$PYRTM,2024,125.834062586910,16.943709997060
$GNHDT,85.154,T*16
$PYRTM,2024,125.834068322743,16.943715732882
$GNGGA,200103.50,3454.24951885,N,12154.77032838,W,2,11,1.0,6.597,M,-39.173,M,7.4,0131*6F
$PYRTM,2024,125.834068322743,16.943715732882
$GNHDT,84.161,T*11
$PYRTM,2024,125.834074162234,16.943721572373
$GNGGA,200104.00,3454.24962862,N,12154.76886585,W,2,11,1.0,6.655,M,-39.173,M,7.0,0131*60
$PYRTM,2024,125.834074162234,16.943721572373
$GNHDT,83.255,T*12
$PYRTM,2024,125.834079896898,16.943727307037
$GNGGA,200104.50,3454.24966447,N,12154.76737091,W,2,11,1.0,6.772,M,-39.173,M,7.4,0131*6F
$PYRTM,2024,125.834079896898,16.943727307037
$GNHDT,82.579,T*1A
$PYRTM,2024,125.834085734387,16.943733144525
$GNGGA,200105.00,3454.24963490,N,12154.76584200,W,2,11,1.0,6.935,M,-39.173,M,7.0,0131*6D
$PYRTM,2024,125.834085734387,16.943733144525
$GNHDT,81.681,T*1D
$PYRTM,2024,125.834091467141,16.943738877280
$GNGGA,200105.50,3454.24955108,N,12154.76433149,W,2,11,1.0,7.088,M,-39.173,M,7.4,0131*60
$PYRTM,2024,125.834091467141,16.943738877280
$GNHDT,81.236,T*15
$PYRTM,2024,125.834097312731,16.943744722870
$GNGGA,200106.00,3454.24947913,N,12154.76284965,W,2,11,1.0,7.243,M,-39.173,M,4.0,0131*69
$PYRTM,2024,125.834097312731,16.943744722870
$GNHDT,80.972,T*1F
$PYRTM,2024,125.834103040903,16.943750451042
$GNGGA,200106.50,3454.24947061,N,12154.76142939,W,2,11,1.0,7.363,M,-39.173,M,4.4,0131*67
$PYRTM,2024,125.834103040903,16.943750451042
$GNHDT,81.107,T*14
$PYRTM,2024,125.834108881620,16.943756291759
$GNGGA,200107.00,3454.24958551,N,12154.76006197,W,2,11,1.0,7.431,M,-39.173,M,5.0,0131*63
$PYRTM,2024,125.834108881620,16.943756291759
$GNHDT,81.896,T*15
$PYRTM,2024,125.834114616493,16.943762026632
$GNGGA,200107.50,3454.24974508,N,12154.75877985,W,2,11,1.0,7.387,M,-39.173,M,5.4,0131*6C
$PYRTM,2024,125.834114616493,16.943762026632
$GNHDT,83.115,T*15
$PYRTM,2024,125.834120462338,16.943767872477
$GNGGA,200108.00,3454.24991905,N,12154.75755029,W,2,11,1.0,7.241,M,-39.173,M,6.0,0131*60
$PYRTM,2024,125.834120462338,16.943767872477
$GNHDT,84.225,T*12
$PYRTM,2024,125.834126194479,16.943773604630
$GNGGA,200108.50,3454.25007014,N,12154.75629803,W,2,11,1.0,7.032,M,-39.173,M,6.4,0131*63
$PYRTM,2024,125.834126194479,16.943773604630
$GNHDT,85.198,T*16
$PYRTM,2024,125.834132033738,16.943779443877
$GNGGA,200109.00,3454.25013207,N,12154.75502709,W,2,11,1.0,6.829,M,-39.173,M,7.0,0131*6B
$PYRTM,2024,125.834132033738,16.943779443877
$GNHDT,85.867,T*1F
$PYRTM,2024,125.834137763449,16.943785173588
$GNGGA,200109.50,3454.25011380,N,12154.75372947,W,2,11,1.0,6.645,M,-39.173,M,7.4,0131*67
$PYRTM,2024,125.834137763449,16.943785173588
$GNHDT,86.731,T*10
$PYRTM,2024,125.834143608993,16.943791019132
$GNGGA,200110.00,3454.25008295,N,12154.75240399,W,2,11,1.0,6.520,M,-39.172,M,7.0,0131*6B
$PYRTM,2024,125.834143608993,16.943791019132
$GNHDT,86.787,T*1D
$PYRTM,2024,125.834149340775,16.943796750914
$GNGGA,200110.50,3454.25008687,N,12154.75106721,W,2,11,1.0,6.465,M,-39.172,M,7.4,0131*6B
$PYRTM,2024,125.834149340775,16.943796750914
$GNHDT,86.596,T*1F
$PYRTM,2024,125.834155176771,16.943802586910
$GNGGA,200111.00,3454.25018587,N,12154.74972640,W,2,11,1.0,6.571,M,-39.172,M,7.0,0131*61
$PYRTM,2024,125.834155176771,16.943802586910
$GNHDT,86.421,T*12
$PYRTM,2024,125.834160914630,16.943808324780
$GNGGA,200111.50,3454.25037370,N,12154.74839895,W,2,11,1.0,6.853,M,-39.172,M,7.4,0131*66
$PYRTM,2024,125.834160914630,16.943808324780
$GNHDT,86.444,T*11
$PYRTM,2024,125.834166752187,16.943814162326
$GNGGA,200112.00,3454.25062409,N,12154.74706721,W,2,11,1.0,7.247,M,-39.172,M,4.0,0131*63
$PYRTM,2024,125.834166752187,16.943814162326
$GNHDT,86.317,T*10
$PYRTM,2024,125.834172490451,16.943819900590
$GNGGA,200112.50,3454.25089819,N,12154.74566444,W,2,11,1.0,7.649,M,-39.172,M,4.4,0131*64
$PYRTM,2024,125.834172490451,16.943819900590
$GNHDT,86.092,T*1E
$PYRTM,2024,125.834178329340,16.943825739479
$GNGGA,200113.00,3454.25117776,N,12154.74416452,W,2,11,1.0,7.952,M,-39.172,M,5.0,0131*61
$PYRTM,2024,125.834178329340,16.943825739479
$GNHDT,85.353,T*13
$PYRTM,2024,125.834184066308,16.943831476447
$GNGGA,200113.50,3454.25138964,N,12154.74258906,W,2,11,1.0,8.131,M,-39.172,M,5.4,0131*62
$PYRTM,2024,125.834184066308,16.943831476447
$GNHDT,84.053,T*11
$PYRTM,2024,125.834189898831,16.943837308970
$GNGGA,200114.00,3454.25149569,N,12154.74096755,W,2,11,1.0,8.210,M,-39.172,M,6.0,0131*68
$PYRTM,2024,125.834189898831,16.943837308970
$GNHDT,83.191,T*19
$PYRTM,2024,125.834195638981,16.943843049120
$GNGGA,200114.50,3454.25151097,N,12154.73933025,W,2,11,1.0,8.265,M,-39.172,M,6.4,0131*67
$PYRTM,2024,125.834195638981,16.943843049120
$GNHDT,81.793,T*1F
$PYRTM,2024,125.834201474132,16.943848884271
$GNGGA,200115.00,3454.25144893,N,12154.73771910,W,2,11,1.0,8.309,M,-39.172,M,7.0,0131*62
$PYRTM,2024,125.834201474132,16.943848884271
$GNHDT,80.712,T*17
$PYRTM,2024,125.834207214653,16.943854624803
$GNGGA,200115.50,3454.25136806,N,12154.73614597,W,2,11,1.0,8.332,M,-39.172,M,7.4,0131*63
$PYRTM,2024,125.834207214653,16.943854624803
$GNHDT,81.048,T*1E
$PYRTM,2024,125.834213052801,16.943860462940
$GNGGA,200116.00,3454.25133448,N,12154.73462879,W,2,11,1.0,8.325,M,-39.172,M,7.0,0131*6A
$PYRTM,2024,125.834213052801,16.943860462940
$GNHDT,81.095,T*1E
$PYRTM,2024,125.834218781736,16.943866191875
$GNGGA,200116.50,3454.25139505,N,12154.73317391,W,2,11,1.0,8.257,M,-39.172,M,7.4,0131*65
$PYRTM,2024,125.834218781736,16.943866191875
$GNHDT,81.343,T*16
$PYRTM,2024,125.834224622593,16.943872032731
$GNGGA,200117.00,3454.25156399,N,12154.73178657,W,2,11,1.0,8.112,M,-39.172,M,7.0,0131*69
$PYRTM,2024,125.834224622593,16.943872032731
$GNHDT,82.146,T*12
$PYRTM,2024,125.834230363530,16.943877773669
$GNGGA,200117.50,3454.25176850,N,12154.73048728,W,2,11,1.0,7.887,M,-39.172,M,7.4,0131*65
$PYRTM,2024,125.834230363530,16.943877773669
$GNHDT,83.223,T*13
$PYRTM,2024,125.834236198310,16.943883608461
$GNGGA,200118.00,3454.25192460,N,12154.72925367,W,2,11,1.0,7.602,M,-39.171,M,4.0,0131*61
$PYRTM,2024,125.834236198310,16.943883608461
$GNHDT,84.451,T*17
$PYRTM,2024,125.834241931678,16.943889341817
$GNGGA,200118.50,3454.25197931,N,12154.72806027,W,2,11,1.0,7.293,M,-39.171,M,4.4,0131*67
$PYRTM,2024,125.834241931678,16.943889341817
$GNHDT,85.783,T*1A
$PYRTM,2024,125.834247775174,16.943895185313
$GNGGA,200119.00,3454.25196278,N,12154.72685707,W,2,11,1.0,6.965,M,-39.171,M,5.0,0131*62
$PYRTM,2024,125.834247775174,16.943895185313
$GNHDT,86.546,T*12
$PYRTM,2024,125.834253506192,16.943900916331
$GNGGA,200119.50,3454.25192184,N,12154.72563636,W,2,11,1.0,6.574,M,-39.171,M,5.4,0131*63
$PYRTM,2024,125.834253506192,16.943900916331
$GNHDT,86.588,T*10
$PYRTM,2024,125.834259348924,16.943906759063
$GNGGA,200120.00,3454.25192955,N,12154.72440156,W,2,11,1.0,6.163,M,-39.171,M,6.0,0131*6C
$PYRTM,2024,125.834259348924,16.943906759063
$GNHDT,86.787,T*1D
$PYRTM,2024,125.834265084421,16.943912494560
$GNGGA,200120.50,3454.25200526,N,12154.72317060,W,2,11,1.0,5.890,M,-39.171,M,6.4,0131*6A
$PYRTM,2024,125.834265084421,16.943912494560
$GNHDT,86.903,T*1F
$PYRTM,2024,125.834270917789,16.943918327940
$GNGGA,200121.00,3454.25213443,N,12154.72194781,W,2,11,1.0,5.838,M,-39.171,M,7.0,0131*68
$PYRTM,2024,125.834270917789,16.943918327940
$GNHDT,86.859,T*11
$PYRTM,2024,125.834276654456,16.943924064595
$GNGGA,200121.50,3454.25229258,N,12154.72069595,W,2,11,1.0,5.988,M,-39.171,M,7.4,0131*62
$PYRTM,2024,125.834276654456,16.943924064595
$GNHDT,86.745,T*13
$PYRTM,2024,125.834282495972,16.943929906111
$GNGGA,200122.00,3454.25244764,N,12154.71938164,W,2,11,1.0,6.317,M,-39.171,M,7.0,0131*6A
$PYRTM,2024,125.834282495972,16.943929906111
$GNHDT,86.416,T*16
$PYRTM,2024,125.834288226053,16.943935636192
$GNGGA,200122.50,3454.25258693,N,12154.71800630,W,2,11,1.0,6.717,M,-39.171,M,7.4,0131*67
$PYRTM,2024,125.834288226053,16.943935636192
$GNHDT,85.703,T*12
$PYRTM,2024,125.834294072211,16.943941482361
$GNGGA,200123.00,3454.25269914,N,12154.71656449,W,2,11,1.0,7.147,M,-39.171,M,7.0,0131*66
$PYRTM,2024,125.834294072211,16.943941482361
$GNHDT,85.213,T*16
$PYRTM,2024,125.834299801400,16.943947211539
$GNGGA,200123.50,3454.25275907,N,12154.71506803,W,2,11,1.0,7.500,M,-39.171,M,7.4,0131*6B
$PYRTM,2024,125.834299801400,16.943947211539
$GNHDT,84.810,T*1E
$PYRTM,2024,125.834305642361,16.943953052500
$GNGGA,200124.00,3454.25278305,N,12154.71352425,W,2,11,1.0,7.747,M,-39.171,M,4.0,0131*65
$PYRTM,2024,125.834305642361,16.943953052500
$GNHDT,84.226,T*11
$PYRTM,2024,125.834311375694,16.943958785833
$GNGGA,200124.50,3454.25279304,N,12154.71196846,W,2,11,1.0,7.892,M,-39.171,M,4.4,0131*60
$PYRTM,2024,125.834311375694,16.943958785833
$GNHDT,83.575,T*17
$PYRTM,2024,125.834317216771,16.943964626910
$GNGGA,200125.00,3454.25281546,N,12154.71043108,W,2,11,1.0,8.009,M,-39.171,M,5.0,0131*69
$PYRTM,2024,125.834317216771,16.943964626910
$GNHDT,83.286,T*1C
$PYRTM,2024,125.834322951840,16.943970361979
$GNGGA,200125.50,3454.25286353,N,12154.70893609,W,2,11,1.0,8.122,M,-39.171,M,5.4,0131*67
$PYRTM,2024,125.834322951840,16.943970361979
$GNHDT,83.317,T*15
$PYRTM,2024,125.834328789005,16.943976199144
$GNGGA,200126.00,3454.25294656,N,12154.70747788,W,2,11,1.0,8.228,M,-39.171,M,6.0,0131*62
$PYRTM,2024,125.834328789005,16.943976199144
$GNHDT,83.628,T*1C
$PYRTM,2024,125.834334528519,16.943981938657
$GNGGA,200126.50,3454.25305667,N,12154.70604055,W,2,11,1.0,8.302,M,-39.171,M,6.4,0131*60
$PYRTM,2024,125.834334528519,16.943981938657
$GNHDT,83.890,T*11
$PYRTM,2024,125.834340362118,16.943987772257
$GNGGA,200127.00,3454.25318850,N,12154.70460327,W,2,11,1.0,8.315,M,-39.171,M,7.0,0131*67
$PYRTM,2024,125.834340362118,16.943987772257
$GNHDT,84.010,T*16
$PYRTM,2024,125.834346096123,16.943993506262
$GNGGA,200127.50,3454.25329733,N,12154.70319089,W,2,11,1.0,8.246,M,-39.171,M,7.4,0131*67
$PYRTM,2024,125.834346096123,16.943993506262
$GNHDT,84.542,T*14
$PYRTM,2024,125.834351941609,16.943999351748
$GNGGA,200128.00,3454.25339252,N,12154.70179053,W,2,11,1.0,8.105,M,-39.171,M,7.0,0131*6D
$PYRTM,2024,125.834351941609,16.943999351748
$GNHDT,84.927,T*1B
$PYRTM,2024,125.834357671447,16.944005081586
$GNGGA,200128.50,3454.25347214,N,12154.70040979,W,2,11,1.0,7.947,M,-39.170,M,7.4,0131*6D
$PYRTM,2024,125.834357671447,16.944005081586
$GNHDT,85.115,T*13
$PYRTM,2024,125.834363511632,16.944010921782
$GNGGA,200129.00,3454.25354262,N,12154.69906523,W,2,11,1.0,7.796,M,-39.170,M,7.0,0131*6C
$PYRTM,2024,125.834363511632,16.944010921782
$GNHDT,85.273,T*10
$PYRTM,2024,125.834369247130,16.944016657269
$GNGGA,200129.50,3454.25360797,N,12154.69775847,W,2,11,1.0,7.680,M,-39.170,M,7.4,0131*66
$PYRTM,2024,125.834369247130,16.944016657269
$GNHDT,85.593,T*19
$PYRTM,2024,125.834375083924,16.944022494063
$GNGGA,200130.00,3454.25370169,N,12154.69647811,W,2,11,1.0,7.566,M,-39.170,M,4.0,0131*62
$PYRTM,2024,125.834375083924,16.944022494063
$GNHDT,85.463,T*17
$PYRTM,2024,125.834380821354,16.944028231493
$GNGGA,200130.50,3454.25384801,N,12154.69521024,W,2,11,1.0,7.439,M,-39.170,M,4.4,0131*69
$PYRTM,2024,125.834380821354,16.944028231493
$GNHDT,85.593,T*19
$PYRTM,2024,125.834386665891,16.944034076030
$GNGGA,200131.00,3454.25405177,N,12154.69393809,W,2,11,1.0,7.216,M,-39.170,M,5.0,0131*6D
$PYRTM,2024,125.834386665891,16.944034076030
$GNHDT,85.585,T*1E
$PYRTM,2024,125.834392393912,16.944039804051
$GNGGA,200131.50,3454.25429422,N,12154.69264822,W,2,11,1.0,6.935,M,-39.170,M,5.4,0131*6C
$PYRTM,2024,125.834392393912,16.944039804051
$GNHDT,85.284,T*18
$PYRTM,2024,125.834398233623,16.944045643773
$GNGGA,200132.00,3454.25455604,N,12154.69135668,W,2,11,1.0,6.649,M,-39.170,M,6.0,0131*63
$PYRTM,2024,125.834398233623,16.944045643773
$GNHDT,84.918,T*17
$PYRTM,2024,125.834403969653,16.944051379803
$GNGGA,200132.50,3454.25478990,N,12154.69007645,W,2,11,1.0,6.451,M,-39.170,M,6.4,0131*6B
$PYRTM,2024,125.834403969653,16.944051379803
$GNHDT,84.803,T*1C
$PYRTM,2024,125.834409807697,16.944057217836
$GNGGA,200133.00,3454.25494445,N,12154.68879484,W,2,11,1.0,6.385,M,-39.170,M,7.0,0131*6C
$PYRTM,2024,125.834409807697,16.944057217836
$GNHDT,84.643,T*16
$PYRTM,2024,125.834415542824,16.944062952963
$GNGGA,200133.50,3454.25499037,N,12154.68748538,W,2,11,1.0,6.461,M,-39.170,M,7.4,0131*67
$PYRTM,2024,125.834415542824,16.944062952963
$GNHDT,84.286,T*1B
$PYRTM,2024,125.834421383183,16.944068793322
$GNGGA,200134.00,3454.25492827,N,12154.68611769,W,2,11,1.0,6.641,M,-39.170,M,7.0,0131*68
$PYRTM,2024,125.834421383183,16.944068793322
$GNHDT,84.097,T*19
$PYRTM,2024,125.834427114907,16.944074525046
$GNGGA,200134.50,3454.25481978,N,12154.68469642,W,2,11,1.0,6.859,M,-39.170,M,7.4,0131*62
$PYRTM,2024,125.834427114907,16.944074525046
$GNHDT,83.053,T*16
$PYRTM,2024,125.834432955382,16.944080365521
$GNGGA,200135.00,3454.25473075,N,12154.68321567,W,2,11,1.0,7.122,M,-39.170,M,7.0,0131*60
$PYRTM,2024,125.834432955382,16.944080365521
$GNHDT,82.335,T*14
$PYRTM,2024,125.834438692130,16.944086102280
$GNGGA,200135.50,3454.25473185,N,12154.68171234,W,2,11,1.0,7.403,M,-39.170,M,7.4,0131*6F
$PYRTM,2024,125.834438692130,16.944086102280
$GNHDT,82.179,T*1E
$PYRTM,2024,125.834444534630,16.944091944769
$GNGGA,200136.00,3454.25483375,N,12154.68020768,W,2,11,1.0,7.731,M,-39.170,M,4.0,0131*67
$PYRTM,2024,125.834444534630,16.944091944769
$GNHDT,82.259,T*1F
$PYRTM,2024,125.834450267176,16.944097677315
$GNGGA,200136.50,3454.25500809,N,12154.67872393,W,2,11,1.0,8.050,M,-39.170,M,4.4,0131*63
$PYRTM,2024,125.834450267176,16.944097677315
$GNHDT,82.269,T*1C
$PYRTM,2024,125.834456105509,16.944103515648
$GNGGA,200137.00,3454.25524084,N,12154.67723140,W,2,11,1.0,8.301,M,-39.170,M,5.0,0131*69
$PYRTM,2024,125.834456105509,16.944103515648
$GNHDT,82.144,T*10
$PYRTM,2024,125.834461837060,16.944109247199
$GNGGA,200137.50,3454.25544790,N,12154.67572879,W,2,11,1.0,8.445,M,-39.169,M,5.4,0131*66
$PYRTM,2024,125.834461837060,16.944109247199
$GNHDT,82.245,T*12
$PYRTM,2024,125.834467677778,16.944115087917
$GNGGA,200138.00,3454.25556683,N,12154.67421475,W,2,11,1.0,8.495,M,-39.169,M,6.0,0131*61
$PYRTM,2024,125.834467677778,16.944115087917
$GNHDT,82.450,T*10
$PYRTM,2024,125.834473415382,16.944120825521
$GNGGA,200138.50,3454.25557156,N,12154.67270274,W,2,11,1.0,8.459,M,-39.169,M,6.4,0131*6B
$PYRTM,2024,125.834473415382,16.944120825521
$GNHDT,82.859,T*15
$PYRTM,2024,125.834479256470,16.944126666609
$GNGGA,200139.00,3454.25549085,N,12154.67121471,W,2,11,1.0,8.316,M,-39.169,M,7.0,0131*62
$PYRTM,2024,125.834479256470,16.944126666609
$GNHDT,83.617,T*10
$PYRTM,2024,125.834484990046,16.944132400185
$GNGGA,200139.50,3454.25542391,N,12154.66975805,W,2,11,1.0,8.099,M,-39.169,M,7.4,0131*6D
$PYRTM,2024,125.834484990046,16.944132400185
$GNHDT,83.900,T*19
$PYRTM,2024,125.834490824294,16.944138234444
$GNGGA,200140.00,3454.25543202,N,12154.66835980,W,2,11,1.0,7.804,M,-39.169,M,7.0,0131*62
$PYRTM,2024,125.834490824294,16.944138234444
$GNHDT,84.367,T*15
$PYRTM,2024,125.834496561586,16.944143971725
$GNGGA,200140.50,3454.25552381,N,12154.66701135,W,2,11,1.0,7.518,M,-39.169,M,7.4,0131*67
$PYRTM,2024,125.834496561586,16.944143971725
$GNHDT,84.878,T*10
$PYRTM,2024,125.834502405799,16.944149815938
$GNGGA,200141.00,3454.25567835,N,12154.66572239,W,2,11,1.0,7.264,M,-39.169,M,7.0,0131*60
$PYRTM,2024,125.834502405799,16.944149815938
$GNHDT,85.467,T*13
$PYRTM,2024,125.834508137546,16.944155547685
$GNGGA,200141.50,3454.25589073,N,12154.66446014,W,2,11,1.0,7.075,M,-39.169,M,7.4,0131*62
$PYRTM,2024,125.834508137546,16.944155547685
$GNHDT,85.836,T*1B
$PYRTM,2024,125.834513978738,16.944161388877
$GNGGA,200142.00,3454.25611635,N,12154.66322792,W,2,11,1.0,6.943,M,-39.169,M,4.0,0131*64
$PYRTM,2024,125.834513978738,16.944161388877
$GNHDT,86.145,T*15
$PYRTM,2024,125.834519708565,16.944167118704
$GNGGA,200142.50,3454.25634862,N,12154.66198020,W,2,11,1.0,6.826,M,-39.169,M,4.4,0131*61
$PYRTM,2024,125.834519708565,16.944167118704
$GNHDT,86.406,T*17
$PYRTM,2024,125.834525550544,16.944172960683
$GNGGA,200143.00,3454.25654501,N,12154.66072588,W,2,11,1.0,6.777,M,-39.169,M,5.0,0131*67
$PYRTM,2024,125.834525550544,16.944172960683
$GNHDT,86.227,T*12
$PYRTM,2024,125.834531285880,16.944178696019
$GNGGA,200143.50,3454.25669319,N,12154.65944831,W,2,11,1.0,6.759,M,-39.169,M,5.4,0131*6B
$PYRTM,2024,125.834531285880,16.944178696019
$GNHDT,86.187,T*1B
$PYRTM,2024,125.834537125127,16.944184535266
$GNGGA,200144.00,3454.25677894,N,12154.65813613,W,2,11,1.0,6.770,M,-39.169,M,6.0,0131*69
$PYRTM,2024,125.834537125127,16.944184535266
$GNHDT,85.697,T*1E
$PYRTM,2024,125.834542857546,16.944190267685
$GNGGA,200144.50,3454.25683046,N,12154.65676689,W,2,11,1.0,6.801,M,-39.169,M,6.4,0131*63
$PYRTM,2024,125.834542857546,16.944190267685
$GNHDT,85.080,T*1E
$PYRTM,2024,125.834548694653,16.944196104792
$GNGGA,200145.00,3454.25686127,N,12154.65535961,W,2,11,1.0,6.891,M,-39.169,M,7.0,0131*65
$PYRTM,2024,125.834548694653,16.944196104792
$GNHDT,84.582,T*18
$PYRTM,2024,125.834554429931,16.944201840069
$GNGGA,200145.50,3454.25689177,N,12154.65393452,W,2,11,1.0,7.042,M,-39.169,M,7.4,0131*6E
$PYRTM,2024,125.834554429931,16.944201840069
$GNHDT,84.103,T*15
$PYRTM,2024,125.834560269410,16.944207679549
$GNGGA,200146.00,3454.25696207,N,12154.65248075,W,2,11,1.0,7.279,M,-39.168,M,7.0,0131*6B
$PYRTM,2024,125.834560269410,16.944207679549
$GNHDT,83.489,T*15
$PYRTM,2024,125.834566004468,16.944213414606
$GNGGA,200146.50,3454.25708096,N,12154.65101598,W,2,11,1.0,7.528,M,-39.168,M,7.4,0131*6D
$PYRTM,2024,125.834566004468,16.944213414606
$GNHDT,82.889,T*18
$PYRTM,2024,125.834571844942,16.944219255081
$GNGGA,200147.00,3454.25725016,N,12154.64951613,W,2,11,1.0,7.744,M,-39.168,M,7.0,0131*6E
$PYRTM,2024,125.834571844942,16.944219255081
$GNHDT,82.423,T*14
$PYRTM,2024,125.834577589583,16.944224999722
$GNGGA,200147.50,3454.25743779,N,12154.64800497,W,2,11,1.0,7.907,M,-39.168,M,7.4,0131*63
$PYRTM,2024,125.834577589583,16.944224999722
$GNHDT,82.336,T*17
$PYRTM,2024,125.834583417755,16.944230827894
$GNGGA,200148.00,3454.25760453,N,12154.64647519,W,2,11,1.0,8.020,M,-39.168,M,4.0,0131*6D
$PYRTM,2024,125.834583417755,16.944230827894
$GNHDT,82.014,T*14
$PYRTM,2024,125.834589160625,16.944236570764
$GNGGA,200148.50,3454.25767851,N,12154.64497858,W,2,11,1.0,8.114,M,-39.168,M,4.4,0131*64
$PYRTM,2024,125.834589160625,16.944236570764
$GNHDT,82.304,T*16
$PYRTM,2024,125.834594992164,16.944242402303
$GNGGA,200149.00,3454.25766905,N,12154.64350315,W,2,11,1.0,8.180,M,-39.168,M,5.0,0131*67
$PYRTM,2024,125.834594992164,16.944242402303
$GNHDT,82.481,T*1C
$PYRTM,2024,125.834600728808,16.944248138947
$GNGGA,200149.50,3454.25762098,N,12154.64204820,W,2,11,1.0,8.194,M,-39.168,M,5.4,0131*67
$PYRTM,2024,125.834600728808,16.944248138947
$GNHDT,83.001,T*11
$PYRTM,2024,125.834606568275,16.944253978414
$GNGGA,200150.00,3454.25761407,N,12154.64059023,W,2,11,1.0,8.132,M,-39.168,M,6.0,0131*61
$PYRTM,2024,125.834606568275,16.944253978414
$GNHDT,83.446,T*16
$PYRTM,2024,125.834612302384,16.944259712523
$GNGGA,200150.50,3454.25765145,N,12154.63916542,W,2,11,1.0,7.973,M,-39.168,M,6.4,0131*62
$PYRTM,2024,125.834612302384,16.944259712523
$GNHDT,84.067,T*16
$PYRTM,2024,125.834618142859,16.944265552998
$GNGGA,200151.00,3454.25776396,N,12154.63776901,W,2,11,1.0,7.790,M,-39.168,M,7.0,0131*6D
$PYRTM,2024,125.834618142859,16.944265552998
$GNHDT,84.648,T*1D
$PYRTM,2024,125.834623875313,16.944271285451
$GNGGA,200151.50,3454.25791563,N,12154.63641487,W,2,11,1.0,7.628,M,-39.168,M,7.4,0131*6D
$PYRTM,2024,125.834623875313,16.944271285451
$GNHDT,85.224,T*12
$PYRTM,2024,125.834629714711,16.944277124850
$GNGGA,200152.00,3454.25806903,N,12154.63508273,W,2,11,1.0,7.507,M,-39.168,M,7.0,0131*69
$PYRTM,2024,125.834629714711,16.944277124850
$GNHDT,86.078,T*1A
$PYRTM,2024,125.834635451042,16.944282861181
$GNGGA,200152.50,3454.25823609,N,12154.63373011,W,2,11,1.0,7.403,M,-39.168,M,7.4,0131*63
$PYRTM,2024,125.834635451042,16.944282861181
$GNHDT,86.638,T*18
$PYRTM,2024,125.834641288877,16.944288699028
$GNGGA,200153.00,3454.25840791,N,12154.63235076,W,2,11,1.0,7.280,M,-39.168,M,7.0,0131*69
$PYRTM,2024,125.834641288877,16.944288699028
$GNHDT,86.895,T*11
$PYRTM,2024,125.834647023322,16.944294433461
$GNGGA,200153.50,3454.25857169,N,12154.63093831,W,2,11,1.0,7.159,M,-39.168,M,7.4,0131*6D
$PYRTM,2024,125.834647023322,16.944294433461
$GNHDT,86.662,T*17
$PYRTM,2024,125.834652865833,16.944300275972
$GNGGA,200154.00,3454.25868930,N,12154.62951827,W,2,11,1.0,7.106,M,-39.168,M,4.0,0131*6B
$PYRTM,2024,125.834652865833,16.944300275972
$GNHDT,86.359,T*1A
$PYRTM,2024,125.834658598681,16.944306008819
$GNGGA,200154.50,3454.25875646,N,12154.62809140,W,2,11,1.0,7.130,M,-39.168,M,4.4,0131*69
$PYRTM,2024,125.834658598681,16.944306008819
$GNHDT,85.645,T*11
$PYRTM,2024,125.834664441100,16.944311851238
$GNGGA,200155.00,3454.25879231,N,12154.62663678,W,2,11,1.0,7.232,M,-39.168,M,5.0,0131*6F
$PYRTM,2024,125.834664441100,16.944311851238
$GNHDT,85.108,T*1F
$PYRTM,2024,125.834670174896,16.944317585035
$GNGGA,200155.50,3454.25883353,N,12154.62515692,W,2,11,1.0,7.354,M,-39.168,M,5.4,0131*69
$PYRTM,2024,125.834670174896,16.944317585035
$GNHDT,84.645,T*10
$PYRTM,2024,125.834676014514,16.944323424653
$GNGGA,200156.00,3454.25891772,N,12154.62365368,W,2,11,1.0,7.450,M,-39.167,M,6.0,0131*61
$PYRTM,2024,125.834676014514,16.944323424653
$GNHDT,83.729,T*1C
$PYRTM,2024,125.834681746933,16.944329157072
$GNGGA,200156.50,3454.25906342,N,12154.62215777,W,2,11,1.0,7.515,M,-39.167,M,6.4,0131*64
$PYRTM,2024,125.834681746933,16.944329157072
$GNHDT,82.994,T*15
$PYRTM,2024,125.834687585243,16.944334995382
$GNGGA,200157.00,3454.25924693,N,12154.62070350,W,2,11,1.0,7.588,M,-39.167,M,7.0,0131*68
$PYRTM,2024,125.834687585243,16.944334995382
$GNHDT,82.339,T*18
$PYRTM,2024,125.834693319479,16.944340729618
$GNGGA,200157.50,3454.25940262,N,12154.61930076,W,2,11,1.0,7.725,M,-39.167,M,7.4,0131*6D
$PYRTM,2024,125.834693319479,16.944340729618
$GNHDT,82.048,T*1D
$PYRTM,2024,125.834699161169,16.944346571308
$GNGGA,200158.00,3454.25949528,N,12154.61792642,W,2,11,1.0,7.853,M,-39.167,M,7.0,0131*6A
$PYRTM,2024,125.834699161169,16.944346571308
$GNHDT,81.989,T*1A
$PYRTM,2024,125.834704894954,16.944352305093
$GNGGA,200158.50,3454.25951279,N,12154.61655544,W,2,11,1.0,7.943,M,-39.167,M,7.4,0131*6E
$PYRTM,2024,125.834704894954,16.944352305093
$GNHDT,82.070,T*16
$PYRTM,2024,125.834710734225,16.944358144363
$GNGGA,200159.00,3454.25946163,N,12154.61518744,W,2,11,1.0,7.960,M,-39.167,M,7.0,0131*69
$PYRTM,2024,125.834710734225,16.944358144363
$GNHDT,82.518,T*1D
$PYRTM,2024,125.834716472512,16.944363882650
$GNGGA,200159.50,3454.25939205,N,12154.61382904,W,2,11,1.0,7.879,M,-39.167,M,7.4,0131*65
$PYRTM,2024,125.834716472512,16.944363882650
$GNHDT,83.117,T*17
$PYRTM,2024,125.834722311910,16.944369722049
$GNGGA,200200.00,3454.25936050,N,12154.61248627,W,2,11,1.0,7.737,M,-39.167,M,4.0,0131*69
$PYRTM,2024,125.834722311910,16.944369722049
$GNHDT,83.669,T*19
$PYRTM,2024,125.834728041516,16.944375451655
$GNGGA,200200.50,3454.25941145,N,12154.61114588,W,2,11,1.0,7.559,M,-39.167,M,4.4,0131*6B
$PYRTM,2024,125.834728041516,16.944375451655
$GNHDT,84.247,T*16
$PYRTM,2024,125.834733883519,16.944381293657
$GNGGA,200201.00,3454.25956932,N,12154.60978381,W,2,11,1.0,7.361,M,-39.167,M,5.0,0131*65
$PYRTM,2024,125.834733883519,16.944381293657
$GNHDT,84.572,T*17
$PYRTM,2024,125.834739620625,16.944387030764
$GNGGA,200201.50,3454.25981389,N,12154.60840259,W,2,11,1.0,7.204,M,-39.167,M,5.4,0131*68
$PYRTM,2024,125.834739620625,16.944387030764
$GNHDT,84.652,T*16
$PYRTM,2024,125.834745455336,16.944392865475
$GNGGA,200202.00,3454.26008863,N,12154.60699719,W,2,11,1.0,7.134,M,-39.167,M,6.0,0131*66
$PYRTM,2024,125.834745455336,16.944392865475
$GNHDT,84.927,T*1B
$PYRTM,2024,125.834751194676,16.944398604815
$GNGGA,200202.50,3454.26032004,N,12154.60557803,W,2,11,1.0,7.191,M,-39.167,M,6.4,0131*6D
$PYRTM,2024,125.834751194676,16.944398604815
$GNHDT,84.975,T*1C
$PYRTM,2024,125.834757028808,16.944404438947
$GNGGA,200203.00,3454.26048145,N,12154.60412853,W,2,11,1.0,7.379,M,-39.167,M,7.0,0131*64
$PYRTM,2024,125.834757028808,16.944404438947
$GNHDT,85.173,T*13
$PYRTM,2024,125.834762768646,16.944410178785
$GNGGA,200203.50,3454.26058873,N,12154.60264106,W,2,11,1.0,7.596,M,-39.167,M,7.4,0131*61
$PYRTM,2024,125.834762768646,16.944410178785
$GNHDT,85.087,T*19
$PYRTM,2024,125.834768602963,16.944416013102
$GNGGA,200204.00,3454.26069104,N,12154.60110670,W,2,11,1.0,7.771,M,-39.167,M,7.0,0131*61
$PYRTM,2024,125.834768602963,16.944416013102
$GNHDT,84.379,T*1A
$PYRTM,2024,125.834774336933,16.944421747072
$GNGGA,200204.50,3454.26081390,N,12154.59953706,W,2,11,1.0,7.854,M,-39.166,M,7.4,0131*65
$PYRTM,2024,125.834774336933,16.944421747072
$GNHDT,83.951,T*1D
$PYRTM,2024,125.834780179861,16.944427590000
$GNGGA,200205.00,3454.26094333,N,12154.59795850,W,2,11,1.0,7.889,M,-39.166,M,7.0,0131*60
$PYRTM,2024,125.834780179861,16.944427590000
$GNHDT,83.588,T*15
$PYRTM,2024,125.834785914850,16.944433324988
$GNGGA,200205.50,3454.26106423,N,12154.59639204,W,2,11,1.0,7.904,M,-39.166,M,7.4,0131*65
$PYRTM,2024,125.834785914850,16.944433324988
$GNHDT,83.166,T*11
$PYRTM,2024,125.834791755451,16.944439165590
$GNGGA,200206.00,3454.26116435,N,12154.59486978,W,2,11,1.0,7.916,M,-39.166,M,4.0,0131*67
$PYRTM,2024,125.834791755451,16.944439165590
$GNHDT,82.979,T*16
$PYRTM,2024,125.834797488796,16.944444898935
$GNGGA,200206.50,3454.26126287,N,12154.59339607,W,2,11,1.0,7.956,M,-39.166,M,4.4,0131*6A
$PYRTM,2024,125.834797488796,16.944444898935
$GNHDT,82.473,T*11
$PYRTM,2024,125.834803326829,16.944450736968
$GNGGA,200207.00,3454.26138382,N,12154.59195757,W,2,11,1.0,7.994,M,-39.166,M,5.0,0131*6E
$PYRTM,2024,125.834803326829,16.944450736968
$GNHDT,82.399,T*12
$PYRTM,2024,125.834809059653,16.944456469792
$GNGGA,200207.50,3454.26150137,N,12154.59055121,W,2,11,1.0,7.968,M,-39.166,M,5.4,0131*64
$PYRTM,2024,125.834809059653,16.944456469792
$GNHDT,83.016,T*17
$PYRTM,2024,125.834814902836,16.944462312986
$GNGGA,200208.00,3454.26156936,N,12154.58922041,W,2,11,1.0,7.811,M,-39.166,M,6.0,0131*66
$PYRTM,2024,125.834814902836,16.944462312986
$GNHDT,83.565,T*16
$PYRTM,2024,125.834820635567,16.944468045706
$GNGGA,200208.50,3454.26162138,N,12154.58791260,W,2,11,1.0,7.566,M,-39.166,M,6.4,0131*6C
$PYRTM,2024,125.834820635567,16.944468045706
$GNHDT,83.581,T*1C
$PYRTM,2024,125.834826476620,16.944473886759
$GNGGA,200209.00,3454.26166458,N,12154.58662048,W,2,11,1.0,7.257,M,-39.166,M,7.0,0131*6A
$PYRTM,2024,125.834826476620,16.944473886759
$GNHDT,84.194,T*1B
$PYRTM,2024,125.834832209132,16.944479619271
$GNGGA,200209.50,3454.26172952,N,12154.58529585,W,2,11,1.0,6.991,M,-39.166,M,7.4,0131*61
$PYRTM,2024,125.834832209132,16.944479619271
$GNHDT,84.469,T*1C
$PYRTM,2024,125.834838050868,16.944485461019
$GNGGA,200210.00,3454.26178103,N,12154.58394456,W,2,11,1.0,6.820,M,-39.166,M,7.0,0131*6A
$PYRTM,2024,125.834838050868,16.944485461019
$GNHDT,84.749,T*1D
$PYRTM,2024,125.834843783762,16.944491193900
$GNGGA,200210.50,3454.26175678,N,12154.58262584,W,2,11,1.0,6.757,M,-39.166,M,7.4,0131*64
$PYRTM,2024,125.834843783762,16.944491193900
$GNHDT,84.856,T*1C
$PYRTM,2024,125.834849622917,16.944497033056
$GNGGA,200211.00,3454.26170671,N,12154.58131425,W,2,11,1.0,6.863,M,-39.166,M,7.0,0131*6F
$PYRTM,2024,125.834849622917,16.944497033056
$GNHDT,85.000,T*16
$PYRTM,2024,125.834855360069,16.944502770208
$GNGGA,200211.50,3454.26169158,N,12154.57999604,W,2,11,1.0,7.104,M,-39.166,M,7.4,0131*67
$PYRTM,2024,125.834855360069,16.944502770208
$GNHDT,85.401,T*13
$PYRTM,2024,125.834861200428,16.944508610579
$GNGGA,200212.00,3454.26174404,N,12154.57866183,W,2,11,1.0,7.386,M,-39.166,M,4.0,0131*67
$PYRTM,2024,125.834861200428,16.944508610579
$GNHDT,85.903,T*1C
$PYRTM,2024,125.834866938183,16.944514348322
$GNGGA,200212.50,3454.26190405,N,12154.57727741,W,2,11,1.0,7.594,M,-39.166,M,4.4,0131*6A
$PYRTM,2024,125.834866938183,16.944514348322
$GNHDT,86.266,T*17
$PYRTM,2024,125.834872774225,16.944520184375
$GNGGA,200213.00,3454.26215927,N,12154.57581275,W,2,11,1.0,7.626,M,-39.165,M,5.0,0131*6D
$PYRTM,2024,125.834872774225,16.944520184375
$GNHDT,86.160,T*12
$PYRTM,2024,125.834878505208,16.944525915347
$GNGGA,200213.50,3454.26242342,N,12154.57429494,W,2,11,1.0,7.553,M,-39.165,M,5.4,0131*6C
$PYRTM,2024,125.834878505208,16.944525915347
$GNHDT,85.860,T*18
$PYRTM,2024,125.834884345417,16.944531755556
$GNGGA,200214.00,3454.26263344,N,12154.57275637,W,2,11,1.0,7.465,M,-39.165,M,6.0,0131*6C
$PYRTM,2024,125.834884345417,16.944531755556
$GNHDT,85.681,T*19
$PYRTM,2024,125.834890082500,16.944537492639
$GNGGA,200214.50,3454.26273438,N,12154.57123004,W,2,11,1.0,7.463,M,-39.165,M,6.4,0131*60
$PYRTM,2024,125.834890082500,16.944537492639
$GNHDT,85.360,T*13
$PYRTM,2024,125.834895930671,16.944543340810
$GNGGA,200215.00,3454.26272453,N,12154.56972395,W,2,11,1.0,7.576,M,-39.165,M,7.0,0131*6E
$PYRTM,2024,125.834895930671,16.944543340810
$GNHDT,85.746,T*13
$PYRTM,2024,125.834901655833,16.944549065972
$GNGGA,200215.50,3454.26264642,N,12154.56822670,W,2,11,1.0,7.754,M,-39.165,M,7.4,0131*62
$PYRTM,2024,125.834901655833,16.944549065972
$GNHDT,86.114,T*11
$PYRTM,2024,125.834907495509,16.944554905648
$GNGGA,200216.00,3454.26256194,N,12154.56670255,W,2,11,1.0,7.896,M,-39.165,M,7.0,0131*66
$PYRTM,2024,125.834907495509,16.944554905648
$GNHDT,86.135,T*12
$PYRTM,2024,125.834913232546,16.944560642697
$GNGGA,200216.50,3454.26254894,N,12154.56513363,W,2,11,1.0,7.932,M,-39.165,M,7.4,0131*61
$PYRTM,2024,125.834913232546,16.944560642697
$GNHDT,86.111,T*14
$PYRTM,2024,125.834919066343,16.944566476481
$GNGGA,200217.00,3454.26266016,N,12154.56352296,W,2,11,1.0,7.875,M,-39.165,M,7.0,0131*68
$PYRTM,2024,125.834919066343,16.944566476481
$GNHDT,85.573,T*17
$PYRTM,2024,125.834924802488,16.944572212627
$GNGGA,200217.50,3454.26285099,N,12154.56194276,W,2,11,1.0,7.773,M,-39.165,M,7.4,0131*6C
$PYRTM,2024,125.834924802488,16.944572212627
$GNHDT,85.496,T*1D
$PYRTM,2024,125.834930641725,16.944578051863
$GNGGA,200218.00,3454.26310401,N,12154.56040165,W,2,11,1.0,7.702,M,-39.165,M,4.0,0131*66
$PYRTM,2024,125.834930641725,16.944578051863
$GNHDT,85.189,T*16
$PYRTM,2024,125.834936377025,16.944583787164
$GNGGA,200218.50,3454.26333581,N,12154.55893754,W,2,11,1.0,7.724,M,-39.165,M,4.4,0131*6A
$PYRTM,2024,125.834936377025,16.944583787164
$GNHDT,84.784,T*1C
$PYRTM,2024,125.834942216690,16.944589626840
$GNGGA,200219.00,3454.26350228,N,12154.55752137,W,2,11,1.0,7.769,M,-39.165,M,5.0,0131*62
$PYRTM,2024,125.834942216690,16.944589626840
$GNHDT,84.590,T*1B
$PYRTM,2024,125.834947952292,16.944595362431
$GNGGA,200219.50,3454.26358476,N,12154.55612618,W,2,11,1.0,7.848,M,-39.165,M,5.4,0131*65
$PYRTM,2024,125.834947952292,16.944595362431
$GNHDT,83.838,T*13
$PYRTM,2024,125.834953793600,16.944601203738
$GNGGA,200220.00,3454.26357601,N,12154.55475389,W,2,11,1.0,7.827,M,-39.165,M,6.0,0131*67
$PYRTM,2024,125.834953793600,16.944601203738
$GNHDT,83.932,T*18
$PYRTM,2024,125.834959523414,16.944606933553
$GNGGA,200220.50,3454.26353444,N,12154.55338075,W,2,11,1.0,7.671,M,-39.165,M,6.4,0131*62
$PYRTM,2024,125.834959523414,16.944606933553
$GNHDT,83.841,T*1D
$PYRTM,2024,125.834965364306,16.944612774456
$GNGGA,200221.00,3454.26348394,N,12154.55202140,W,2,11,1.0,7.313,M,-39.164,M,7.0,0131*6C
$PYRTM,2024,125.834965364306,16.944612774456
$GNHDT,84.009,T*1E
$PYRTM,2024,125.834971101331,16.944618511493
$GNGGA,200221.50,3454.26345706,N,12154.55065142,W,2,11,1.0,6.902,M,-39.164,M,7.4,0131*65
$PYRTM,2024,125.834971101331,16.944618511493
$GNHDT,84.380,T*1C
$PYRTM,2024,125.834976939109,16.944624349248
$GNGGA,200222.00,3454.26347809,N,12154.54928884,W,2,11,1.0,6.514,M,-39.164,M,7.0,0131*6C
$PYRTM,2024,125.834976939109,16.944624349248
$GNHDT,84.438,T*18
$PYRTM,2024,125.834982670833,16.944630080972
$GNGGA,200222.50,3454.26355011,N,12154.54794831,W,2,11,1.0,6.305,M,-39.164,M,7.4,0131*6E
$PYRTM,2024,125.834982670833,16.944630080972
$GNHDT,84.374,T*17
$PYRTM,2024,125.834988512477,16.944635922616
$GNGGA,200223.00,3454.26367566,N,12154.54664748,W,2,11,1.0,6.312,M,-39.164,M,7.0,0131*63
$PYRTM,2024,125.834988512477,16.944635922616
$GNHDT,84.440,T*17
$PYRTM,2024,125.834994247280,16.944641657431
$GNGGA,200223.50,3454.26385488,N,12154.54536957,W,2,11,1.0,6.504,M,-39.164,M,7.4,0131*6A
$PYRTM,2024,125.834994247280,16.944641657431
$GNHDT,85.026,T*12
$PYRTM,2024,125.835000085567,16.944647495706
$GNGGA,200224.00,3454.26406281,N,12154.54407858,W,2,11,1.0,6.805,M,-39.164,M,4.0,0131*6D
$PYRTM,2024,125.835000085567,16.944647495706
$GNHDT,85.227,T*11
$PYRTM,2024,125.835005821921,16.944653232060
$GNGGA,200224.50,3454.26425511,N,12154.54271781,W,2,11,1.0,7.036,M,-39.164,M,4.4,0131*66
$PYRTM,2024,125.835005821921,16.944653232060
$GNHDT,85.420,T*10
$PYRTM,2024,125.835011664271,16.944659074410
$GNGGA,200225.00,3454.26439980,N,12154.54126184,W,2,11,1.0,7.154,M,-39.164,M,5.0,0131*69
$PYRTM,2024,125.835011664271,16.944659074410
$GNHDT,85.328,T*1F
$PYRTM,2024,125.835017392581,16.944664802720
$GNGGA,200225.50,3454.26449401,N,12154.53973405,W,2,11,1.0,7.169,M,-39.164,M,5.4,0131*66
$PYRTM,2024,125.835017392581,16.944664802720
$GNHDT,84.758,T*1D
$PYRTM,2024,125.835023235787,16.944670645926
$GNGGA,200226.00,3454.26455430,N,12154.53815595,W,2,11,1.0,7.168,M,-39.164,M,6.0,0131*60
$PYRTM,2024,125.835023235787,16.944670645926
$GNHDT,83.894,T*15
$PYRTM,2024,125.835028971910,16.944676382049
$GNGGA,200226.50,3454.26458624,N,12154.53656585,W,2,11,1.0,7.232,M,-39.164,M,6.4,0131*6F
$PYRTM,2024,125.835028971910,16.944676382049
$GNHDT,83.728,T*1D
$PYRTM,2024,125.835034808333,16.944682218472
$GNGGA,200227.00,3454.26460933,N,12154.53497395,W,2,11,1.0,7.414,M,-39.164,M,7.0,0131*66
$PYRTM,2024,125.835034808333,16.944682218472
$GNHDT,82.849,T*14
$PYRTM,2024,125.835040541285,16.944687951424
$GNGGA,200227.50,3454.26464175,N,12154.53339690,W,2,11,1.0,7.678,M,-39.164,M,7.4,0131*62
$PYRTM,2024,125.835040541285,16.944687951424
$GNHDT,82.494,T*18
$PYRTM,2024,125.835046383241,16.944693793380
$GNGGA,200228.00,3454.26471201,N,12154.53183621,W,2,11,1.0,7.963,M,-39.164,M,7.0,0131*64
$PYRTM,2024,125.835046383241,16.944693793380
$GNHDT,82.205,T*16
$PYRTM,2024,125.835052115324,16.944699525463
$GNGGA,200228.50,3454.26482317,N,12154.53034129,W,2,11,1.0,8.204,M,-39.164,M,7.4,0131*68
$PYRTM,2024,125.835052115324,16.944699525463
$GNHDT,82.347,T*11
$PYRTM,2024,125.835057954815,16.944705364954
$GNGGA,200229.00,3454.26498611,N,12154.52889427,W,2,11,1.0,8.339,M,-39.164,M,7.0,0131*6B
$PYRTM,2024,125.835057954815,16.944705364954
$GNHDT,82.962,T*1C
$PYRTM,2024,125.835063696019,16.944711106157
$GNGGA,200229.50,3454.26515522,N,12154.52748862,W,2,11,1.0,8.303,M,-39.164,M,7.4,0131*6B
$PYRTM,2024,125.835063696019,16.944711106157
$GNHDT,83.794,T*1A
