$PYRTM,2024,126.000000057650,17.109647467789
$GNGGA,000000.00,3447.68757356,N,12139.02483618,W,2,12,0.8,7.956,M,-38.668,M,4.0,0131*67
$PYRTM,2024,126.000000057650,17.109647467789
$GNHDT,134.622,T*2B
$PYRTM,2024,126.000005795116,17.109653205255
$GNGGA,000000.50,3447.68668500,N,12139.02405094,W,2,12,0.8,7.704,M,-38.668,M,4.4,0131*6B
$PYRTM,2024,126.000005795116,17.109653205255
$GNHDT,134.425,T*2E
$PYRTM,2024,126.000011629792,17.109659039931
$GNGGA,000001.00,3447.68582334,N,12139.02328142,W,2,12,0.8,7.470,M,-38.668,M,5.0,0131*6E
$PYRTM,2024,126.000011629792,17.109659039931
$GNHDT,134.462,T*2D
$PYRTM,2024,126.000017368299,17.109664778438
$GNGGA,000001.50,3447.68499384,N,12139.02250536,W,2,12,0.8,7.256,M,-38.668,M,5.4,0131*64
$PYRTM,2024,126.000017368299,17.109664778438
$GNHDT,134.318,T*27
$PYRTM,2024,126.000023209699,17.109670620012
$GNGGA,000002.00,3447.68419818,N,12139.02173338,W,2,12,0.8,7.095,M,-38.668,M,6.0,0131*64
$PYRTM,2024,126.000023209699,17.109670620012
$GNHDT,134.467,T*28
$PYRTM,2024,126.000028942234,17.109676352373
$GNGGA,000002.50,3447.68341020,N,12139.02096288,W,2,12,0.8,6.976,M,-38.668,M,6.4,0131*69
$PYRTM,2024,126.000028942234,17.109676352373
$GNHDT,134.454,T*28
$PYRTM,2024,126.000034779225,17.109682189363
$GNGGA,000003.00,3447.68263100,N,12139.02019268,W,2,12,0.8,6.893,M,-38.668,M,7.0,0131*69
$PYRTM,2024,126.000034779225,17.109682189363
$GNHDT,134.725,T*2D
$PYRTM,2024,126.000040515602,17.109687925741
$GNGGA,000003.50,3447.68184974,N,12139.01942216,W,2,12,0.8,6.872,M,-38.668,M,7.4,0131*6B
$PYRTM,2024,126.000040515602,17.109687925741
$GNHDT,134.417,T*2F
$PYRTM,2024,126.000046355174,17.109693765312
$GNGGA,000004.00,3447.68104208,N,12139.01866226,W,2,12,0.8,6.930,M,-38.668,M,7.0,0131*66
$PYRTM,2024,126.000046355174,17.109693765312
$GNHDT,134.288,T*2F
$PYRTM,2024,126.000052091481,17.109699501620
$GNGGA,000004.50,3447.68020374,N,12139.01790483,W,2,12,0.8,7.058,M,-38.668,M,7.4,0131*63
$PYRTM,2024,126.000052091481,17.109699501620
$GNHDT,134.300,T*2E
$PYRTM,2024,126.000057927523,17.109705337674
$GNGGA,000005.00,3447.67931307,N,12139.01715730,W,2,12,0.8,7.287,M,-38.668,M,7.0,0131*67
$PYRTM,2024,126.000057927523,17.109705337674
$GNHDT,134.167,T*2D
$PYRTM,2024,126.000063662442,17.109711072581
$GNGGA,000005.50,3447.67840985,N,12139.01637616,W,2,12,0.8,7.474,M,-38.668,M,7.4,0131*6F
$PYRTM,2024,126.000063662442,17.109711072581
$GNHDT,134.010,T*2C
$PYRTM,2024,126.000069503275,17.109716913414
$GNGGA,000006.00,3447.67748054,N,12139.01556056,W,2,12,0.8,7.620,M,-38.668,M,4.0,0131*69
$PYRTM,2024,126.000069503275,17.109716913414
$GNHDT,133.802,T*20
$PYRTM,2024,126.000075237569,17.109722647708
$GNGGA,000006.50,3447.67652997,N,12139.01470725,W,2,12,0.8,7.707,M,-38.668,M,4.4,0131*66
$PYRTM,2024,126.000075237569,17.109722647708
$GNHDT,133.919,T*2B
$PYRTM,2024,126.000081074294,17.109728484433
$GNGGA,000007.00,3447.67558836,N,12139.01378990,W,2,12,0.8,7.783,M,-38.668,M,5.0,0131*67
$PYRTM,2024,126.000081074294,17.109728484433
$GNHDT,133.661,T*2B
$PYRTM,2024,126.000086809560,17.109734219699
$GNGGA,000007.50,3447.67466941,N,12139.01282759,W,2,12,0.8,7.886,M,-38.668,M,5.4,0131*6E
$PYRTM,2024,126.000086809560,17.109734219699
$GNHDT,133.270,T*2F
$PYRTM,2024,126.000092652697,17.109740062836
$GNGGA,000008.00,3447.67378731,N,12139.01183354,W,2,12,0.8,8.039,M,-38.668,M,6.0,0131*6A
$PYRTM,2024,126.000092652697,17.109740062836
$GNHDT,132.834,T*24
$PYRTM,2024,126.000098386204,17.109745796343
$GNGGA,000008.50,3447.67292584,N,12139.01084471,W,2,12,0.8,8.265,M,-38.668,M,6.4,0131*6F
$PYRTM,2024,126.000098386204,17.109745796343
$GNHDT,132.084,T*27
$PYRTM,2024,126.000104226319,17.109751636458
$GNGGA,000009.00,3447.67206771,N,12139.00987365,W,2,12,0.8,8.465,M,-38.668,M,7.0,0131*64
$PYRTM,2024,126.000104226319,17.109751636458
$GNHDT,131.722,T*2F
$PYRTM,2024,126.000109958981,17.109757369120
$GNGGA,000009.50,3447.67119412,N,12139.00893662,W,2,12,0.8,8.587,M,-38.668,M,7.4,0131*65
$PYRTM,2024,126.000109958981,17.109757369120
$GNHDT,131.622,T*2E
$PYRTM,2024,126.000115805509,17.109763215648
$GNGGA,000010.00,3447.67030265,N,12139.00804648,W,2,12,0.8,8.612,M,-38.668,M,7.0,0131*69
$PYRTM,2024,126.000115805509,17.109763215648
$GNHDT,131.686,T*20
$PYRTM,2024,126.000121535498,17.109768945637
$GNGGA,000010.50,3447.66941068,N,12139.00717571,W,2,12,0.8,8.520,M,-38.668,M,7.4,0131*6F
$PYRTM,2024,126.000121535498,17.109768945637
$GNHDT,131.886,T*2E
$PYRTM,2024,126.000127378877,17.109774789016
$GNGGA,000011.00,3447.66851190,N,12139.00634277,W,2,12,0.8,8.358,M,-38.668,M,7.0,0131*61
$PYRTM,2024,126.000127378877,17.109774789016
$GNHDT,132.125,T*2D
$PYRTM,2024,126.000133113692,17.109780523831
$GNGGA,000011.50,3447.66762646,N,12139.00552053,W,2,12,0.8,8.157,M,-38.668,M,7.4,0131*69
$PYRTM,2024,126.000133113692,17.109780523831
$GNHDT,132.585,T*23
$PYRTM,2024,126.000138947153,17.109786357292
$GNGGA,000012.00,3447.66678776,N,12139.00467307,W,2,12,0.8,7.943,M,-38.668,M,4.0,0131*67
$PYRTM,2024,126.000138947153,17.109786357292
$GNHDT,132.728,T*26
$PYRTM,2024,126.000144681296,17.109792091435
$GNGGA,000012.50,3447.66598641,N,12139.00380981,W,2,12,0.8,7.806,M,-38.668,M,4.4,0131*64
$PYRTM,2024,126.000144681296,17.109792091435
$GNHDT,133.109,T*22
$PYRTM,2024,126.000150523229,17.109797933380
$GNGGA,000013.00,3447.66523051,N,12139.00291370,W,2,12,0.8,7.728,M,-38.668,M,5.0,0131*64
$PYRTM,2024,126.000150523229,17.109797933380
$GNHDT,133.229,T*23
$PYRTM,2024,126.000156256389,17.109803666528
$GNGGA,000013.50,3447.66449731,N,12139.00199923,W,2,12,0.8,7.722,M,-38.668,M,5.4,0131*64
$PYRTM,2024,126.000156256389,17.109803666528
$GNHDT,133.466,T*2E
$PYRTM,2024,126.000162099988,17.109809510139
$GNGGA,000014.00,3447.66377989,N,12139.00106041,W,2,12,0.8,7.742,M,-38.668,M,6.0,0131*6B
$PYRTM,2024,126.000162099988,17.109809510139
$GNHDT,133.344,T*29
$PYRTM,2024,126.000167828356,17.109815238495
$GNGGA,000014.50,3447.66304776,N,12139.00012950,W,2,12,0.8,7.766,M,-38.668,M,6.4,0131*6B
$PYRTM,2024,126.000167828356,17.109815238495
$GNHDT,133.208,T*20
$PYRTM,2024,126.000173671713,17.109821081863
$GNGGA,000015.00,3447.66229756,N,12138.99921257,W,2,12,0.8,7.753,M,-38.668,M,7.0,0131*64
$PYRTM,2024,126.000173671713,17.109821081863
$GNHDT,132.833,T*23
$PYRTM,2024,126.000179406100,17.109826816238
$GNGGA,000015.50,3447.66150603,N,12138.99832949,W,2,12,0.8,7.704,M,-38.668,M,7.4,0131*6C
$PYRTM,2024,126.000179406100,17.109826816238
$GNHDT,132.828,T*29
$PYRTM,2024,126.000185250417,17.109832660567
$GNGGA,000016.00,3447.66068004,N,12138.99746904,W,2,12,0.8,7.601,M,-38.668,M,7.0,0131*64
$PYRTM,2024,126.000185250417,17.109832660567
$GNHDT,132.503,T*2D
$PYRTM,2024,126.000190978241,17.109838388380
$GNGGA,000016.50,3447.65982486,N,12138.99662218,W,2,12,0.8,7.500,M,-38.668,M,7.4,0131*66
$PYRTM,2024,126.000190978241,17.109838388380
$GNHDT,132.072,T*2E
$PYRTM,2024,126.000196825521,17.109844235660
$GNGGA,000017.00,3447.65895584,N,12138.99578664,W,2,12,0.8,7.452,M,-38.668,M,7.0,0131*63
$PYRTM,2024,126.000196825521,17.109844235660
$GNHDT,131.699,T*2E
$PYRTM,2024,126.000202551238,17.109849961377
$GNGGA,000017.50,3447.65808544,N,12138.99494480,W,2,12,0.8,7.487,M,-38.668,M,7.4,0131*69
$PYRTM,2024,126.000202551238,17.109849961377
$GNHDT,131.259,T*26
$PYRTM,2024,126.000208392558,17.109855802697
$GNGGA,000018.00,3447.65722715,N,12138.99408505,W,2,12,0.8,7.611,M,-38.668,M,4.0,0131*61
$PYRTM,2024,126.000208392558,17.109855802697
$GNHDT,131.022,T*28
$PYRTM,2024,126.000214131447,17.109861541586
$GNGGA,000018.50,3447.65638949,N,12138.99319866,W,2,12,0.8,7.800,M,-38.668,M,4.4,0131*6C
$PYRTM,2024,126.000214131447,17.109861541586
$GNHDT,130.770,T*29
$PYRTM,2024,126.000219971447,17.109867381586
$GNGGA,000019.00,3447.65555961,N,12138.99228627,W,2,12,0.8,7.938,M,-38.668,M,5.0,0131*6D
$PYRTM,2024,126.000219971447,17.109867381586
$GNHDT,131.010,T*29
$PYRTM,2024,126.000225699965,17.109873110104
$GNGGA,000019.50,3447.65470459,N,12138.99137997,W,2,12,0.8,8.075,M,-38.668,M,5.4,0131*6A
$PYRTM,2024,126.000225699965,17.109873110104
$GNHDT,131.476,T*2D
$PYRTM,2024,126.000231544583,17.109878954722
$GNGGA,000020.00,3447.65383264,N,12138.99048244,W,2,12,0.8,8.140,M,-38.668,M,6.0,0131*6A
$PYRTM,2024,126.000231544583,17.109878954722
$GNHDT,131.764,T*2D
$PYRTM,2024,126.000237273449,17.109884683600
$GNGGA,000020.50,3447.65296924,N,12138.98957313,W,2,12,0.8,8.135,M,-38.668,M,6.4,0131*66
$PYRTM,2024,126.000237273449,17.109884683600
$GNHDT,132.047,T*28
$PYRTM,2024,126.000243122766,17.109890532917
$GNGGA,000021.00,3447.65209489,N,12138.98867568,W,2,12,0.8,8.064,M,-38.668,M,7.0,0131*66
$PYRTM,2024,126.000243122766,17.109890532917
$GNHDT,132.130,T*29
$PYRTM,2024,126.000248847269,17.109896257407
$GNGGA,000021.50,3447.65121499,N,12138.98778571,W,2,12,0.8,7.998,M,-38.668,M,7.4,0131*63
$PYRTM,2024,126.000248847269,17.109896257407
$GNHDT,132.595,T*22
$PYRTM,2024,126.000254695613,17.109902105752
$GNGGA,000022.00,3447.65033576,N,12138.98689104,W,2,12,0.8,7.899,M,-38.668,M,7.0,0131*6A
$PYRTM,2024,126.000254695613,17.109902105752
$GNHDT,132.779,T*22
$PYRTM,2024,126.000260420880,17.109907831019
$GNGGA,000022.50,3447.64947190,N,12138.98597949,W,2,12,0.8,7.799,M,-38.668,M,7.4,0131*6E
$PYRTM,2024,126.000260420880,17.109907831019
$GNHDT,132.551,T*2A
$PYRTM,2024,126.000266266296,17.109913676435
$GNGGA,000023.00,3447.64863938,N,12138.98504123,W,2,12,0.8,7.688,M,-38.668,M,7.0,0131*6C
$PYRTM,2024,126.000266266296,17.109913676435
$GNHDT,132.275,T*2B
$PYRTM,2024,126.000271998912,17.109919409051
$GNGGA,000023.50,3447.64783715,N,12138.98409133,W,2,12,0.8,7.592,M,-38.668,M,7.4,0131*68
$PYRTM,2024,126.000271998912,17.109919409051
$GNHDT,131.999,T*21
$PYRTM,2024,126.000277834051,17.109925244190
$GNGGA,000024.00,3447.64706685,N,12138.98313716,W,2,12,0.8,7.511,M,-38.668,M,4.0,0131*6E
$PYRTM,2024,126.000277834051,17.109925244190
$GNHDT,131.622,T*2E
$PYRTM,2024,126.000283577060,17.109930987199
$GNGGA,000024.50,3447.64631265,N,12138.98219075,W,2,12,0.8,7.427,M,-38.668,M,4.4,0131*6D
$PYRTM,2024,126.000283577060,17.109930987199
$GNHDT,131.457,T*2E
$PYRTM,2024,126.000289417454,17.109936827593
$GNGGA,000025.00,3447.64556582,N,12138.98125862,W,2,12,0.8,7.338,M,-38.668,M,5.0,0131*6B
$PYRTM,2024,126.000289417454,17.109936827593
$GNHDT,131.380,T*23
$PYRTM,2024,126.000295146516,17.109942556655
$GNGGA,000025.50,3447.64481380,N,12138.98034742,W,2,12,0.8,7.255,M,-38.668,M,5.4,0131*63
$PYRTM,2024,126.000295146516,17.109942556655
$GNHDT,131.252,T*2D
$PYRTM,2024,126.000300984410,17.109948394549
$GNGGA,000026.00,3447.64404885,N,12138.97947714,W,2,12,0.8,7.206,M,-38.668,M,6.0,0131*66
$PYRTM,2024,126.000300984410,17.109948394549
$GNHDT,131.213,T*28
$PYRTM,2024,126.000306717859,17.109954127998
$GNGGA,000026.50,3447.64325805,N,12138.97865004,W,2,12,0.8,7.210,M,-38.667,M,6.4,0131*64
$PYRTM,2024,126.000306717859,17.109954127998
$GNHDT,131.086,T*26
$PYRTM,2024,126.000312556296,17.109959966435
$GNGGA,000027.00,3447.64244318,N,12138.97786754,W,2,12,0.8,7.263,M,-38.667,M,7.0,0131*60
$PYRTM,2024,126.000312556296,17.109959966435
$GNHDT,131.306,T*2D
$PYRTM,2024,126.000318292269,17.109965702419
$GNGGA,000027.50,3447.64159373,N,12138.97711394,W,2,12,0.8,7.347,M,-38.667,M,7.4,0131*62
$PYRTM,2024,126.000318292269,17.109965702419
$GNHDT,131.895,T*2C
$PYRTM,2024,126.000324134676,17.109971544826
$GNGGA,000028.00,3447.64074504,N,12138.97633096,W,2,12,0.8,7.392,M,-38.667,M,7.0,0131*6C
$PYRTM,2024,126.000324134676,17.109971544826
$GNHDT,132.105,T*2F
$PYRTM,2024,126.000329868900,17.109977279039
$GNGGA,000028.50,3447.63990362,N,12138.97548605,W,2,12,0.8,7.382,M,-38.667,M,7.4,0131*6D
$PYRTM,2024,126.000329868900,17.109977279039
$GNHDT,132.271,T*2F
$PYRTM,2024,126.000335710961,17.109983121100
$GNGGA,000029.00,3447.63906811,N,12138.97457529,W,2,12,0.8,7.403,M,-38.667,M,7.0,0131*61
$PYRTM,2024,126.000335710961,17.109983121100
$GNHDT,132.322,T*28
$PYRTM,2024,126.000341444074,17.109988854213
$GNGGA,000029.50,3447.63824539,N,12138.97360204,W,2,12,0.8,7.499,M,-38.667,M,7.4,0131*6E
$PYRTM,2024,126.000341444074,17.109988854213
$GNHDT,132.005,T*2E
$PYRTM,2024,126.000347279352,17.109994689491
$GNGGA,000030.00,3447.63742980,N,12138.97257342,W,2,12,0.8,7.723,M,-38.667,M,4.0,0131*61
$PYRTM,2024,126.000347279352,17.109994689491
$GNHDT,131.742,T*29
$PYRTM,2024,126.000353016458,17.110000426597
$GNGGA,000030.50,3447.63660757,N,12138.97150974,W,2,12,0.8,8.051,M,-38.667,M,4.4,0131*63
$PYRTM,2024,126.000353016458,17.110000426597
$GNHDT,131.472,T*29
$PYRTM,2024,126.000358851389,17.110006261528
$GNGGA,000031.00,3447.63577097,N,12138.97042096,W,2,12,0.8,8.406,M,-38.667,M,5.0,0131*6D
$PYRTM,2024,126.000358851389,17.110006261528
$GNHDT,130.895,T*2D
$PYRTM,2024,126.000364593160,17.110012003299
$GNGGA,000031.50,3447.63490317,N,12138.96933029,W,2,12,0.8,8.706,M,-38.667,M,5.4,0131*66
$PYRTM,2024,126.000364593160,17.110012003299
$GNHDT,130.990,T*29
$PYRTM,2024,126.000370426944,17.110017837095
$GNGGA,000032.00,3447.63398846,N,12138.96827200,W,2,12,0.8,8.905,M,-38.667,M,6.0,0131*67
$PYRTM,2024,126.000370426944,17.110017837095
$GNHDT,130.577,T*2C
$PYRTM,2024,126.000376161910,17.110023572049
$GNGGA,000032.50,3447.63306009,N,12138.96723713,W,2,12,0.8,8.957,M,-38.667,M,6.4,0131*69
$PYRTM,2024,126.000376161910,17.110023572049
$GNHDT,130.093,T*23
$PYRTM,2024,126.000382000718,17.110029410856
$GNGGA,000033.00,3447.63212754,N,12138.96623965,W,2,12,0.8,8.864,M,-38.667,M,7.0,0131*6C
$PYRTM,2024,126.000382000718,17.110029410856
$GNHDT,129.941,T*2D
$PYRTM,2024,126.000387737419,17.110035147569
$GNGGA,000033.50,3447.63120658,N,12138.96528674,W,2,12,0.8,8.659,M,-38.667,M,7.4,0131*65
$PYRTM,2024,126.000387737419,17.110035147569
$GNHDT,129.534,T*23
$PYRTM,2024,126.000393584803,17.110040994942
$GNGGA,000034.00,3447.63031150,N,12138.96437229,W,2,12,0.8,8.379,M,-38.667,M,7.0,0131*69
$PYRTM,2024,126.000393584803,17.110040994942
$GNHDT,129.617,T*21
$PYRTM,2024,126.000399310602,17.110046720741
$GNGGA,000034.50,3447.62945517,N,12138.96348135,W,2,12,0.8,8.072,M,-38.667,M,7.4,0131*6D
$PYRTM,2024,126.000399310602,17.110046720741
$GNHDT,129.824,T*2F
$PYRTM,2024,126.000405147940,17.110052558079
$GNGGA,000035.00,3447.62864367,N,12138.96259789,W,2,12,0.8,7.748,M,-38.667,M,7.0,0131*6F
$PYRTM,2024,126.000405147940,17.110052558079
$GNHDT,130.274,T*28
$PYRTM,2024,126.000410893819,17.110058303958
$GNGGA,000035.50,3447.62786805,N,12138.96172681,W,2,12,0.8,7.413,M,-38.667,M,7.4,0131*6C
$PYRTM,2024,126.000410893819,17.110058303958
$GNHDT,130.975,T*22
$PYRTM,2024,126.000416728611,17.110064138750
$GNGGA,000036.00,3447.62711259,N,12138.96088116,W,2,12,0.8,7.111,M,-38.667,M,4.0,0131*6A
$PYRTM,2024,126.000416728611,17.110064138750
$GNHDT,131.384,T*27
$PYRTM,2024,126.000422460949,17.110069871088
$GNGGA,000036.50,3447.62637501,N,12138.96005257,W,2,12,0.8,6.857,M,-38.667,M,4.4,0131*6D
$PYRTM,2024,126.000422460949,17.110069871088
$GNHDT,132.118,T*23
$PYRTM,2024,126.000428307523,17.110075717662
$GNGGA,000037.00,3447.62564315,N,12138.95922993,W,2,12,0.8,6.686,M,-38.667,M,5.0,0131*64
$PYRTM,2024,126.000428307523,17.110075717662
$GNHDT,132.388,T*28
$PYRTM,2024,126.000434033056,17.110081443183
$GNGGA,000037.50,3447.62490850,N,12138.95840937,W,2,12,0.8,6.623,M,-38.667,M,5.4,0131*61
$PYRTM,2024,126.000434033056,17.110081443183
$GNHDT,132.630,T*2E
$PYRTM,2024,126.000439875764,17.110087285903
$GNGGA,000038.00,3447.62417135,N,12138.95758093,W,2,12,0.8,6.693,M,-38.667,M,6.0,0131*63
$PYRTM,2024,126.000439875764,17.110087285903
$GNHDT,132.771,T*2A
$PYRTM,2024,126.000445605081,17.110093015220
$GNGGA,000038.50,3447.62341721,N,12138.95673277,W,2,12,0.8,6.843,M,-38.667,M,6.4,0131*66
$PYRTM,2024,126.000445605081,17.110093015220
$GNHDT,132.835,T*25
$PYRTM,2024,126.000451447581,17.110098857720
$GNGGA,000039.00,3447.62263036,N,12138.95587065,W,2,12,0.8,7.064,M,-38.667,M,7.0,0131*62
$PYRTM,2024,126.000451447581,17.110098857720
$GNHDT,132.763,T*29
$PYRTM,2024,126.000457186505,17.110104596644
$GNGGA,000039.50,3447.62182855,N,12138.95498221,W,2,12,0.8,7.273,M,-38.667,M,7.4,0131*6B
$PYRTM,2024,126.000457186505,17.110104596644
$GNHDT,132.840,T*27
$PYRTM,2024,126.000463027037,17.110110437176
$GNGGA,000040.00,3447.62100784,N,12138.95406865,W,2,12,0.8,7.469,M,-38.667,M,7.0,0131*6D
$PYRTM,2024,126.000463027037,17.110110437176
$GNHDT,132.739,T*26
$PYRTM,2024,126.000468756748,17.110116166887
$GNGGA,000040.50,3447.62018077,N,12138.95313161,W,2,12,0.8,7.662,M,-38.667,M,7.4,0131*68
$PYRTM,2024,126.000468756748,17.110116166887
$GNHDT,132.516,T*29
$PYRTM,2024,126.000474597743,17.110122007882
$GNGGA,000041.00,3447.61934537,N,12138.95216392,W,2,12,0.8,7.866,M,-38.667,M,7.0,0131*6D
$PYRTM,2024,126.000474597743,17.110122007882
$GNHDT,132.121,T*29
$PYRTM,2024,126.000480337072,17.110127747211
$GNGGA,000041.50,3447.61850943,N,12138.95117263,W,2,12,0.8,8.041,M,-38.667,M,7.4,0131*6F
$PYRTM,2024,126.000480337072,17.110127747211
$GNHDT,131.379,T*25
$PYRTM,2024,126.000486169491,17.110133579630
$GNGGA,000042.00,3447.61767439,N,12138.95018065,W,2,12,0.8,8.191,M,-38.667,M,4.0,0131*63
$PYRTM,2024,126.000486169491,17.110133579630
$GNHDT,131.006,T*2E
$PYRTM,2024,126.000491906551,17.110139316690
$GNGGA,000042.50,3447.61683661,N,12138.94920383,W,2,12,0.8,8.308,M,-38.667,M,4.4,0131*6C
$PYRTM,2024,126.000491906551,17.110139316690
$GNHDT,130.444,T*2D
$PYRTM,2024,126.000497746030,17.110145156169
$GNGGA,000043.00,3447.61600511,N,12138.94823534,W,2,12,0.8,8.339,M,-38.667,M,5.0,0131*68
$PYRTM,2024,126.000497746030,17.110145156169
$GNHDT,130.005,T*2C
$PYRTM,2024,126.000503477917,17.110150888056
$GNGGA,000043.50,3447.61517687,N,12138.94727937,W,2,12,0.8,8.303,M,-38.667,M,5.4,0131*6D
$PYRTM,2024,126.000503477917,17.110150888056
$GNHDT,129.643,T*20
$PYRTM,2024,126.000509317743,17.110156727882
$GNGGA,000044.00,3447.61434909,N,12138.94633921,W,2,12,0.8,8.213,M,-38.667,M,6.0,0131*62
$PYRTM,2024,126.000509317743,17.110156727882
$GNHDT,129.446,T*27
$PYRTM,2024,126.000515054757,17.110162464896
$GNGGA,000044.50,3447.61351756,N,12138.94541682,W,2,12,0.8,8.115,M,-38.667,M,6.4,0131*66
$PYRTM,2024,126.000515054757,17.110162464896
$GNHDT,129.421,T*26
$PYRTM,2024,126.000520889896,17.110168300035
$GNGGA,000045.00,3447.61268312,N,12138.94451447,W,2,12,0.8,7.986,M,-38.667,M,7.0,0131*6E
$PYRTM,2024,126.000520889896,17.110168300035
$GNHDT,129.611,T*27
$PYRTM,2024,126.000526631447,17.110174041586
$GNGGA,000045.50,3447.61183956,N,12138.94363814,W,2,12,0.8,7.869,M,-38.667,M,7.4,0131*6F
$PYRTM,2024,126.000526631447,17.110174041586
$GNHDT,130.089,T*28
$PYRTM,2024,126.000532468044,17.110179878183
$GNGGA,000046.00,3447.61100029,N,12138.94277964,W,2,12,0.8,7.790,M,-38.667,M,7.0,0131*6C
$PYRTM,2024,126.000532468044,17.110179878183
$GNHDT,130.559,T*20
$PYRTM,2024,126.000538199028,17.110185609167
$GNGGA,000046.50,3447.61017220,N,12138.94192007,W,2,12,0.8,7.773,M,-38.667,M,7.4,0131*68
$PYRTM,2024,126.000538199028,17.110185609167
$GNHDT,131.289,T*2B
$PYRTM,2024,126.000544039525,17.110191449664
$GNGGA,000047.00,3447.60936674,N,12138.94104529,W,2,12,0.8,7.800,M,-38.667,M,7.0,0131*6B
$PYRTM,2024,126.000544039525,17.110191449664
$GNHDT,131.768,T*21
$PYRTM,2024,126.000549773333,17.110197183472
$GNGGA,000047.50,3447.60856776,N,12138.94015163,W,2,12,0.8,7.853,M,-38.667,M,7.4,0131*63
$PYRTM,2024,126.000549773333,17.110197183472
$GNHDT,132.348,T*24
$PYRTM,2024,126.000555621100,17.110203031238
$GNGGA,000048.00,3447.60776368,N,12138.93922830,W,2,12,0.8,7.886,M,-38.667,M,4.0,0131*65
$PYRTM,2024,126.000555621100,17.110203031238
$GNHDT,132.693,T*27
$PYRTM,2024,126.000561347546,17.110208757685
$GNGGA,000048.50,3447.60695857,N,12138.93827896,W,2,12,0.8,7.871,M,-38.667,M,4.4,0131*6F
$PYRTM,2024,126.000561347546,17.110208757685
$GNHDT,132.871,T*25
$PYRTM,2024,126.000567190394,17.110214600532
$GNGGA,000049.00,3447.60615249,N,12138.93730594,W,2,12,0.8,7.807,M,-38.667,M,5.0,0131*64
$PYRTM,2024,126.000567190394,17.110214600532
$GNHDT,132.765,T*2F
$PYRTM,2024,126.000572920718,17.110220330856
$GNGGA,000049.50,3447.60535233,N,12138.93632306,W,2,12,0.8,7.720,M,-38.667,M,5.4,0131*6D
$PYRTM,2024,126.000572920718,17.110220330856
$GNHDT,132.288,T*29
$PYRTM,2024,126.000578762546,17.110226172685
$GNGGA,000050.00,3447.60454392,N,12138.93534590,W,2,12,0.8,7.700,M,-38.667,M,6.0,0131*65
$PYRTM,2024,126.000578762546,17.110226172685
$GNHDT,131.539,T*27
$PYRTM,2024,126.000584496713,17.110231906852
$GNGGA,000050.50,3447.60374535,N,12138.93436230,W,2,12,0.8,7.735,M,-38.667,M,6.4,0131*62
$PYRTM,2024,126.000584496713,17.110231906852
$GNHDT,130.656,T*2C
$PYRTM,2024,126.000590338900,17.110237749039
$GNGGA,000051.00,3447.60297700,N,12138.93334129,W,2,12,0.8,7.780,M,-38.667,M,7.0,0131*6B
$PYRTM,2024,126.000590338900,17.110237749039
$GNHDT,129.447,T*26
$PYRTM,2024,126.000596074062,17.110243484201
$GNGGA,000051.50,3447.60218913,N,12138.93233101,W,2,12,0.8,7.840,M,-38.667,M,7.4,0131*6E
$PYRTM,2024,126.000596074062,17.110243484201
$GNHDT,128.567,T*24
$PYRTM,2024,126.000601918044,17.110249328183
$GNGGA,000052.00,3447.60137239,N,12138.93134858,W,2,12,0.8,7.896,M,-38.667,M,7.0,0131*6B
$PYRTM,2024,126.000601918044,17.110249328183
$GNHDT,127.811,T*27
$PYRTM,2024,126.000607643912,17.110255054051
$GNGGA,000052.50,3447.60052369,N,12138.93040791,W,2,12,0.8,7.915,M,-38.667,M,7.4,0131*6E
$PYRTM,2024,126.000607643912,17.110255054051
$GNHDT,127.219,T*25
$PYRTM,2024,126.000613489271,17.110260899410
$GNGGA,000053.00,3447.59966145,N,12138.92950918,W,2,12,0.8,7.963,M,-38.667,M,7.0,0131*61
$PYRTM,2024,126.000613489271,17.110260899410
$GNHDT,126.979,T*29
$PYRTM,2024,126.000619218171,17.110266628310
$GNGGA,000053.50,3447.59882290,N,12138.92862315,W,2,12,0.8,8.020,M,-38.667,M,7.4,0131*66
$PYRTM,2024,126.000619218171,17.110266628310
$GNHDT,127.039,T*25
$PYRTM,2024,126.000625066389,17.110272476528
$GNGGA,000054.00,3447.59801771,N,12138.92775202,W,2,12,0.8,8.139,M,-38.667,M,4.0,0131*65
$PYRTM,2024,126.000625066389,17.110272476528
$GNHDT,127.489,T*2A
$PYRTM,2024,126.000630794688,17.110278204826
$GNGGA,000054.50,3447.59725185,N,12138.92687623,W,2,12,0.8,8.261,M,-38.667,M,4.4,0131*65
$PYRTM,2024,126.000630794688,17.110278204826
$GNHDT,128.064,T*22
$PYRTM,2024,126.000636637951,17.110284048102
$GNGGA,000055.00,3447.59650633,N,12138.92600392,W,2,12,0.8,8.357,M,-38.667,M,5.0,0131*69
$PYRTM,2024,126.000636637951,17.110284048102
$GNHDT,128.860,T*2E
$PYRTM,2024,126.000642366285,17.110289776424
$GNGGA,000055.50,3447.59578521,N,12138.92511420,W,2,12,0.8,8.348,M,-38.667,M,5.4,0131*62
$PYRTM,2024,126.000642366285,17.110289776424
$GNHDT,129.489,T*24
$PYRTM,2024,126.000648212037,17.110295622176
$GNGGA,000056.00,3447.59504857,N,12138.92423936,W,2,12,0.8,8.246,M,-38.667,M,6.0,0131*61
$PYRTM,2024,126.000648212037,17.110295622176
$GNHDT,130.098,T*28
$PYRTM,2024,126.000653941678,17.110301351817
$GNGGA,000056.50,3447.59425471,N,12138.92338526,W,2,12,0.8,8.091,M,-38.667,M,6.4,0131*62
$PYRTM,2024,126.000653941678,17.110301351817
$GNHDT,130.634,T*28
$PYRTM,2024,126.000659781562,17.110307191701
$GNGGA,000057.00,3447.59342514,N,12138.92250961,W,2,12,0.8,7.836,M,-38.667,M,7.0,0131*6D
$PYRTM,2024,126.000659781562,17.110307191701
$GNHDT,130.704,T*2A
$PYRTM,2024,126.000665519294,17.110312929433
$GNGGA,000057.50,3447.59257876,N,12138.92160636,W,2,12,0.8,7.587,M,-38.666,M,7.4,0131*6B
$PYRTM,2024,126.000665519294,17.110312929433
$GNHDT,130.308,T*22
$PYRTM,2024,126.000671358403,17.110318768542
$GNGGA,000058.00,3447.59175099,N,12138.92066093,W,2,12,0.8,7.389,M,-38.666,M,7.0,0131*69
$PYRTM,2024,126.000671358403,17.110318768542
$GNHDT,129.422,T*25
$PYRTM,2024,126.000677088773,17.110324498912
$GNGGA,000058.50,3447.59095772,N,12138.91967859,W,2,12,0.8,7.397,M,-38.666,M,7.4,0131*6F
$PYRTM,2024,126.000677088773,17.110324498912
$GNHDT,128.256,T*21
$PYRTM,2024,126.000682931609,17.110330341748
$GNGGA,000059.00,3447.59022482,N,12138.91865892,W,2,12,0.8,7.599,M,-38.666,M,7.0,0131*63
$PYRTM,2024,126.000682931609,17.110330341748
$GNHDT,127.354,T*2D
$PYRTM,2024,126.000688666019,17.110336076157
$GNGGA,000059.50,3447.58952318,N,12138.91763465,W,2,12,0.8,7.916,M,-38.666,M,7.4,0131*6F
$PYRTM,2024,126.000688666019,17.110336076157
$GNHDT,126.429,T*21
$PYRTM,2024,126.000694505174,17.110341915312
$GNGGA,000100.00,3447.58883717,N,12138.91661360,W,2,12,0.8,8.225,M,-38.666,M,4.0,0131*63
$PYRTM,2024,126.000694505174,17.110341915312
$GNHDT,125.849,T*28
$PYRTM,2024,126.000700239340,17.110347649479
$GNGGA,000100.50,3447.58811122,N,12138.91561930,W,2,12,0.8,8.386,M,-38.666,M,4.4,0131*6D
$PYRTM,2024,126.000700239340,17.110347649479
$GNHDT,125.848,T*29
$PYRTM,2024,126.000706078310,17.110353488449
$GNGGA,000101.00,3447.58733713,N,12138.91466990,W,2,12,0.8,8.368,M,-38.666,M,5.0,0131*6B
$PYRTM,2024,126.000706078310,17.110353488449
$GNHDT,125.809,T*2C
$PYRTM,2024,126.000711810567,17.110359220718
$GNGGA,000101.50,3447.58650772,N,12138.91379847,W,2,12,0.8,8.246,M,-38.666,M,5.4,0131*66
$PYRTM,2024,126.000711810567,17.110359220718
$GNHDT,126.302,T*2F
$PYRTM,2024,126.000717648495,17.110365058634
$GNGGA,000102.00,3447.58567377,N,12138.91297463,W,2,12,0.8,8.024,M,-38.666,M,6.0,0131*6C
$PYRTM,2024,126.000717648495,17.110365058634
$GNHDT,126.798,T*28
$PYRTM,2024,126.000723389433,17.110370799572
$GNGGA,000102.50,3447.58486665,N,12138.91218116,W,2,12,0.8,7.810,M,-38.666,M,6.4,0131*65
$PYRTM,2024,126.000723389433,17.110370799572
$GNHDT,127.863,T*22
$PYRTM,2024,126.000729224861,17.110376635000
$GNGGA,000103.00,3447.58410011,N,12138.91138574,W,2,12,0.8,7.633,M,-38.666,M,7.0,0131*60
$PYRTM,2024,126.000729224861,17.110376635000
$GNHDT,128.332,T*22
$PYRTM,2024,126.000734960660,17.110382370799
$GNGGA,000103.50,3447.58337258,N,12138.91054698,W,2,12,0.8,7.551,M,-38.666,M,7.4,0131*61
$PYRTM,2024,126.000734960660,17.110382370799
$GNHDT,128.981,T*20
$PYRTM,2024,126.000740797280,17.110388207419
$GNGGA,000104.00,3447.58268465,N,12138.90963162,W,2,12,0.8,7.568,M,-38.666,M,7.0,0131*60
$PYRTM,2024,126.000740797280,17.110388207419
$GNHDT,129.400,T*25
$PYRTM,2024,126.000746532963,17.110393943102
$GNGGA,000104.50,3447.58200962,N,12138.90863246,W,2,12,0.8,7.628,M,-38.666,M,7.4,0131*66
$PYRTM,2024,126.000746532963,17.110393943102
$GNHDT,129.291,T*2B
$PYRTM,2024,126.000752380810,17.110399790949
$GNGGA,000105.00,3447.58132950,N,12138.90757713,W,2,12,0.8,7.791,M,-38.666,M,7.0,0131*6B
$PYRTM,2024,126.000752380810,17.110399790949
$GNHDT,129.407,T*22
$PYRTM,2024,126.000758108542,17.110405518681
$GNGGA,000105.50,3447.58062023,N,12138.90650742,W,2,12,0.8,7.970,M,-38.666,M,7.4,0131*60
$PYRTM,2024,126.000758108542,17.110405518681
$GNHDT,129.213,T*21
$PYRTM,2024,126.000763951331,17.110411361470
$GNGGA,000106.00,3447.57986774,N,12138.90543951,W,2,12,0.8,8.194,M,-38.666,M,4.0,0131*68
$PYRTM,2024,126.000763951331,17.110411361470
$GNHDT,128.638,T*2D
$PYRTM,2024,126.000769682153,17.110417092292
$GNGGA,000106.50,3447.57906733,N,12138.90438606,W,2,12,0.8,8.407,M,-38.666,M,4.4,0131*6D
$PYRTM,2024,126.000769682153,17.110417092292
$GNHDT,128.096,T*2F
$PYRTM,2024,126.000775528137,17.110422938275
$GNGGA,000107.00,3447.57821884,N,12138.90335271,W,2,12,0.8,8.601,M,-38.666,M,5.0,0131*61
$PYRTM,2024,126.000775528137,17.110422938275
$GNHDT,127.644,T*29
$PYRTM,2024,126.000781260880,17.110428671019
$GNGGA,000107.50,3447.57733676,N,12138.90233020,W,2,12,0.8,8.757,M,-38.666,M,5.4,0131*6C
$PYRTM,2024,126.000781260880,17.110428671019
$GNHDT,127.146,T*2C
$PYRTM,2024,126.000787100174,17.110434510313
$GNGGA,000108.00,3447.57645171,N,12138.90128522,W,2,12,0.8,8.779,M,-38.666,M,6.0,0131*63
$PYRTM,2024,126.000787100174,17.110434510313
$GNHDT,127.092,T*24
$PYRTM,2024,126.000792833183,17.110440243322
$GNGGA,000108.50,3447.57557085,N,12138.90024326,W,2,12,0.8,8.709,M,-38.666,M,6.4,0131*60
$PYRTM,2024,126.000792833183,17.110440243322
$GNHDT,127.292,T*26
$PYRTM,2024,126.000798674780,17.110446084919
$GNGGA,000109.00,3447.57468284,N,12138.89922241,W,2,12,0.8,8.593,M,-38.666,M,7.0,0131*69
$PYRTM,2024,126.000798674780,17.110446084919
$GNHDT,127.686,T*27
$PYRTM,2024,126.000804403843,17.110451813981
$GNGGA,000109.50,3447.57381782,N,12138.89822297,W,2,12,0.8,8.444,M,-38.666,M,7.4,0131*6A
$PYRTM,2024,126.000804403843,17.110451813981
$GNHDT,127.860,T*21
$PYRTM,2024,126.000810248542,17.110457658692
$GNGGA,000110.00,3447.57299030,N,12138.89724192,W,2,12,0.8,8.266,M,-38.666,M,7.0,0131*6C
$PYRTM,2024,126.000810248542,17.110457658692
$GNHDT,128.035,T*26
$PYRTM,2024,126.000815979005,17.110463389144
$GNGGA,000110.50,3447.57219004,N,12138.89630019,W,2,12,0.8,8.108,M,-38.666,M,7.4,0131*6F
$PYRTM,2024,126.000815979005,17.110463389144
$GNHDT,128.460,T*22
$PYRTM,2024,126.000821824375,17.110469234514
$GNGGA,000111.00,3447.57141468,N,12138.89540576,W,2,12,0.8,8.006,M,-38.666,M,7.0,0131*68
$PYRTM,2024,126.000821824375,17.110469234514
$GNHDT,128.623,T*27
$PYRTM,2024,126.000827551412,17.110474961551
$GNGGA,000111.50,3447.57070483,N,12138.89452075,W,2,12,0.8,7.908,M,-38.666,M,7.4,0131*63
$PYRTM,2024,126.000827551412,17.110474961551
$GNHDT,128.588,T*25
$PYRTM,2024,126.000833399375,17.110480809514
$GNGGA,000112.00,3447.57004444,N,12138.89366023,W,2,12,0.8,7.861,M,-38.666,M,4.0,0131*67
$PYRTM,2024,126.000833399375,17.110480809514
$GNHDT,128.694,T*2B
$PYRTM,2024,126.000839129306,17.110486539444
$GNGGA,000112.50,3447.56940801,N,12138.89282037,W,2,12,0.8,7.790,M,-38.666,M,4.4,0131*6C
$PYRTM,2024,126.000839129306,17.110486539444
$GNHDT,128.809,T*21
$PYRTM,2024,126.000844967755,17.110492377894
$GNGGA,000113.00,3447.56878161,N,12138.89199651,W,2,12,0.8,7.677,M,-38.666,M,5.0,0131*6F
$PYRTM,2024,126.000844967755,17.110492377894
$GNHDT,129.061,T*26
$PYRTM,2024,126.000850700231,17.110498110370
$GNGGA,000113.50,3447.56813748,N,12138.89116614,W,2,12,0.8,7.520,M,-38.666,M,5.4,0131*69
$PYRTM,2024,126.000850700231,17.110498110370
$GNHDT,129.197,T*2E
$PYRTM,2024,126.000856544097,17.110503954236
$GNGGA,000114.00,3447.56746832,N,12138.89031521,W,2,12,0.8,7.349,M,-38.666,M,6.0,0131*69
$PYRTM,2024,126.000856544097,17.110503954236
$GNHDT,129.268,T*2D
$PYRTM,2024,126.000862273241,17.110509683380
$GNGGA,000114.50,3447.56677711,N,12138.88943569,W,2,12,0.8,7.207,M,-38.666,M,6.4,0131*6F
$PYRTM,2024,126.000862273241,17.110509683380
$GNHDT,128.817,T*2E
$PYRTM,2024,126.000868116030,17.110515526169
$GNGGA,000115.00,3447.56606513,N,12138.88852297,W,2,12,0.8,7.165,M,-38.666,M,7.0,0131*68
$PYRTM,2024,126.000868116030,17.110515526169
$GNHDT,128.815,T*2C
$PYRTM,2024,126.000873856829,17.110521266968
$GNGGA,000115.50,3447.56533258,N,12138.88757367,W,2,12,0.8,7.271,M,-38.666,M,7.4,0131*66
$PYRTM,2024,126.000873856829,17.110521266968
$GNHDT,128.919,T*21
$PYRTM,2024,126.000879689838,17.110527099977
$GNGGA,000116.00,3447.56457531,N,12138.88657533,W,2,12,0.8,7.486,M,-38.666,M,7.0,0131*67
$PYRTM,2024,126.000879689838,17.110527099977
$GNHDT,128.921,T*2A
$PYRTM,2024,126.000885425127,17.110532835266
$GNGGA,000116.50,3447.56379008,N,12138.88553830,W,2,12,0.8,7.785,M,-38.666,M,7.4,0131*6B
$PYRTM,2024,126.000885425127,17.110532835266
$GNHDT,128.973,T*2D
$PYRTM,2024,126.000891265833,17.110538675972
$GNGGA,000117.00,3447.56295585,N,12138.88447373,W,2,12,0.8,8.099,M,-38.666,M,7.0,0131*65
$PYRTM,2024,126.000891265833,17.110538675972
$GNHDT,128.989,T*28
$PYRTM,2024,126.000896997685,17.110544407836
$GNGGA,000117.50,3447.56206871,N,12138.88339991,W,2,12,0.8,8.369,M,-38.666,M,7.4,0131*6C
$PYRTM,2024,126.000896997685,17.110544407836
$GNHDT,129.047,T*22
$PYRTM,2024,126.000902834248,17.110550244387
$GNGGA,000118.00,3447.56114023,N,12138.88231982,W,2,12,0.8,8.516,M,-38.666,M,4.0,0131*6B
$PYRTM,2024,126.000902834248,17.110550244387
$GNHDT,129.152,T*27
$PYRTM,2024,126.000908571123,17.110555981262
$GNGGA,000118.50,3447.56019926,N,12138.88124769,W,2,12,0.8,8.583,M,-38.666,M,4.4,0131*6A
$PYRTM,2024,126.000908571123,17.110555981262
$GNHDT,129.810,T*28
$PYRTM,2024,126.000914417662,17.110561827801
$GNGGA,000119.00,3447.55926111,N,12138.88017713,W,2,12,0.8,8.540,M,-38.666,M,5.0,0131*62
$PYRTM,2024,126.000914417662,17.110561827801
$GNHDT,130.167,T*29
$PYRTM,2024,126.000920146447,17.110567556586
$GNGGA,000119.50,3447.55835606,N,12138.87912106,W,2,12,0.8,8.446,M,-38.666,M,5.4,0131*67
$PYRTM,2024,126.000920146447,17.110567556586
$GNHDT,130.264,T*29
$PYRTM,2024,126.000925985023,17.110573395162
$GNGGA,000120.00,3447.55749968,N,12138.87809092,W,2,12,0.8,8.330,M,-38.666,M,6.0,0131*6D
$PYRTM,2024,126.000925985023,17.110573395162
$GNHDT,130.347,T*29
$PYRTM,2024,126.000931729236,17.110579139375
$GNGGA,000120.50,3447.55669011,N,12138.87709601,W,2,12,0.8,8.219,M,-38.666,M,6.4,0131*61
$PYRTM,2024,126.000931729236,17.110579139375
$GNHDT,130.229,T*20
$PYRTM,2024,126.000937557488,17.110584967627
$GNGGA,000121.00,3447.55593132,N,12138.87613666,W,2,12,0.8,8.103,M,-38.666,M,7.0,0131*65
$PYRTM,2024,126.000937557488,17.110584967627
$GNHDT,129.943,T*2F
$PYRTM,2024,126.000943296887,17.110590707037
$GNGGA,000121.50,3447.55521234,N,12138.87520679,W,2,12,0.8,7.965,M,-38.665,M,7.4,0131*61
$PYRTM,2024,126.000943296887,17.110590707037
$GNHDT,129.793,T*2C
$PYRTM,2024,126.000949142049,17.110596552199
$GNGGA,000122.00,3447.55451961,N,12138.87431220,W,2,12,0.8,7.790,M,-38.665,M,7.0,0131*63
$PYRTM,2024,126.000949142049,17.110596552199
$GNHDT,129.379,T*2C
$PYRTM,2024,126.000954869722,17.110602279873
$GNGGA,000122.50,3447.55382833,N,12138.87343667,W,2,12,0.8,7.570,M,-38.665,M,7.4,0131*64
$PYRTM,2024,126.000954869722,17.110602279873
$GNHDT,128.826,T*2C
$PYRTM,2024,126.000960709225,17.110608119363
$GNGGA,000123.00,3447.55313491,N,12138.87258263,W,2,12,0.8,7.319,M,-38.665,M,7.0,0131*6A
$PYRTM,2024,126.000960709225,17.110608119363
$GNHDT,128.455,T*24
$PYRTM,2024,126.000966454109,17.110613864248
$GNGGA,000123.50,3447.55244002,N,12138.87174445,W,2,12,0.8,7.091,M,-38.665,M,7.4,0131*6A
$PYRTM,2024,126.000966454109,17.110613864248
$GNHDT,128.131,T*23
$PYRTM,2024,126.000972281551,17.110619691701
$GNGGA,000124.00,3447.55170643,N,12138.87094261,W,2,12,0.8,7.030,M,-38.665,M,4.0,0131*6C
$PYRTM,2024,126.000972281551,17.110619691701
$GNHDT,127.586,T*24
$PYRTM,2024,126.000978017801,17.110625427940
$GNGGA,000124.50,3447.55096352,N,12138.87013947,W,2,12,0.8,7.110,M,-38.665,M,4.4,0131*62
$PYRTM,2024,126.000978017801,17.110625427940
$GNHDT,127.624,T*2F
$PYRTM,2024,126.000983856898,17.110631267037
$GNGGA,000125.00,3447.55021568,N,12138.86932486,W,2,12,0.8,7.364,M,-38.665,M,5.0,0131*6A
$PYRTM,2024,126.000983856898,17.110631267037
$GNHDT,127.799,T*28
$PYRTM,2024,126.000989593287,17.110637003426
$GNGGA,000125.50,3447.54948945,N,12138.86844661,W,2,12,0.8,7.689,M,-38.665,M,5.4,0131*62
$PYRTM,2024,126.000989593287,17.110637003426
$GNHDT,128.253,T*24
$PYRTM,2024,126.000995433403,17.110642843553
$GNGGA,000126.00,3447.54875393,N,12138.86750604,W,2,12,0.8,8.055,M,-38.665,M,6.0,0131*6C
$PYRTM,2024,126.000995433403,17.110642843553
$GNHDT,128.730,T*24
$PYRTM,2024,126.001001163623,17.110648573762
$GNGGA,000126.50,3447.54798900,N,12138.86651456,W,2,12,0.8,8.336,M,-38.665,M,6.4,0131*62
$PYRTM,2024,126.001001163623,17.110648573762
$GNHDT,129.180,T*28
$PYRTM,2024,126.001007011655,17.110654421794
$GNGGA,000127.00,3447.54718580,N,12138.86548278,W,2,12,0.8,8.502,M,-38.665,M,7.0,0131*6F
$PYRTM,2024,126.001007011655,17.110654421794
$GNHDT,129.454,T*24
$PYRTM,2024,126.001012742373,17.110660152512
$GNGGA,000127.50,3447.54635453,N,12138.86443619,W,2,12,0.8,8.560,M,-38.665,M,7.4,0131*62
$PYRTM,2024,126.001012742373,17.110660152512
$GNHDT,129.806,T*2F
$PYRTM,2024,126.001018578542,17.110665988681
$GNGGA,000128.00,3447.54551477,N,12138.86337231,W,2,12,0.8,8.539,M,-38.665,M,7.0,0131*6D
$PYRTM,2024,126.001018578542,17.110665988681
$GNHDT,129.890,T*20
$PYRTM,2024,126.001024321134,17.110671731273
$GNGGA,000128.50,3447.54468382,N,12138.86230234,W,2,12,0.8,8.519,M,-38.665,M,7.4,0131*6B
$PYRTM,2024,126.001024321134,17.110671731273
$GNHDT,129.755,T*26
$PYRTM,2024,126.001030150926,17.110677561065
$GNGGA,000129.00,3447.54388039,N,12138.86122068,W,2,12,0.8,8.540,M,-38.665,M,7.0,0131*66
$PYRTM,2024,126.001030150926,17.110677561065
$GNHDT,129.484,T*29
$PYRTM,2024,126.001035890880,17.110683301019
$GNGGA,000129.50,3447.54310463,N,12138.86012459,W,2,12,0.8,8.586,M,-38.665,M,7.4,0131*63
$PYRTM,2024,126.001035890880,17.110683301019
$GNHDT,129.206,T*25
$PYRTM,2024,126.001041725150,17.110689135289
$GNGGA,000130.00,3447.54235155,N,12138.85901607,W,2,12,0.8,8.570,M,-38.665,M,4.0,0131*67
$PYRTM,2024,126.001041725150,17.110689135289
$GNHDT,128.674,T*25
$PYRTM,2024,126.001047463507,17.110694873646
$GNGGA,000130.50,3447.54160496,N,12138.85792364,W,2,12,0.8,8.496,M,-38.665,M,4.4,0131*62
$PYRTM,2024,126.001047463507,17.110694873646
$GNHDT,128.018,T*29
$PYRTM,2024,126.001053305602,17.110700715741
$GNGGA,000131.00,3447.54085458,N,12138.85687391,W,2,12,0.8,8.353,M,-38.665,M,5.0,0131*6A
$PYRTM,2024,126.001053305602,17.110700715741
$GNHDT,127.221,T*2E
$PYRTM,2024,126.001059036794,17.110706446933
$GNGGA,000131.50,3447.54010018,N,12138.85588390,W,2,12,0.8,8.163,M,-38.665,M,5.4,0131*6B
$PYRTM,2024,126.001059036794,17.110706446933
$GNHDT,126.590,T*22
$PYRTM,2024,126.001064871250,17.110712281389
$GNGGA,000132.00,3447.53934053,N,12138.85494844,W,2,12,0.8,7.915,M,-38.665,M,6.0,0131*65
$PYRTM,2024,126.001064871250,17.110712281389
$GNHDT,125.875,T*27
$PYRTM,2024,126.001070614664,17.110718024803
$GNGGA,000132.50,3447.53856445,N,12138.85406082,W,2,12,0.8,7.706,M,-38.665,M,6.4,0131*67
$PYRTM,2024,126.001070614664,17.110718024803
$GNHDT,125.318,T*27
$PYRTM,2024,126.001076447604,17.110723857755
$GNGGA,000133.00,3447.53780456,N,12138.85318991,W,2,12,0.8,7.501,M,-38.665,M,7.0,0131*66
$PYRTM,2024,126.001076447604,17.110723857755
$GNHDT,124.858,T*29
$PYRTM,2024,126.001082189433,17.110729599572
$GNGGA,000133.50,3447.53703351,N,12138.85236626,W,2,12,0.8,7.400,M,-38.665,M,7.4,0131*62
$PYRTM,2024,126.001082189433,17.110729599572
$GNHDT,124.542,T*2F
$PYRTM,2024,126.001088020058,17.110735430208
$GNGGA,000134.00,3447.53629552,N,12138.85154661,W,2,12,0.8,7.376,M,-38.665,M,7.0,0131*6A
$PYRTM,2024,126.001088020058,17.110735430208
$GNHDT,124.761,T*2C
$PYRTM,2024,126.001093756123,17.110741166262
$GNGGA,000134.50,3447.53558839,N,12138.85071711,W,2,12,0.8,7.386,M,-38.665,M,7.4,0131*61
$PYRTM,2024,126.001093756123,17.110741166262
$GNHDT,125.045,T*2C
$PYRTM,2024,126.001099599687,17.110747009826
$GNGGA,000135.00,3447.53490792,N,12138.84986047,W,2,12,0.8,7.450,M,-38.665,M,7.0,0131*62
$PYRTM,2024,126.001099599687,17.110747009826
$GNHDT,125.803,T*26
$PYRTM,2024,126.001105332685,17.110752742824
$GNGGA,000135.50,3447.53424879,N,12138.84897736,W,2,12,0.8,7.527,M,-38.665,M,7.4,0131*67
$PYRTM,2024,126.001105332685,17.110752742824
$GNHDT,126.516,T*2C
$PYRTM,2024,126.001111169491,17.110758579641
$GNGGA,000136.00,3447.53359242,N,12138.84806540,W,2,12,0.8,7.574,M,-38.665,M,4.0,0131*64
$PYRTM,2024,126.001111169491,17.110758579641
$GNHDT,127.288,T*2D
$PYRTM,2024,126.001116907813,17.110764317951
$GNGGA,000136.50,3447.53291994,N,12138.84714341,W,2,12,0.8,7.595,M,-38.665,M,4.4,0131*64
$PYRTM,2024,126.001116907813,17.110764317951
$GNHDT,128.170,T*26
$PYRTM,2024,126.001122743762,17.110770153900
$GNGGA,000137.00,3447.53222712,N,12138.84621122,W,2,12,0.8,7.581,M,-38.665,M,5.0,0131*68
$PYRTM,2024,126.001122743762,17.110770153900
$GNHDT,128.761,T*20
$PYRTM,2024,126.001128483102,17.110775893241
$GNGGA,000137.50,3447.53149278,N,12138.84526858,W,2,12,0.8,7.568,M,-38.665,M,5.4,0131*69
$PYRTM,2024,126.001128483102,17.110775893241
$GNHDT,129.147,T*23
$PYRTM,2024,126.001134315301,17.110781725440
$GNGGA,000138.00,3447.53073600,N,12138.84428865,W,2,12,0.8,7.542,M,-38.665,M,6.0,0131*6E
$PYRTM,2024,126.001134315301,17.110781725440
$GNHDT,128.915,T*2D
$PYRTM,2024,126.001140054769,17.110787464907
$GNGGA,000138.50,3447.52996972,N,12138.84327450,W,2,12,0.8,7.592,M,-38.665,M,6.4,0131*69
$PYRTM,2024,126.001140054769,17.110787464907
$GNHDT,128.235,T*24
$PYRTM,2024,126.001145896030,17.110793306169
$GNGGA,000139.00,3447.52921439,N,12138.84221638,W,2,12,0.8,7.704,M,-38.665,M,7.0,0131*60
$PYRTM,2024,126.001145896030,17.110793306169
$GNHDT,127.500,T*2A
$PYRTM,2024,126.001151630000,17.110799040139
$GNGGA,000139.50,3447.52848570,N,12138.84112355,W,2,12,0.8,7.904,M,-38.665,M,7.4,0131*60
$PYRTM,2024,126.001151630000,17.110799040139
$GNHDT,126.569,T*24
$PYRTM,2024,126.001157469120,17.110804879259
$GNGGA,000140.00,3447.52778428,N,12138.83999480,W,2,12,0.8,8.137,M,-38.665,M,7.0,0131*6B
$PYRTM,2024,126.001157469120,17.110804879259
$GNHDT,125.562,T*2C
$PYRTM,2024,126.001163204803,17.110810614942
$GNGGA,000140.50,3447.52709985,N,12138.83886737,W,2,12,0.8,8.353,M,-38.665,M,7.4,0131*66
$PYRTM,2024,126.001163204803,17.110810614942
$GNHDT,124.841,T*21
$PYRTM,2024,126.001169038900,17.110816449039
$GNGGA,000141.00,3447.52640516,N,12138.83776978,W,2,12,0.8,8.491,M,-38.665,M,7.0,0131*60
$PYRTM,2024,126.001169038900,17.110816449039
$GNHDT,124.078,T*23
$PYRTM,2024,126.001174774780,17.110822184919
$GNGGA,000141.50,3447.52567321,N,12138.83674049,W,2,12,0.8,8.524,M,-38.665,M,7.4,0131*62
$PYRTM,2024,126.001174774780,17.110822184919
$GNHDT,123.377,T*28
$PYRTM,2024,126.001180614028,17.110828024167
$GNGGA,000142.00,3447.52489340,N,12138.83579040,W,2,12,0.8,8.466,M,-38.665,M,4.0,0131*65
$PYRTM,2024,126.001180614028,17.110828024167
$GNHDT,123.157,T*28
$PYRTM,2024,126.001186353252,17.110833763391
$GNGGA,000142.50,3447.52408001,N,12138.83490507,W,2,12,0.8,8.344,M,-38.665,M,4.4,0131*6C
$PYRTM,2024,126.001186353252,17.110833763391
$GNHDT,123.269,T*26
$PYRTM,2024,126.001192186319,17.110839596458
$GNGGA,000143.00,3447.52326560,N,12138.83406260,W,2,12,0.8,8.178,M,-38.665,M,5.0,0131*60
$PYRTM,2024,126.001192186319,17.110839596458
$GNHDT,123.578,T*21
$PYRTM,2024,126.001197923738,17.110845333889
$GNGGA,000143.50,3447.52249184,N,12138.83322249,W,2,12,0.8,8.038,M,-38.665,M,5.4,0131*68
$PYRTM,2024,126.001197923738,17.110845333889
$GNHDT,124.509,T*20
$PYRTM,2024,126.001203766019,17.110851176157
$GNGGA,000144.00,3447.52177470,N,12138.83235383,W,2,12,0.8,7.923,M,-38.665,M,6.0,0131*61
$PYRTM,2024,126.001203766019,17.110851176157
$GNHDT,125.537,T*2C
$PYRTM,2024,126.001209496910,17.110856907049
$GNGGA,000144.50,3447.52110501,N,12138.83144091,W,2,12,0.8,7.860,M,-38.665,M,6.4,0131*65
$PYRTM,2024,126.001209496910,17.110856907049
$GNHDT,126.334,T*2A
$PYRTM,2024,126.001215333704,17.110862743843
$GNGGA,000145.00,3447.52046118,N,12138.83048096,W,2,12,0.8,7.838,M,-38.665,M,7.0,0131*6D
$PYRTM,2024,126.001215333704,17.110862743843
$GNHDT,127.082,T*25
$PYRTM,2024,126.001221072106,17.110868482245
$GNGGA,000145.50,3447.51980901,N,12138.82947826,W,2,12,0.8,7.813,M,-38.665,M,7.4,0131*61
$PYRTM,2024,126.001221072106,17.110868482245
$GNHDT,127.588,T*2A
$PYRTM,2024,126.001226909005,17.110874319144
$GNGGA,000146.00,3447.51911925,N,12138.82844182,W,2,12,0.8,7.775,M,-38.664,M,7.0,0131*66
$PYRTM,2024,126.001226909005,17.110874319144
$GNHDT,127.729,T*23
$PYRTM,2024,126.001232648160,17.110880058299
$GNGGA,000146.50,3447.51839521,N,12138.82738610,W,2,12,0.8,7.738,M,-38.664,M,7.4,0131*65
$PYRTM,2024,126.001232648160,17.110880058299
$GNHDT,127.776,T*29
$PYRTM,2024,126.001238483137,17.110885893275
$GNGGA,000147.00,3447.51763407,N,12138.82632653,W,2,12,0.8,7.726,M,-38.664,M,7.0,0131*63
$PYRTM,2024,126.001238483137,17.110885893275
$GNHDT,127.593,T*20
$PYRTM,2024,126.001244226574,17.110891636713
$GNGGA,000147.50,3447.51684850,N,12138.82527781,W,2,12,0.8,7.775,M,-38.664,M,7.4,0131*6B
$PYRTM,2024,126.001244226574,17.110891636713
$GNHDT,127.216,T*2A
$PYRTM,2024,126.001250060127,17.110897470278
$GNGGA,000148.00,3447.51605711,N,12138.82421929,W,2,12,0.8,7.864,M,-38.664,M,4.0,0131*61
$PYRTM,2024,126.001250060127,17.110897470278
$GNHDT,126.987,T*28
$PYRTM,2024,126.001255800972,17.110903211111
$GNGGA,000148.50,3447.51528344,N,12138.82315060,W,2,12,0.8,7.971,M,-38.664,M,4.4,0131*69
$PYRTM,2024,126.001255800972,17.110903211111
$GNHDT,126.708,T*21
$PYRTM,2024,126.001261637546,17.110909047685
$GNGGA,000149.00,3447.51453530,N,12138.82208263,W,2,12,0.8,8.081,M,-38.664,M,5.0,0131*65
$PYRTM,2024,126.001261637546,17.110909047685
$GNHDT,126.384,T*21
$PYRTM,2024,126.001267370532,17.110914780671
$GNGGA,000149.50,3447.51380331,N,12138.82102734,W,2,12,0.8,8.146,M,-38.664,M,5.4,0131*6E
$PYRTM,2024,126.001267370532,17.110914780671
$GNHDT,126.012,T*2D
$PYRTM,2024,126.001273207697,17.110920617836
$GNGGA,000150.00,3447.51308006,N,12138.81998693,W,2,12,0.8,8.103,M,-38.664,M,6.0,0131*66
$PYRTM,2024,126.001273207697,17.110920617836
$GNHDT,125.599,T*28
$PYRTM,2024,126.001278947859,17.110926357998
$GNGGA,000150.50,3447.51234230,N,12138.81897705,W,2,12,0.8,7.961,M,-38.664,M,6.4,0131*6D
$PYRTM,2024,126.001278947859,17.110926357998
$GNHDT,125.601,T*2A
$PYRTM,2024,126.001284779259,17.110932189398
$GNGGA,000151.00,3447.51157493,N,12138.81801607,W,2,12,0.8,7.738,M,-38.664,M,7.0,0131*6B
$PYRTM,2024,126.001284779259,17.110932189398
$GNHDT,125.423,T*28
$PYRTM,2024,126.001290522280,17.110937932419
$GNGGA,000151.50,3447.51079359,N,12138.81709241,W,2,12,0.8,7.483,M,-38.664,M,7.4,0131*64
$PYRTM,2024,126.001290522280,17.110937932419
$GNHDT,125.099,T*2D
$PYRTM,2024,126.001296355799,17.110943765937
$GNGGA,000152.00,3447.51001965,N,12138.81620684,W,2,12,0.8,7.252,M,-38.664,M,7.0,0131*61
$PYRTM,2024,126.001296355799,17.110943765937
$GNHDT,124.937,T*21
$PYRTM,2024,126.001302099676,17.110949509826
$GNGGA,000152.50,3447.50926623,N,12138.81534026,W,2,12,0.8,7.126,M,-38.664,M,7.4,0131*68
$PYRTM,2024,126.001302099676,17.110949509826
$GNHDT,124.516,T*2E
$PYRTM,2024,126.001307929201,17.110955339340
$GNGGA,000153.00,3447.50853506,N,12138.81448602,W,2,12,0.8,7.124,M,-38.664,M,7.0,0131*67
$PYRTM,2024,126.001307929201,17.110955339340
$GNHDT,124.424,T*2E
$PYRTM,2024,126.001313666736,17.110961076875
$GNGGA,000153.50,3447.50783946,N,12138.81361931,W,2,12,0.8,7.226,M,-38.664,M,7.4,0131*6E
$PYRTM,2024,126.001313666736,17.110961076875
$GNHDT,124.749,T*26
$PYRTM,2024,126.001319500231,17.110966910370
$GNGGA,000154.00,3447.50716421,N,12138.81274161,W,2,12,0.8,7.381,M,-38.664,M,4.0,0131*6F
$PYRTM,2024,126.001319500231,17.110966910370
$GNHDT,125.201,T*2E
$PYRTM,2024,126.001325246250,17.110972656389
$GNGGA,000154.50,3447.50651254,N,12138.81183923,W,2,12,0.8,7.550,M,-38.664,M,4.4,0131*67
$PYRTM,2024,126.001325246250,17.110972656389
$GNHDT,125.464,T*2B
$PYRTM,2024,126.001331074502,17.110978484641
$GNGGA,000155.00,3447.50586141,N,12138.81091097,W,2,12,0.8,7.687,M,-38.664,M,5.0,0131*65
$PYRTM,2024,126.001331074502,17.110978484641
$GNHDT,125.912,T*27
$PYRTM,2024,126.001336815775,17.110984225914
$GNGGA,000155.50,3447.50518681,N,12138.80997655,W,2,12,0.8,7.778,M,-38.664,M,5.4,0131*6F
$PYRTM,2024,126.001336815775,17.110984225914
$GNHDT,126.413,T*28
$PYRTM,2024,126.001342655405,17.110990065556
$GNGGA,000156.00,3447.50448559,N,12138.80904463,W,2,12,0.8,7.834,M,-38.664,M,6.0,0131*66
$PYRTM,2024,126.001342655405,17.110990065556
$GNHDT,126.843,T*21
$PYRTM,2024,126.001348392465,17.110995802604
$GNGGA,000156.50,3447.50376554,N,12138.80812011,W,2,12,0.8,7.861,M,-38.664,M,6.4,0131*67
$PYRTM,2024,126.001348392465,17.110995802604
$GNHDT,127.089,T*2E
$PYRTM,2024,126.001354224340,17.111001634479
$GNGGA,000157.00,3447.50303878,N,12138.80718910,W,2,12,0.8,7.875,M,-38.664,M,7.0,0131*6F
$PYRTM,2024,126.001354224340,17.111001634479
$GNHDT,127.321,T*2F
$PYRTM,2024,126.001359963183,17.111007373322
$GNGGA,000157.50,3447.50231258,N,12138.80622616,W,2,12,0.8,7.880,M,-38.664,M,7.4,0131*6D
$PYRTM,2024,126.001359963183,17.111007373322
$GNHDT,127.240,T*29
$PYRTM,2024,126.001365801111,17.111013211262
$GNGGA,000158.00,3447.50160479,N,12138.80520006,W,2,12,0.8,7.861,M,-38.664,M,7.0,0131*68
$PYRTM,2024,126.001365801111,17.111013211262
$GNHDT,127.137,T*2A
$PYRTM,2024,126.001371540556,17.111018950694
$GNGGA,000158.50,3447.50089813,N,12138.80413429,W,2,12,0.8,7.850,M,-38.664,M,7.4,0131*65
$PYRTM,2024,126.001371540556,17.111018950694
$GNHDT,127.006,T*29
$PYRTM,2024,126.001377380012,17.111024790150
$GNGGA,000159.00,3447.50018158,N,12138.80303958,W,2,12,0.8,7.874,M,-38.664,M,7.0,0131*60
$PYRTM,2024,126.001377380012,17.111024790150
$GNHDT,126.543,T*2C
$PYRTM,2024,126.001383112419,17.111030522558
$GNGGA,000159.50,3447.49945082,N,12138.80192603,W,2,12,0.8,7.972,M,-38.664,M,7.4,0131*62
$PYRTM,2024,126.001383112419,17.111030522558
$GNHDT,126.244,T*2C
$PYRTM,2024,126.001388945509,17.111036355648
$GNGGA,000200.00,3447.49870752,N,12138.80078576,W,2,12,0.8,8.122,M,-38.664,M,4.0,0131*64
$PYRTM,2024,126.001388945509,17.111036355648
$GNHDT,125.785,T*27
$PYRTM,2024,126.001394686852,17.111042096991
$GNGGA,000200.50,3447.49795140,N,12138.79964456,W,2,12,0.8,8.299,M,-38.664,M,4.4,0131*66
$PYRTM,2024,126.001394686852,17.111042096991
$GNHDT,125.718,T*23
$PYRTM,2024,126.001400520729,17.111047930868
$GNGGA,000201.00,3447.49716928,N,12138.79852649,W,2,12,0.8,8.461,M,-38.664,M,5.0,0131*63
$PYRTM,2024,126.001400520729,17.111047930868
$GNHDT,125.653,T*2D
$PYRTM,2024,126.001406257431,17.111053667569
$GNGGA,000201.50,3447.49636342,N,12138.79743463,W,2,12,0.8,8.557,M,-38.664,M,5.4,0131*66
$PYRTM,2024,126.001406257431,17.111053667569
$GNHDT,125.610,T*2A
$PYRTM,2024,126.001412095833,17.111059505972
$GNGGA,000202.00,3447.49551313,N,12138.79640238,W,2,12,0.8,8.615,M,-38.664,M,6.0,0131*6E
$PYRTM,2024,126.001412095833,17.111059505972
$GNHDT,125.637,T*2F
$PYRTM,2024,126.001417835556,17.111065245694
$GNGGA,000202.50,3447.49465912,N,12138.79538675,W,2,12,0.8,8.539,M,-38.664,M,6.4,0131*6E
$PYRTM,2024,126.001417835556,17.111065245694
$GNHDT,125.392,T*25
$PYRTM,2024,126.001423669954,17.111071080093
$GNGGA,000203.00,3447.49381618,N,12138.79439831,W,2,12,0.8,8.387,M,-38.664,M,7.0,0131*6A
$PYRTM,2024,126.001423669954,17.111071080093
$GNHDT,125.490,T*20
$PYRTM,2024,126.001429406435,17.111076816574
$GNGGA,000203.50,3447.49302240,N,12138.79342843,W,2,12,0.8,8.149,M,-38.664,M,7.4,0131*67
$PYRTM,2024,126.001429406435,17.111076816574
$GNHDT,125.757,T*28
$PYRTM,2024,126.001435243322,17.111082653472
$GNGGA,000204.00,3447.49227838,N,12138.79249244,W,2,12,0.8,7.909,M,-38.664,M,7.0,0131*66
$PYRTM,2024,126.001435243322,17.111082653472
$GNHDT,126.173,T*2B
$PYRTM,2024,126.001440979630,17.111088389769
$GNGGA,000204.50,3447.49157401,N,12138.79159640,W,2,12,0.8,7.712,M,-38.664,M,7.4,0131*63
$PYRTM,2024,126.001440979630,17.111088389769
$GNHDT,126.495,T*26
$PYRTM,2024,126.001446817407,17.111094227546
$GNGGA,000205.00,3447.49092614,N,12138.79070938,W,2,12,0.8,7.529,M,-38.664,M,7.0,0131*6D
$PYRTM,2024,126.001446817407,17.111094227546
$GNHDT,126.983,T*2C
$PYRTM,2024,126.001452553831,17.111099963970
$GNGGA,000205.50,3447.49029515,N,12138.78984031,W,2,12,0.8,7.385,M,-38.664,M,7.4,0131*6D
$PYRTM,2024,126.001452553831,17.111099963970
$GNHDT,127.703,T*2B
$PYRTM,2024,126.001458393264,17.111105803414
$GNGGA,000206.00,3447.48967139,N,12138.78897547,W,2,12,0.8,7.260,M,-38.664,M,4.0,0131*69
$PYRTM,2024,126.001458393264,17.111105803414
$GNHDT,127.957,T*24
$PYRTM,2024,126.001464127130,17.111111537269
$GNGGA,000206.50,3447.48903002,N,12138.78811789,W,2,12,0.8,7.180,M,-38.664,M,4.4,0131*60
$PYRTM,2024,126.001464127130,17.111111537269
$GNHDT,127.949,T*2B
$PYRTM,2024,126.001469966748,17.111117376887
$GNGGA,000207.00,3447.48837114,N,12138.78726192,W,2,12,0.8,7.154,M,-38.663,M,5.0,0131*68
$PYRTM,2024,126.001469966748,17.111117376887
$GNHDT,127.803,T*24
$PYRTM,2024,126.001475700718,17.111123110856
$GNGGA,000207.50,3447.48769731,N,12138.78639351,W,2,12,0.8,7.221,M,-38.663,M,5.4,0131*6F
$PYRTM,2024,126.001475700718,17.111123110856
$GNHDT,127.614,T*2C
$PYRTM,2024,126.001481541343,17.111128951493
$GNGGA,000208.00,3447.48702204,N,12138.78549597,W,2,12,0.8,7.367,M,-38.663,M,6.0,0131*67
$PYRTM,2024,126.001481541343,17.111128951493
$GNHDT,127.313,T*2E
$PYRTM,2024,126.001487274769,17.111134684907
$GNGGA,000208.50,3447.48633742,N,12138.78456392,W,2,12,0.8,7.590,M,-38.663,M,6.4,0131*60
$PYRTM,2024,126.001487274769,17.111134684907
$GNHDT,127.181,T*27
$PYRTM,2024,126.001493111748,17.111140521887
$GNGGA,000209.00,3447.48559806,N,12138.78362888,W,2,12,0.8,7.877,M,-38.663,M,7.0,0131*65
$PYRTM,2024,126.001493111748,17.111140521887
$GNHDT,126.833,T*26
$PYRTM,2024,126.001498851262,17.111146261400
$GNGGA,000209.50,3447.48484746,N,12138.78264636,W,2,12,0.8,8.107,M,-38.663,M,7.4,0131*63
$PYRTM,2024,126.001498851262,17.111146261400
$GNHDT,126.880,T*2E
$PYRTM,2024,126.001504690764,17.111152100903
$GNGGA,000210.00,3447.48406382,N,12138.78163812,W,2,12,0.8,8.296,M,-38.663,M,7.0,0131*6B
$PYRTM,2024,126.001504690764,17.111152100903
$GNHDT,127.016,T*28
$PYRTM,2024,126.001510428067,17.111157838206
$GNGGA,000210.50,3447.48325468,N,12138.78060285,W,2,12,0.8,8.447,M,-38.663,M,7.4,0131*63
$PYRTM,2024,126.001510428067,17.111157838206
$GNHDT,127.038,T*24
$PYRTM,2024,126.001516264039,17.111163674190
$GNGGA,000211.00,3447.48239815,N,12138.77957455,W,2,12,0.8,8.637,M,-38.663,M,7.0,0131*65
$PYRTM,2024,126.001516264039,17.111163674190
$GNHDT,127.333,T*2C
$PYRTM,2024,126.001521999201,17.111169409352
$GNGGA,000211.50,3447.48152875,N,12138.77853663,W,2,12,0.8,8.829,M,-38.663,M,7.4,0131*6F
$PYRTM,2024,126.001521999201,17.111169409352
$GNHDT,127.708,T*20
$PYRTM,2024,126.001527837338,17.111175247477
$GNGGA,000212.00,3447.48068611,N,12138.77744891,W,2,12,0.8,8.975,M,-38.663,M,4.0,0131*68
$PYRTM,2024,126.001527837338,17.111175247477
$GNHDT,128.171,T*27
$PYRTM,2024,126.001533571910,17.111180982049
$GNGGA,000212.50,3447.47986128,N,12138.77632426,W,2,12,0.8,9.071,M,-38.663,M,4.4,0131*6E
$PYRTM,2024,126.001533571910,17.111180982049
$GNHDT,128.314,T*26
$PYRTM,2024,126.001539411516,17.111186821655
$GNGGA,000213.00,3447.47906553,N,12138.77516207,W,2,12,0.8,9.091,M,-38.663,M,5.0,0131*61
$PYRTM,2024,126.001539411516,17.111186821655
$GNHDT,128.623,T*27
$PYRTM,2024,126.001545144884,17.111192555023
$GNGGA,000213.50,3447.47828007,N,12138.77399786,W,2,12,0.8,9.023,M,-38.663,M,5.4,0131*6D
$PYRTM,2024,126.001545144884,17.111192555023
$GNHDT,128.897,T*26
$PYRTM,2024,126.001550982604,17.111198392755
$GNGGA,000214.00,3447.47749277,N,12138.77287244,W,2,12,0.8,8.866,M,-38.663,M,6.0,0131*68
$PYRTM,2024,126.001550982604,17.111198392755
$GNHDT,128.900,T*29
$PYRTM,2024,126.001556720359,17.111204130498
$GNGGA,000214.50,3447.47670019,N,12138.77180169,W,2,12,0.8,8.655,M,-38.663,M,6.4,0131*6E
$PYRTM,2024,126.001556720359,17.111204130498
$GNHDT,128.691,T*2E
$PYRTM,2024,126.001562564988,17.111209975127
$GNGGA,000215.00,3447.47589188,N,12138.77080319,W,2,12,0.8,8.390,M,-38.663,M,7.0,0131*6B
$PYRTM,2024,126.001562564988,17.111209975127
$GNHDT,128.782,T*2D
$PYRTM,2024,126.001568296782,17.111215706921
$GNGGA,000215.50,3447.47506705,N,12138.76987136,W,2,12,0.8,8.099,M,-38.663,M,7.4,0131*64
$PYRTM,2024,126.001568296782,17.111215706921
$GNHDT,128.841,T*2D
$PYRTM,2024,126.001574134525,17.111221544664
$GNGGA,000216.00,3447.47425083,N,12138.76897627,W,2,12,0.8,7.787,M,-38.663,M,7.0,0131*6F
$PYRTM,2024,126.001574134525,17.111221544664
$GNHDT,128.914,T*2C
$PYRTM,2024,126.001579866412,17.111227276562
$GNGGA,000216.50,3447.47347754,N,12138.76809726,W,2,12,0.8,7.504,M,-38.663,M,7.4,0131*6E
$PYRTM,2024,126.001579866412,17.111227276562
$GNHDT,128.909,T*20
$PYRTM,2024,126.001585705162,17.111233115301
$GNGGA,000217.00,3447.47277326,N,12138.76720898,W,2,12,0.8,7.232,M,-38.663,M,7.0,0131*61
$PYRTM,2024,126.001585705162,17.111233115301
$GNHDT,128.844,T*28
$PYRTM,2024,126.001591446238,17.111238856389
$GNGGA,000217.50,3447.47212633,N,12138.76630971,W,2,12,0.8,7.044,M,-38.663,M,7.4,0131*67
$PYRTM,2024,126.001591446238,17.111238856389
$GNHDT,128.525,T*22
$PYRTM,2024,126.001597285035,17.111244695174
$GNGGA,000218.00,3447.47151530,N,12138.76541330,W,2,12,0.8,6.916,M,-38.663,M,4.0,0131*6B
$PYRTM,2024,126.001597285035,17.111244695174
$GNHDT,128.411,T*24
$PYRTM,2024,126.001603019063,17.111250429201
$GNGGA,000218.50,3447.47090065,N,12138.76454634,W,2,12,0.8,6.867,M,-38.663,M,4.4,0131*60
$PYRTM,2024,126.001603019063,17.111250429201
$GNHDT,128.428,T*2E
$PYRTM,2024,126.001608861343,17.111256271493
$GNGGA,000219.00,3447.47025551,N,12138.76372577,W,2,12,0.8,6.875,M,-38.663,M,5.0,0131*69
$PYRTM,2024,126.001608861343,17.111256271493
$GNHDT,128.214,T*27
$PYRTM,2024,126.001614596539,17.111262006678
$GNGGA,000219.50,3447.46956164,N,12138.76293945,W,2,12,0.8,6.965,M,-38.663,M,5.4,0131*65
$PYRTM,2024,126.001614596539,17.111262006678
$GNHDT,127.634,T*2E
$PYRTM,2024,126.001620432338,17.111267842477
$GNGGA,000220.00,3447.46882022,N,12138.76215880,W,2,12,0.8,7.105,M,-38.663,M,6.0,0131*6F
$PYRTM,2024,126.001620432338,17.111267842477
$GNHDT,127.314,T*29
$PYRTM,2024,126.001626166759,17.111273576898
$GNGGA,000220.50,3447.46804267,N,12138.76135384,W,2,12,0.8,7.291,M,-38.663,M,6.4,0131*63
$PYRTM,2024,126.001626166759,17.111273576898
$GNHDT,127.454,T*2A
$PYRTM,2024,126.001632003889,17.111279414028
$GNGGA,000221.00,3447.46725127,N,12138.76047677,W,2,12,0.8,7.499,M,-38.663,M,7.0,0131*6A
$PYRTM,2024,126.001632003889,17.111279414028
$GNHDT,127.545,T*2B
$PYRTM,2024,126.001637741713,17.111285151852
$GNGGA,000221.50,3447.46647091,N,12138.75950803,W,2,12,0.8,7.756,M,-38.663,M,7.4,0131*63
$PYRTM,2024,126.001637741713,17.111285151852
$GNHDT,127.603,T*2A
$PYRTM,2024,126.001643578912,17.111290989051
$GNGGA,000222.00,3447.46571288,N,12138.75843724,W,2,12,0.8,8.052,M,-38.663,M,7.0,0131*68
$PYRTM,2024,126.001643578912,17.111290989051
$GNHDT,127.665,T*2A
$PYRTM,2024,126.001649309850,17.111296719988
$GNGGA,000222.50,3447.46497382,N,12138.75728656,W,2,12,0.8,8.360,M,-38.663,M,7.4,0131*6F
$PYRTM,2024,126.001649309850,17.111296719988
$GNHDT,127.718,T*21
$PYRTM,2024,126.001655149931,17.111302560069
$GNGGA,000223.00,3447.46423010,N,12138.75608547,W,2,12,0.8,8.647,M,-38.663,M,7.0,0131*68
$PYRTM,2024,126.001655149931,17.111302560069
$GNHDT,127.958,T*2B
$PYRTM,2024,126.001660889653,17.111308299792
$GNGGA,000223.50,3447.46344767,N,12138.75487453,W,2,12,0.8,8.873,M,-38.663,M,7.4,0131*60
$PYRTM,2024,126.001660889653,17.111308299792
$GNHDT,128.383,T*28
$PYRTM,2024,126.001666729294,17.111314139433
$GNGGA,000224.00,3447.46259720,N,12138.75367353,W,2,12,0.8,8.967,M,-38.663,M,4.0,0131*61
$PYRTM,2024,126.001666729294,17.111314139433
$GNHDT,128.764,T*25
$PYRTM,2024,126.001672460394,17.111319870532
$GNGGA,000224.50,3447.46168368,N,12138.75250510,W,2,12,0.8,8.947,M,-38.663,M,4.4,0131*6F
$PYRTM,2024,126.001672460394,17.111319870532
$GNHDT,128.897,T*26
$PYRTM,2024,126.001678302338,17.111325712477
$GNGGA,000225.00,3447.46072524,N,12138.75136257,W,2,12,0.8,8.791,M,-38.663,M,5.0,0131*68
$PYRTM,2024,126.001678302338,17.111325712477
$GNHDT,128.906,T*2F
$PYRTM,2024,126.001684034016,17.111331444155
$GNGGA,000225.50,3447.45976853,N,12138.75022973,W,2,12,0.8,8.580,M,-38.663,M,5.4,0131*61
$PYRTM,2024,126.001684034016,17.111331444155
$GNHDT,128.570,T*22
$PYRTM,2024,126.001689871910,17.111337282049
$GNGGA,000226.00,3447.45884745,N,12138.74910999,W,2,12,0.8,8.364,M,-38.663,M,6.0,0131*65
$PYRTM,2024,126.001689871910,17.111337282049
$GNHDT,128.256,T*21
$PYRTM,2024,126.001695609988,17.111343020139
$GNGGA,000226.50,3447.45799188,N,12138.74799415,W,2,12,0.8,8.149,M,-38.663,M,6.4,0131*6B
$PYRTM,2024,126.001695609988,17.111343020139
$GNHDT,127.801,T*26
$PYRTM,2024,126.001701446863,17.111348856991
$GNGGA,000227.00,3447.45721575,N,12138.74690176,W,2,12,0.8,7.944,M,-38.663,M,7.0,0131*6D
$PYRTM,2024,126.001701446863,17.111348856991
$GNHDT,127.530,T*29
$PYRTM,2024,126.001707182951,17.111354593090
$GNGGA,000227.50,3447.45649296,N,12138.74584460,W,2,12,0.8,7.712,M,-38.663,M,7.4,0131*60
$PYRTM,2024,126.001707182951,17.111354593090
$GNHDT,127.297,T*23
$PYRTM,2024,126.001713023345,17.111360433484
$GNGGA,000228.00,3447.45579476,N,12138.74483187,W,2,12,0.8,7.435,M,-38.663,M,7.0,0131*6A
$PYRTM,2024,126.001713023345,17.111360433484
$GNHDT,127.075,T*2D
$PYRTM,2024,126.001718762593,17.111366172731
$GNGGA,000228.50,3447.45509836,N,12138.74388805,W,2,12,0.8,7.167,M,-38.663,M,7.4,0131*69
$PYRTM,2024,126.001718762593,17.111366172731
$GNHDT,126.724,T*2F
$PYRTM,2024,126.001724597396,17.111372007535
