$PYRTM,2024,124.166666780694,15.276314190833
$GNGGA,040000.00,3506.83512406,N,12133.59805212,W,2,12,0.8,8.341,M,-37.791,M,5.0,0135*65
$PYRTM,2024,124.166666780694,15.276314190833
$GNHDT,338.835,T*2D
$PYRTM,2024,124.166672516979,15.276319927118
$GNGGA,040000.50,3506.83556738,N,12133.59825533,W,2,12,0.8,8.692,M,-37.791,M,5.4,0135*67
$PYRTM,2024,124.166672516979,15.276319927118
$GNHDT,339.381,T*28
$PYRTM,2024,124.166678366759,15.276325776910
$GNGGA,040001.00,3506.83609255,N,12133.59842208,W,2,12,0.8,8.792,M,-37.791,M,6.0,0135*6C
$PYRTM,2024,124.166678366759,15.276325776910
$GNHDT,339.370,T*26
$PYRTM,2024,124.166684089433,15.276331499572
$GNGGA,040001.50,3506.83667690,N,12133.59858968,W,2,12,0.8,8.568,M,-37.791,M,6.4,0135*69
$PYRTM,2024,124.166684089433,15.276331499572
$GNHDT,339.273,T*24
$PYRTM,2024,124.166689939769,15.276337349919
$GNGGA,040002.00,3506.83729670,N,12133.59880948,W,2,12,0.8,8.072,M,-37.791,M,7.0,0135*66
$PYRTM,2024,124.166689939769,15.276337349919
$GNHDT,338.787,T*2B
$PYRTM,2024,124.166695671516,15.276343081655
$GNGGA,040002.50,3506.83788401,N,12133.59910303,W,2,12,0.8,7.487,M,-37.791,M,7.4,0135*64
$PYRTM,2024,124.166695671516,15.276343081655
$GNHDT,338.842,T*2D
$PYRTM,2024,124.166701505475,15.276348915613
$GNGGA,040003.00,3506.83839617,N,12133.59947986,W,2,12,0.8,7.085,M,-37.791,M,7.0,0135*67
$PYRTM,2024,124.166701505475,15.276348915613
$GNHDT,338.718,T*2D
$PYRTM,2024,124.166707243704,15.276354653843
$GNGGA,040003.50,3506.83883691,N,12133.59987157,W,2,12,0.8,7.010,M,-37.791,M,7.4,0135*6D
$PYRTM,2024,124.166707243704,15.276354653843
$GNHDT,338.769,T*2B
$PYRTM,2024,124.166713085937,15.276360496088
$GNGGA,040004.00,3506.83922003,N,12133.60022406,W,2,12,0.8,7.303,M,-37.791,M,7.0,0135*60
$PYRTM,2024,124.166713085937,15.276360496088
$GNHDT,338.766,T*24
$PYRTM,2024,124.166718825208,15.276366235359
$GNGGA,040004.50,3506.83959987,N,12133.60052502,W,2,12,0.8,7.778,M,-37.791,M,7.4,0135*62
$PYRTM,2024,124.166718825208,15.276366235359
$GNHDT,339.213,T*22
$PYRTM,2024,124.166724651389,15.276372061528
$GNGGA,040005.00,3506.84002145,N,12133.60077208,W,2,12,0.8,8.228,M,-37.791,M,4.0,0135*62
$PYRTM,2024,124.166724651389,15.276372061528
$GNHDT,339.313,T*23
$PYRTM,2024,124.166730393090,15.276377803229
$GNGGA,040005.50,3506.84049944,N,12133.60096418,W,2,12,0.8,8.531,M,-37.791,M,4.4,0135*62
$PYRTM,2024,124.166730393090,15.276377803229
$GNHDT,339.981,T*22
$PYRTM,2024,124.166736226134,15.276383636273
$GNGGA,040006.00,3506.84103079,N,12133.60113900,W,2,12,0.8,8.602,M,-37.791,M,5.0,0135*62
$PYRTM,2024,124.166736226134,15.276383636273
$GNHDT,340.183,T*26
$PYRTM,2024,124.166741967396,15.276389377535
$GNGGA,040006.50,3506.84158517,N,12133.60134886,W,2,12,0.8,8.459,M,-37.791,M,5.4,0135*66
$PYRTM,2024,124.166741967396,15.276389377535
$GNHDT,339.894,T*27
$PYRTM,2024,124.166747805532,15.276395215671
$GNGGA,040007.00,3506.84215883,N,12133.60163859,W,2,12,0.8,8.129,M,-37.791,M,6.0,0135*6D
$PYRTM,2024,124.166747805532,15.276395215671
$GNHDT,339.305,T*24
$PYRTM,2024,124.166753543727,15.276400953866
$GNGGA,040007.50,3506.84271566,N,12133.60203821,W,2,12,0.8,7.714,M,-37.791,M,6.4,0135*65
$PYRTM,2024,124.166753543727,15.276400953866
$GNHDT,338.725,T*23
$PYRTM,2024,124.166759373831,15.276406783970
$GNGGA,040008.00,3506.84322436,N,12133.60249727,W,2,12,0.8,7.357,M,-37.791,M,7.0,0135*6D
$PYRTM,2024,124.166759373831,15.276406783970
$GNHDT,338.351,T*24
$PYRTM,2024,124.166765112396,15.276412522535
$GNGGA,040008.50,3506.84368569,N,12133.60293673,W,2,12,0.8,7.203,M,-37.791,M,7.4,0135*6E
$PYRTM,2024,124.166765112396,15.276412522535
$GNHDT,338.514,T*23
$PYRTM,2024,124.166770949201,15.276418359340
$GNGGA,040009.00,3506.84411348,N,12133.60328497,W,2,12,0.8,7.282,M,-37.791,M,7.0,0135*62
$PYRTM,2024,124.166770949201,15.276418359340
$GNHDT,338.983,T*21
$PYRTM,2024,124.166776688854,15.276424098993
$GNGGA,040009.50,3506.84455808,N,12133.60351773,W,2,12,0.8,7.558,M,-37.791,M,7.4,0135*6B
$PYRTM,2024,124.166776688854,15.276424098993
$GNHDT,339.592,T*2C
$PYRTM,2024,124.166782529178,15.276429939317
$GNGGA,040010.00,3506.84505444,N,12133.60364036,W,2,12,0.8,7.843,M,-37.791,M,7.0,0135*65
$PYRTM,2024,124.166782529178,15.276429939317
$GNHDT,339.947,T*28
$PYRTM,2024,124.166788257315,15.276435667454
$GNGGA,040010.50,3506.84562659,N,12133.60371475,W,2,12,0.8,7.963,M,-37.791,M,7.4,0135*6F
$PYRTM,2024,124.166788257315,15.276435667454
$GNHDT,340.158,T*20
$PYRTM,2024,124.166794096458,15.276441506597
$GNGGA,040011.00,3506.84624464,N,12133.60382384,W,2,12,0.8,7.942,M,-37.791,M,4.0,0135*67
$PYRTM,2024,124.166794096458,15.276441506597
$GNHDT,339.886,T*24
$PYRTM,2024,124.166799839410,15.276447249549
$GNGGA,040011.50,3506.84685721,N,12133.60406969,W,2,12,0.8,7.775,M,-37.791,M,4.4,0135*67
$PYRTM,2024,124.166799839410,15.276447249549
$GNHDT,339.601,T*25
$PYRTM,2024,124.166805671806,15.276453081956
$GNGGA,040012.00,3506.84740707,N,12133.60445850,W,2,12,0.8,7.601,M,-37.791,M,5.0,0135*66
$PYRTM,2024,124.166805671806,15.276453081956
$GNHDT,339.211,T*20
$PYRTM,2024,124.166811411551,15.276458821690
$GNGGA,040012.50,3506.84788531,N,12133.60491349,W,2,12,0.8,7.523,M,-37.791,M,5.4,0135*6D
$PYRTM,2024,124.166811411551,15.276458821690
$GNHDT,339.361,T*26
$PYRTM,2024,124.166817245428,15.276464655567
$GNGGA,040013.00,3506.84832693,N,12133.60531289,W,2,12,0.8,7.512,M,-37.791,M,6.0,0135*6F
$PYRTM,2024,124.166817245428,15.276464655567
$GNHDT,339.556,T*24
$PYRTM,2024,124.166822984826,15.276470394965
$GNGGA,040013.50,3506.84876855,N,12133.60565253,W,2,12,0.8,7.627,M,-37.791,M,6.4,0135*69
$PYRTM,2024,124.166822984826,15.276470394965
$GNHDT,339.746,T*27
$PYRTM,2024,124.166828820324,15.276476230475
$GNGGA,040014.00,3506.84925972,N,12133.60591611,W,2,12,0.8,7.712,M,-37.791,M,7.0,0135*63
$PYRTM,2024,124.166828820324,15.276476230475
$GNHDT,339.701,T*24
$PYRTM,2024,124.166834557315,15.276481967454
$GNGGA,040014.50,3506.84980375,N,12133.60615906,W,2,12,0.8,7.740,M,-37.791,M,7.4,0135*61
$PYRTM,2024,124.166834557315,15.276481967454
$GNHDT,339.312,T*22
$PYRTM,2024,124.166840396227,15.276487806366
$GNGGA,040015.00,3506.85039088,N,12133.60638371,W,2,12,0.8,7.597,M,-37.791,M,7.0,0135*67
$PYRTM,2024,124.166840396227,15.276487806366
$GNHDT,338.850,T*2E
$PYRTM,2024,124.166846129676,15.276493539815
$GNGGA,040015.50,3506.85098971,N,12133.60660519,W,2,12,0.8,7.341,M,-37.791,M,7.4,0135*6A
$PYRTM,2024,124.166846129676,15.276493539815
$GNHDT,338.317,T*26
$PYRTM,2024,124.166851967384,15.276499377523
$GNGGA,040016.00,3506.85156387,N,12133.60681923,W,2,12,0.8,7.071,M,-37.791,M,7.0,0135*62
$PYRTM,2024,124.166851967384,15.276499377523
$GNHDT,338.383,T*2B
$PYRTM,2024,124.166857706887,15.276505117025
$GNGGA,040016.50,3506.85209537,N,12133.60702786,W,2,12,0.8,6.947,M,-37.791,M,7.4,0135*61
$PYRTM,2024,124.166857706887,15.276505117025
$GNHDT,338.975,T*28
$PYRTM,2024,124.166863542384,15.276510952523
$GNGGA,040017.00,3506.85259477,N,12133.60726466,W,2,12,0.8,7.012,M,-37.791,M,4.0,0135*61
$PYRTM,2024,124.166863542384,15.276510952523
$GNHDT,339.410,T*27
$PYRTM,2024,124.166869283495,15.276516693646
$GNGGA,040017.50,3506.85308267,N,12133.60755653,W,2,12,0.8,7.203,M,-37.791,M,4.4,0135*60
$PYRTM,2024,124.166869283495,15.276516693646
$GNHDT,339.627,T*21
$PYRTM,2024,124.166875113808,15.276522523947
$GNGGA,040018.00,3506.85358474,N,12133.60792174,W,2,12,0.8,7.378,M,-37.791,M,5.0,0135*6A
$PYRTM,2024,124.166875113808,15.276522523947
$GNHDT,339.479,T*28
$PYRTM,2024,124.166880848137,15.276528258275
$GNGGA,040018.50,3506.85410218,N,12133.60833043,W,2,12,0.8,7.481,M,-37.791,M,5.4,0135*6C
$PYRTM,2024,124.166880848137,15.276528258275
$GNHDT,339.159,T*2F
$PYRTM,2024,124.166886689363,15.276534099502
$GNGGA,040019.00,3506.85460348,N,12133.60874544,W,2,12,0.8,7.566,M,-37.791,M,6.0,0135*65
$PYRTM,2024,124.166886689363,15.276534099502
$GNHDT,338.826,T*2F
$PYRTM,2024,124.166892426412,15.276539836551
$GNGGA,040019.50,3506.85509994,N,12133.60912240,W,2,12,0.8,7.656,M,-37.791,M,6.4,0135*63
$PYRTM,2024,124.166892426412,15.276539836551
$GNHDT,338.378,T*2F
$PYRTM,2024,124.166898263854,15.276545673993
$GNGGA,040020.00,3506.85561721,N,12133.60946733,W,2,12,0.8,7.722,M,-37.791,M,7.0,0135*65
$PYRTM,2024,124.166898263854,15.276545673993
$GNHDT,338.071,T*25
$PYRTM,2024,124.166904002488,15.276551412627
$GNGGA,040020.50,3506.85618132,N,12133.60977683,W,2,12,0.8,7.673,M,-37.791,M,7.4,0135*60
$PYRTM,2024,124.166904002488,15.276551412627
$GNHDT,337.885,T*29
$PYRTM,2024,124.166909837245,15.276557247384
$GNGGA,040021.00,3506.85676704,N,12133.61004906,W,2,12,0.8,7.528,M,-37.791,M,7.0,0135*68
$PYRTM,2024,124.166909837245,15.276557247384
$GNHDT,337.971,T*23
$PYRTM,2024,124.166915574005,15.276562984144
$GNGGA,040021.50,3506.85732243,N,12133.61028546,W,2,12,0.8,7.383,M,-37.791,M,7.4,0135*6F
$PYRTM,2024,124.166915574005,15.276562984144
$GNHDT,338.169,T*2D
$PYRTM,2024,124.166921413171,15.276568823310
$GNGGA,040022.00,3506.85783606,N,12133.61052893,W,2,12,0.8,7.289,M,-37.791,M,7.0,0135*61
$PYRTM,2024,124.166921413171,15.276568823310
$GNHDT,338.414,T*22
$PYRTM,2024,124.166927146366,15.276574556505
$GNGGA,040022.50,3506.85834041,N,12133.61081724,W,2,12,0.8,7.274,M,-37.791,M,7.4,0135*69
$PYRTM,2024,124.166927146366,15.276574556505
$GNHDT,338.487,T*28
$PYRTM,2024,124.166932990509,15.276580400648
$GNGGA,040023.00,3506.85888437,N,12133.61118703,W,2,12,0.8,7.241,M,-37.791,M,4.0,0135*6A
$PYRTM,2024,124.166932990509,15.276580400648
$GNHDT,338.517,T*20
$PYRTM,2024,124.166938718380,15.276586128519
$GNGGA,040023.50,3506.85948693,N,12133.61160739,W,2,12,0.8,7.187,M,-37.791,M,4.4,0135*65
$PYRTM,2024,124.166938718380,15.276586128519
$GNHDT,338.426,T*23
$PYRTM,2024,124.166944557963,15.276591968102
$GNGGA,040024.00,3506.86011767,N,12133.61206286,W,2,12,0.8,7.171,M,-37.791,M,5.0,0135*65
$PYRTM,2024,124.166944557963,15.276591968102
$GNHDT,337.951,T*21
$PYRTM,2024,124.166950297095,15.276597707234
$GNGGA,040024.50,3506.86072719,N,12133.61248692,W,2,12,0.8,7.257,M,-37.791,M,5.4,0135*64
$PYRTM,2024,124.166950297095,15.276597707234
$GNHDT,337.777,T*2B
$PYRTM,2024,124.166956134062,15.276603544201
$GNGGA,040025.00,3506.86127215,N,12133.61286579,W,2,12,0.8,7.515,M,-37.791,M,6.0,0135*6A
$PYRTM,2024,124.166956134062,15.276603544201
$GNHDT,337.675,T*28
$PYRTM,2024,124.166961869178,15.276609279317
$GNGGA,040025.50,3506.86174212,N,12133.61319322,W,2,12,0.8,7.902,M,-37.791,M,6.4,0135*6F
$PYRTM,2024,124.166961869178,15.276609279317
$GNHDT,337.603,T*29
$PYRTM,2024,124.166967708565,15.276615118704
$GNGGA,040026.00,3506.86216503,N,12133.61348428,W,2,12,0.8,8.291,M,-37.791,M,7.0,0135*6B
$PYRTM,2024,124.166967708565,15.276615118704
$GNHDT,337.811,T*24
$PYRTM,2024,124.166973444560,15.276620854711
$GNGGA,040026.50,3506.86262134,N,12133.61376433,W,2,12,0.8,8.508,M,-37.791,M,7.4,0135*69
$PYRTM,2024,124.166973444560,15.276620854711
$GNHDT,337.942,T*23
$PYRTM,2024,124.166979284213,15.276626694352
$GNGGA,040027.00,3506.86315894,N,12133.61401235,W,2,12,0.8,8.444,M,-37.791,M,7.0,0135*65
$PYRTM,2024,124.166979284213,15.276626694352
$GNHDT,338.055,T*23
$PYRTM,2024,124.166985016875,15.276632427014
$GNGGA,040027.50,3506.86377288,N,12133.61422130,W,2,12,0.8,8.105,M,-37.792,M,7.4,0135*63
$PYRTM,2024,124.166985016875,15.276632427014
$GNHDT,338.234,T*26
$PYRTM,2024,124.166990865741,15.276638275880
$GNGGA,040028.00,3506.86440345,N,12133.61441210,W,2,12,0.8,7.644,M,-37.792,M,7.0,0135*67
$PYRTM,2024,124.166990865741,15.276638275880
$GNHDT,337.881,T*2D
$PYRTM,2024,124.166996593414,15.276644003553
$GNGGA,040028.50,3506.86499782,N,12133.61464038,W,2,12,0.8,7.185,M,-37.792,M,7.4,0135*68
$PYRTM,2024,124.166996593414,15.276644003553
$GNHDT,337.551,T*2D
$PYRTM,2024,124.167002432350,15.276649842488
$GNGGA,040029.00,3506.86549644,N,12133.61501392,W,2,12,0.8,6.958,M,-37.792,M,4.0,0135*64
$PYRTM,2024,124.167002432350,15.276649842488
$GNHDT,337.093,T*26
$PYRTM,2024,124.167008166088,15.276655576227
$GNGGA,040029.50,3506.86593369,N,12133.61551233,W,2,12,0.8,6.886,M,-37.792,M,4.4,0135*65
$PYRTM,2024,124.167008166088,15.276655576227
$GNHDT,336.638,T*20
$PYRTM,2024,124.167014004363,15.276661414502
$GNGGA,040030.00,3506.86634369,N,12133.61610468,W,2,12,0.8,6.887,M,-37.792,M,5.0,0135*6C
$PYRTM,2024,124.167014004363,15.276661414502
$GNHDT,336.215,T*2B
$PYRTM,2024,124.167019743183,15.276667153322
$GNGGA,040030.50,3506.86679384,N,12133.61670424,W,2,12,0.8,6.925,M,-37.792,M,5.4,0135*60
$PYRTM,2024,124.167019743183,15.276667153322
$GNHDT,335.716,T*2E
$PYRTM,2024,124.167025578900,15.276672989039
$GNGGA,040031.00,3506.86730298,N,12133.61719202,W,2,12,0.8,6.987,M,-37.792,M,6.0,0135*67
$PYRTM,2024,124.167025578900,15.276672989039
$GNHDT,335.719,T*21
$PYRTM,2024,124.167031318356,15.276678728495
$GNGGA,040031.50,3506.86784157,N,12133.61745364,W,2,12,0.8,7.195,M,-37.792,M,6.4,0135*6B
$PYRTM,2024,124.167031318356,15.276678728495
$GNHDT,335.993,T*2D
$PYRTM,2024,124.167037165301,15.276684575451
$GNGGA,040032.00,3506.86835984,N,12133.61752244,W,2,12,0.8,7.587,M,-37.792,M,7.0,0135*69
$PYRTM,2024,124.167037165301,15.276684575451
$GNHDT,336.039,T*27
$PYRTM,2024,124.167042893183,15.276690303322
$GNGGA,040032.50,3506.86885947,N,12133.61748271,W,2,12,0.8,8.061,M,-37.792,M,7.4,0135*63
$PYRTM,2024,124.167042893183,15.276690303322
$GNHDT,336.549,T*25
$PYRTM,2024,124.167048731435,15.276696141574
$GNGGA,040033.00,3506.86934198,N,12133.61743997,W,2,12,0.8,8.532,M,-37.792,M,7.0,0135*69
$PYRTM,2024,124.167048731435,15.276696141574
$GNHDT,336.778,T*25
$PYRTM,2024,124.167054462975,15.276701873113
$GNGGA,040033.50,3506.86984626,N,12133.61753089,W,2,12,0.8,8.719,M,-37.792,M,7.4,0135*6D
$PYRTM,2024,124.167054462975,15.276701873113
$GNHDT,336.597,T*26
$PYRTM,2024,124.167060303576,15.276707713715
$GNGGA,040034.00,3506.87037086,N,12133.61782675,W,2,12,0.8,8.517,M,-37.792,M,7.0,0135*62
$PYRTM,2024,124.167060303576,15.276707713715
$GNHDT,336.626,T*2F
$PYRTM,2024,124.167066040718,15.276713450856
$GNGGA,040034.50,3506.87088434,N,12133.61833653,W,2,12,0.8,7.990,M,-37.792,M,7.4,0135*67
$PYRTM,2024,124.167066040718,15.276713450856
$GNHDT,336.482,T*23
$PYRTM,2024,124.167071890602,15.276719300741
$GNGGA,040035.00,3506.87137568,N,12133.61900123,W,2,12,0.8,7.287,M,-37.792,M,4.0,0135*65
$PYRTM,2024,124.167071890602,15.276719300741
$GNHDT,336.584,T*24
$PYRTM,2024,124.167077613461,15.276725023600
$GNGGA,040035.50,3506.87184268,N,12133.61969309,W,2,12,0.8,6.707,M,-37.792,M,4.4,0135*62
$PYRTM,2024,124.167077613461,15.276725023600
$GNHDT,336.150,T*29
$PYRTM,2024,124.167083448924,15.276730859062
$GNGGA,040036.00,3506.87226665,N,12133.62022434,W,2,12,0.8,6.516,M,-37.792,M,5.0,0135*6D
$PYRTM,2024,124.167083448924,15.276730859062
$GNHDT,336.067,T*2C
$PYRTM,2024,124.167089189850,15.276736599988
$GNGGA,040036.50,3506.87264673,N,12133.62047298,W,2,12,0.8,6.864,M,-37.792,M,5.4,0135*66
$PYRTM,2024,124.167089189850,15.276736599988
$GNHDT,336.146,T*2E
$PYRTM,2024,124.167095034317,15.276742444456
$GNGGA,040037.00,3506.87301205,N,12133.62045544,W,2,12,0.8,7.502,M,-37.792,M,6.0,0135*6A
$PYRTM,2024,124.167095034317,15.276742444456
$GNHDT,336.725,T*2D
$PYRTM,2024,124.167100767870,15.276748178009
$GNGGA,040037.50,3506.87343882,N,12133.62027806,W,2,12,0.8,8.178,M,-37.792,M,6.4,0135*61
$PYRTM,2024,124.167100767870,15.276748178009
$GNHDT,337.435,T*2E
$PYRTM,2024,124.167106606644,15.276754016782
$GNGGA,040038.00,3506.87395939,N,12133.62016386,W,2,12,0.8,8.595,M,-37.792,M,7.0,0135*62
$PYRTM,2024,124.167106606644,15.276754016782
$GNHDT,338.168,T*2C
$PYRTM,2024,124.167112332535,15.276759742674
$GNGGA,040038.50,3506.87457921,N,12133.62020308,W,2,12,0.8,8.595,M,-37.792,M,7.4,0135*60
$PYRTM,2024,124.167112332535,15.276759742674
$GNHDT,338.676,T*24
$PYRTM,2024,124.167118169051,15.276765579190
$GNGGA,040039.00,3506.87521121,N,12133.62045823,W,2,12,0.8,8.256,M,-37.792,M,7.0,0135*61
$PYRTM,2024,124.167118169051,15.276765579190
$GNHDT,338.907,T*2D
$PYRTM,2024,124.167123911863,15.276771322002
$GNGGA,040039.50,3506.87576335,N,12133.62088519,W,2,12,0.8,7.887,M,-37.792,M,7.4,0135*69
$PYRTM,2024,124.167123911863,15.276771322002
$GNHDT,338.739,T*2E
$PYRTM,2024,124.167129758356,15.276777168495
$GNGGA,040040.00,3506.87620633,N,12133.62142061,W,2,12,0.8,7.665,M,-37.792,M,7.0,0135*6A
$PYRTM,2024,124.167129758356,15.276777168495
$GNHDT,338.076,T*22
$PYRTM,2024,124.167135482095,15.276782892234
$GNGGA,040040.50,3506.87653454,N,12133.62199630,W,2,12,0.8,7.695,M,-37.792,M,7.4,0135*67
$PYRTM,2024,124.167135482095,15.276782892234
$GNHDT,338.290,T*28
$PYRTM,2024,124.167141329965,15.276788740104
$GNGGA,040041.00,3506.87679425,N,12133.62251231,W,2,12,0.8,7.955,M,-37.792,M,4.0,0135*6B
$PYRTM,2024,124.167141329965,15.276788740104
$GNHDT,338.284,T*2D
$PYRTM,2024,124.167147057292,15.276794467431
$GNGGA,040041.50,3506.87708948,N,12133.62286912,W,2,12,0.8,8.256,M,-37.792,M,4.4,0135*6C
$PYRTM,2024,124.167147057292,15.276794467431
$GNHDT,338.787,T*2B
$PYRTM,2024,124.167152901331,15.276800311470
$GNGGA,040042.00,3506.87751234,N,12133.62301785,W,2,12,0.8,8.388,M,-37.792,M,5.0,0135*6F
$PYRTM,2024,124.167152901331,15.276800311470
$GNHDT,338.989,T*2B
$PYRTM,2024,124.167158634861,15.276806045012
$GNGGA,040042.50,3506.87807349,N,12133.62303609,W,2,12,0.8,8.256,M,-37.792,M,5.4,0135*6C
$PYRTM,2024,124.167158634861,15.276806045012
$GNHDT,339.319,T*29
$PYRTM,2024,124.167164477338,15.276811887477
$GNGGA,040043.00,3506.87869625,N,12133.62303276,W,2,12,0.8,7.920,M,-37.792,M,6.0,0135*61
$PYRTM,2024,124.167164477338,15.276811887477
$GNHDT,339.391,T*29
$PYRTM,2024,124.167170204016,15.276817614155
$GNGGA,040043.50,3506.87932495,N,12133.62308302,W,2,12,0.8,7.544,M,-37.792,M,6.4,0135*61
$PYRTM,2024,124.167170204016,15.276817614155
$GNHDT,338.986,T*24
$PYRTM,2024,124.167176049606,15.276823459745
$GNGGA,040044.00,3506.87988249,N,12133.62326466,W,2,12,0.8,7.306,M,-37.792,M,7.0,0135*69
$PYRTM,2024,124.167176049606,15.276823459745
$GNHDT,338.609,T*2C
$PYRTM,2024,124.167181776458,15.276829186609
$GNGGA,040044.50,3506.88034149,N,12133.62360684,W,2,12,0.8,7.297,M,-37.792,M,7.4,0135*6F
$PYRTM,2024,124.167181776458,15.276829186609
$GNHDT,338.266,T*21
$PYRTM,2024,124.167187622569,15.276835032708
$GNGGA,040045.00,3506.88074475,N,12133.62405058,W,2,12,0.8,7.456,M,-37.792,M,7.0,0135*69
$PYRTM,2024,124.167187622569,15.276835032708
$GNHDT,338.016,T*24
$PYRTM,2024,124.167193351921,15.276840762060
$GNGGA,040045.50,3506.88113908,N,12133.62456104,W,2,12,0.8,7.703,M,-37.792,M,7.4,0135*62
$PYRTM,2024,124.167193351921,15.276840762060
$GNHDT,338.149,T*2F
$PYRTM,2024,124.167199190868,15.276846601007
$GNGGA,040046.00,3506.88156402,N,12133.62509947,W,2,12,0.8,7.888,M,-37.792,M,7.0,0135*6E
$PYRTM,2024,124.167199190868,15.276846601007
$GNHDT,337.948,T*29
$PYRTM,2024,124.167204923194,15.276852333345
$GNGGA,040046.50,3506.88202416,N,12133.62556305,W,2,12,0.8,8.009,M,-37.792,M,7.4,0135*60
$PYRTM,2024,124.167204923194,15.276852333345
$GNHDT,337.628,T*20
$PYRTM,2024,124.167210763970,15.276858174109
$GNGGA,040047.00,3506.88249497,N,12133.62586221,W,2,12,0.8,8.118,M,-37.792,M,4.0,0135*6E
$PYRTM,2024,124.167210763970,15.276858174109
$GNHDT,337.340,T*2B
$PYRTM,2024,124.167216504016,15.276863914155
$GNGGA,040047.50,3506.88293962,N,12133.62600476,W,2,12,0.8,8.261,M,-37.792,M,4.4,0135*6B
$PYRTM,2024,124.167216504016,15.276863914155
$GNHDT,337.484,T*24
$PYRTM,2024,124.167222349606,15.276869759745
$GNGGA,040048.00,3506.88336306,N,12133.62600293,W,2,12,0.8,8.426,M,-37.792,M,5.0,0135*6A
$PYRTM,2024,124.167222349606,15.276869759745
$GNHDT,338.126,T*26
$PYRTM,2024,124.167228078102,15.276875488241
$GNGGA,040048.50,3506.88380477,N,12133.62595347,W,2,12,0.8,8.506,M,-37.792,M,5.4,0135*63
$PYRTM,2024,124.167228078102,15.276875488241
$GNHDT,338.381,T*29
$PYRTM,2024,124.167233911898,15.276881322037
$GNGGA,040049.00,3506.88430475,N,12133.62595340,W,2,12,0.8,8.374,M,-37.792,M,6.0,0135*6A
$PYRTM,2024,124.167233911898,15.276881322037
$GNHDT,338.624,T*23
$PYRTM,2024,124.167239646470,15.276887056609
$GNGGA,040049.50,3506.88486986,N,12133.62609315,W,2,12,0.8,7.985,M,-37.792,M,6.4,0135*6A
$PYRTM,2024,124.167239646470,15.276887056609
$GNHDT,338.810,T*2A
$PYRTM,2024,124.167245495208,15.276892905347
$GNGGA,040050.00,3506.88545708,N,12133.62642225,W,2,12,0.8,7.380,M,-37.792,M,7.0,0135*66
$PYRTM,2024,124.167245495208,15.276892905347
$GNHDT,338.348,T*2C
$PYRTM,2024,124.167251223600,15.276898633738
$GNGGA,040050.50,3506.88602220,N,12133.62692010,W,2,12,0.8,6.825,M,-37.792,M,7.4,0135*64
$PYRTM,2024,124.167251223600,15.276898633738
$GNHDT,338.044,T*23
$PYRTM,2024,124.167257070058,15.276904480197
$GNGGA,040051.00,3506.88650395,N,12133.62749895,W,2,12,0.8,6.608,M,-37.792,M,7.0,0135*6F
$PYRTM,2024,124.167257070058,15.276904480197
$GNHDT,337.521,T*2A
$PYRTM,2024,124.167262795521,15.276910205660
$GNGGA,040051.50,3506.88688544,N,12133.62803622,W,2,12,0.8,6.820,M,-37.792,M,7.4,0135*66
$PYRTM,2024,124.167262795521,15.276910205660
$GNHDT,337.560,T*2F
$PYRTM,2024,124.167268638785,15.276916048924
$GNGGA,040052.00,3506.88718644,N,12133.62844310,W,2,12,0.8,7.475,M,-37.792,M,7.0,0135*65
$PYRTM,2024,124.167268638785,15.276916048924
$GNHDT,337.238,T*25
$PYRTM,2024,124.167274370370,15.276921780509
$GNGGA,040052.50,3506.88749456,N,12133.62867364,W,2,12,0.8,8.205,M,-37.792,M,7.4,0135*6D
$PYRTM,2024,124.167274370370,15.276921780509
$GNHDT,337.598,T*28
$PYRTM,2024,124.167280224734,15.276927634873
$GNGGA,040053.00,3506.88788643,N,12133.62875651,W,2,12,0.8,8.785,M,-37.792,M,4.0,0135*68
$PYRTM,2024,124.167280224734,15.276927634873
$GNHDT,338.066,T*23
$PYRTM,2024,124.167285948241,15.276933358391
$GNGGA,040053.50,3506.88843916,N,12133.62878282,W,2,12,0.8,8.959,M,-37.792,M,4.4,0135*66
$PYRTM,2024,124.167285948241,15.276933358391
$GNHDT,338.563,T*23
$PYRTM,2024,124.167291788206,15.276939198345
$GNGGA,040054.00,3506.88910687,N,12133.62883844,W,2,12,0.8,8.602,M,-37.792,M,5.0,0135*64
$PYRTM,2024,124.167291788206,15.276939198345
$GNHDT,338.537,T*22
$PYRTM,2024,124.167297520995,15.276944931134
$GNGGA,040054.50,3506.88976934,N,12133.62897947,W,2,12,0.8,7.970,M,-37.792,M,5.4,0135*60
$PYRTM,2024,124.167297520995,15.276944931134
$GNHDT,338.964,T*28
$PYRTM,2024,124.167303360139,15.276950770278
$GNGGA,040055.00,3506.89033007,N,12133.62923436,W,2,12,0.8,7.444,M,-37.792,M,6.0,0135*6C
$PYRTM,2024,124.167303360139,15.276950770278
$GNHDT,338.659,T*29
$PYRTM,2024,124.167309089144,15.276956499282
$GNGGA,040055.50,3506.89074669,N,12133.62959881,W,2,12,0.8,7.289,M,-37.792,M,6.4,0135*6A
$PYRTM,2024,124.167309089144,15.276956499282
$GNHDT,338.440,T*23
$PYRTM,2024,124.167314941435,15.276962351574
$GNGGA,040056.00,3506.89102626,N,12133.63004641,W,2,12,0.8,7.585,M,-37.792,M,7.0,0135*6B
$PYRTM,2024,124.167314941435,15.276962351574
$GNHDT,338.131,T*20
$PYRTM,2024,124.167320665058,15.276968075197
$GNGGA,040056.50,3506.89125471,N,12133.63051262,W,2,12,0.8,8.049,M,-37.792,M,7.4,0135*60
$PYRTM,2024,124.167320665058,15.276968075197
$GNHDT,337.858,T*29
$PYRTM,2024,124.167326508588,15.276973918727
$GNGGA,040057.00,3506.89151747,N,12133.63096557,W,2,12,0.8,8.501,M,-37.792,M,7.0,0135*66
$PYRTM,2024,124.167326508588,15.276973918727
$GNHDT,337.598,T*28
$PYRTM,2024,124.167332237211,15.276979647350
$GNGGA,040057.50,3506.89192249,N,12133.63134546,W,2,12,0.8,8.606,M,-37.792,M,7.4,0135*6E
$PYRTM,2024,124.167332237211,15.276979647350
$GNHDT,337.185,T*20
$PYRTM,2024,124.167338078275,15.276985488426
$GNGGA,040058.00,3506.89247566,N,12133.63161499,W,2,12,0.8,8.344,M,-37.792,M,7.0,0135*61
$PYRTM,2024,124.167338078275,15.276985488426
$GNHDT,336.981,T*2D
$PYRTM,2024,124.167343817083,15.276991227222
$GNGGA,040058.50,3506.89310311,N,12133.63180855,W,2,12,0.8,7.823,M,-37.792,M,7.4,0135*63
$PYRTM,2024,124.167343817083,15.276991227222
$GNHDT,336.970,T*23
$PYRTM,2024,124.167349653183,15.276997063322
$GNGGA,040059.00,3506.89372169,N,12133.63196721,W,2,12,0.8,7.291,M,-37.792,M,4.0,0135*61
$PYRTM,2024,124.167349653183,15.276997063322
$GNHDT,337.036,T*29
$PYRTM,2024,124.167355389132,15.277002799282
$GNGGA,040059.50,3506.89425949,N,12133.63216540,W,2,12,0.8,6.917,M,-37.792,M,4.4,0135*65
$PYRTM,2024,124.167355389132,15.277002799282
$GNHDT,336.486,T*27
$PYRTM,2024,124.167361227558,15.277008637697
$GNGGA,040100.00,3506.89469272,N,12133.63244696,W,2,12,0.8,6.912,M,-37.792,M,5.0,0135*69
$PYRTM,2024,124.167361227558,15.277008637697
$GNHDT,336.299,T*2F
$PYRTM,2024,124.167366961308,15.277014371458
$GNGGA,040100.50,3506.89503831,N,12133.63279544,W,2,12,0.8,7.226,M,-37.792,M,5.4,0135*67
$PYRTM,2024,124.167366961308,15.277014371458
$GNHDT,336.084,T*21
$PYRTM,2024,124.167372809340,15.277020219479
$GNGGA,040101.00,3506.89536265,N,12133.63317056,W,2,12,0.8,7.731,M,-37.792,M,6.0,0135*65
$PYRTM,2024,124.167372809340,15.277020219479
$GNHDT,336.013,T*2F
$PYRTM,2024,124.167378534282,15.277025944421
$GNGGA,040101.50,3506.89571131,N,12133.63357286,W,2,12,0.8,8.199,M,-37.792,M,6.4,0135*65
$PYRTM,2024,124.167378534282,15.277025944421
$GNHDT,335.643,T*2F
$PYRTM,2024,124.167384383113,15.277031793252
$GNGGA,040102.00,3506.89614720,N,12133.63399957,W,2,12,0.8,8.402,M,-37.792,M,7.0,0135*62
$PYRTM,2024,124.167384383113,15.277031793252
$GNHDT,335.407,T*2D
$PYRTM,2024,124.167390112361,15.277037522500
$GNGGA,040102.50,3506.89663552,N,12133.63439413,W,2,12,0.8,8.333,M,-37.792,M,7.4,0135*61
$PYRTM,2024,124.167390112361,15.277037522500
$GNHDT,335.352,T*2A
$PYRTM,2024,124.167395955984,15.277043366123
$GNGGA,040103.00,3506.89713172,N,12133.63473356,W,2,12,0.8,8.141,M,-37.792,M,7.0,0135*6E
$PYRTM,2024,124.167395955984,15.277043366123
$GNHDT,335.367,T*2C
$PYRTM,2024,124.167401683565,15.277049093704
$GNGGA,040103.50,3506.89761257,N,12133.63500941,W,2,12,0.8,7.915,M,-37.792,M,7.4,0135*61
$PYRTM,2024,124.167401683565,15.277049093704
$GNHDT,335.737,T*2D
$PYRTM,2024,124.167407530000,15.277054940139
$GNGGA,040104.00,3506.89807157,N,12133.63523338,W,2,12,0.8,7.743,M,-37.792,M,7.0,0135*63
$PYRTM,2024,124.167407530000,15.277054940139
$GNHDT,335.695,T*24
$PYRTM,2024,124.167413263148,15.277060673299
$GNGGA,040104.50,3506.89851888,N,12133.63543730,W,2,12,0.8,7.667,M,-37.792,M,7.4,0135*67
$PYRTM,2024,124.167413263148,15.277060673299
$GNHDT,335.366,T*2D
$PYRTM,2024,124.167419099583,15.277066509722
$GNGGA,040105.00,3506.89894895,N,12133.63561820,W,2,12,0.8,7.743,M,-37.792,M,4.0,0135*68
$PYRTM,2024,124.167419099583,15.277066509722
$GNHDT,335.266,T*2C
$PYRTM,2024,124.167424833137,15.277072243275
$GNGGA,040105.50,3506.89934573,N,12133.63580416,W,2,12,0.8,7.920,M,-37.792,M,4.4,0135*6A
$PYRTM,2024,124.167424833137,15.277072243275
$GNHDT,335.320,T*2F
$PYRTM,2024,124.167430676840,15.277078086991
$GNGGA,040106.00,3506.89971756,N,12133.63603885,W,2,12,0.8,8.161,M,-37.792,M,5.0,0135*61
$PYRTM,2024,124.167430676840,15.277078086991
$GNHDT,335.341,T*28
$PYRTM,2024,124.167436407627,15.277083817766
$GNGGA,040106.50,3506.90010573,N,12133.63635166,W,2,12,0.8,8.252,M,-37.792,M,5.4,0135*61
$PYRTM,2024,124.167436407627,15.277083817766
$GNHDT,335.648,T*24
$PYRTM,2024,124.167442246019,15.277089656157
$GNGGA,040107.00,3506.90055469,N,12133.63680325,W,2,12,0.8,8.072,M,-37.792,M,6.0,0135*62
$PYRTM,2024,124.167442246019,15.277089656157
$GNHDT,335.721,T*2A
$PYRTM,2024,124.167447992535,15.277095402674
$GNGGA,040107.50,3506.90109035,N,12133.63731840,W,2,12,0.8,7.577,M,-37.792,M,6.4,0135*6A
$PYRTM,2024,124.167447992535,15.277095402674
$GNHDT,335.624,T*2E
$PYRTM,2024,124.167453821863,15.277101232002
$GNGGA,040108.00,3506.90165459,N,12133.63786504,W,2,12,0.8,6.969,M,-37.792,M,7.0,0135*62
$PYRTM,2024,124.167453821863,15.277101232002
$GNHDT,335.535,T*2D
$PYRTM,2024,124.167459559213,15.277106969363
$GNGGA,040108.50,3506.90216282,N,12133.63832057,W,2,12,0.8,6.629,M,-37.792,M,7.4,0135*6C
$PYRTM,2024,124.167459559213,15.277106969363
$GNHDT,335.192,T*24
$PYRTM,2024,124.167465404537,15.277112814676
$GNGGA,040109.00,3506.90254605,N,12133.63861997,W,2,12,0.8,6.855,M,-37.792,M,7.0,0135*67
$PYRTM,2024,124.167465404537,15.277112814676
$GNHDT,335.192,T*24
$PYRTM,2024,124.167471141933,15.277118552072
$GNGGA,040109.50,3506.90284176,N,12133.63875717,W,2,12,0.8,7.502,M,-37.792,M,7.4,0135*65
$PYRTM,2024,124.167471141933,15.277118552072
$GNHDT,335.565,T*28
$PYRTM,2024,124.167476984676,15.277124394826
$GNGGA,040110.00,3506.90311282,N,12133.63876755,W,2,12,0.8,8.310,M,-37.792,M,7.0,0135*66
$PYRTM,2024,124.167476984676,15.277124394826
$GNHDT,336.982,T*2E
$PYRTM,2024,124.167482717419,15.277130127558
$GNGGA,040110.50,3506.90345167,N,12133.63875649,W,2,12,0.8,9.008,M,-37.792,M,7.4,0135*6A
$PYRTM,2024,124.167482717419,15.277130127558
$GNHDT,337.631,T*28
$PYRTM,2024,124.167488552743,15.277135962882
$GNGGA,040111.00,3506.90390438,N,12133.63879628,W,2,12,0.8,9.326,M,-37.792,M,4.0,0135*6A
$PYRTM,2024,124.167488552743,15.277135962882
$GNHDT,338.426,T*23
$PYRTM,2024,124.167494286389,15.277141696528
$GNGGA,040111.50,3506.90443636,N,12133.63895415,W,2,12,0.8,9.134,M,-37.792,M,4.4,0135*61
$PYRTM,2024,124.167494286389,15.277141696528
$GNHDT,338.545,T*27
$PYRTM,2024,124.167500126343,15.277147536481
$GNGGA,040112.00,3506.90496827,N,12133.63924343,W,2,12,0.8,8.622,M,-37.792,M,5.0,0135*6A
$PYRTM,2024,124.167500126343,15.277147536481
$GNHDT,338.468,T*29
$PYRTM,2024,124.167505857211,15.277153267350
$GNGGA,040112.50,3506.90542674,N,12133.63963876,W,2,12,0.8,8.071,M,-37.792,M,5.4,0135*65
$PYRTM,2024,124.167505857211,15.277153267350
$GNHDT,338.703,T*27
$PYRTM,2024,124.167511695012,15.277159105150
$GNGGA,040113.00,3506.90578685,N,12133.64007339,W,2,12,0.8,7.711,M,-37.792,M,6.0,0135*63
$PYRTM,2024,124.167511695012,15.277159105150
$GNHDT,338.790,T*2D
$PYRTM,2024,124.167517437882,15.277164848021
$GNGGA,040113.50,3506.90607771,N,12133.64048526,W,2,12,0.8,7.639,M,-37.792,M,6.4,0135*6B
$PYRTM,2024,124.167517437882,15.277164848021
$GNHDT,338.654,T*24
$PYRTM,2024,124.167523264757,15.277170674896
$GNGGA,040114.00,3506.90636586,N,12133.64084605,W,2,12,0.8,7.768,M,-37.792,M,7.0,0135*63
$PYRTM,2024,124.167523264757,15.277170674896
$GNHDT,338.668,T*2B
$PYRTM,2024,124.167529007037,15.277176417176
$GNGGA,040114.50,3506.90671745,N,12133.64115023,W,2,12,0.8,7.929,M,-37.792,M,7.4,0135*6C
$PYRTM,2024,124.167529007037,15.277176417176
$GNHDT,338.724,T*22
$PYRTM,2024,124.167534847928,15.277182258079
$GNGGA,040115.00,3506.90718565,N,12133.64139822,W,2,12,0.8,7.923,M,-37.792,M,7.0,0135*6F
$PYRTM,2024,124.167534847928,15.277182258079
$GNHDT,338.568,T*28
$PYRTM,2024,124.167540572593,15.277187982731
$GNGGA,040115.50,3506.90772958,N,12133.64161385,W,2,12,0.8,7.785,M,-37.792,M,7.4,0135*69
$PYRTM,2024,124.167540572593,15.277187982731
$GNHDT,338.491,T*2F
$PYRTM,2024,124.167546420023,15.277193830174
$GNGGA,040116.00,3506.90829789,N,12133.64177684,W,2,12,0.8,7.572,M,-37.792,M,7.0,0135*61
$PYRTM,2024,124.167546420023,15.277193830174
$GNHDT,338.832,T*2A
$PYRTM,2024,124.167552148889,15.277199559028
$GNGGA,040116.50,3506.90882459,N,12133.64193858,W,2,12,0.8,7.471,M,-37.792,M,7.4,0135*68
$PYRTM,2024,124.167552148889,15.277199559028
$GNHDT,339.297,T*2E
$PYRTM,2024,124.167557986319,15.277205396458
$GNGGA,040117.00,3506.90926722,N,12133.64212712,W,2,12,0.8,7.643,M,-37.792,M,4.0,0135*63
$PYRTM,2024,124.167557986319,15.277205396458
$GNHDT,339.598,T*26
$PYRTM,2024,124.167563730336,15.277211140475
$GNGGA,040117.50,3506.90966405,N,12133.64235239,W,2,12,0.8,7.973,M,-37.792,M,4.4,0135*65
$PYRTM,2024,124.167563730336,15.277211140475
$GNHDT,340.053,T*2A
$PYRTM,2024,124.167569565903,15.277216976042
$GNGGA,040118.00,3506.91003701,N,12133.64261909,W,2,12,0.8,8.349,M,-37.792,M,5.0,0135*63
$PYRTM,2024,124.167569565903,15.277216976042
$GNHDT,340.289,T*2F
$PYRTM,2024,124.167575301632,15.277222711782
$GNGGA,040118.50,3506.91042040,N,12133.64291892,W,2,12,0.8,8.647,M,-37.792,M,5.4,0135*62
$PYRTM,2024,124.167575301632,15.277222711782
$GNHDT,340.451,T*2C
$PYRTM,2024,124.167581147222,15.277228557361
$GNGGA,040119.00,3506.91082268,N,12133.64325270,W,2,12,0.8,8.758,M,-37.792,M,6.0,0135*62
$PYRTM,2024,124.167581147222,15.277228557361
$GNHDT,340.472,T*2D
$PYRTM,2024,124.167586875810,15.277234285949
$GNGGA,040119.50,3506.91124774,N,12133.64360569,W,2,12,0.8,8.669,M,-37.792,M,6.4,0135*6B
$PYRTM,2024,124.167586875810,15.277234285949
$GNHDT,340.487,T*27
$PYRTM,2024,124.167592709514,15.277240119664
$GNGGA,040120.00,3506.91169223,N,12133.64395389,W,2,12,0.8,8.409,M,-37.792,M,7.0,0135*69
$PYRTM,2024,124.167592709514,15.277240119664
$GNHDT,340.425,T*2F
$PYRTM,2024,124.167598442755,15.277245852894
$GNGGA,040120.50,3506.91214269,N,12133.64423015,W,2,12,0.8,8.091,M,-37.792,M,7.4,0135*66
$PYRTM,2024,124.167598442755,15.277245852894
$GNHDT,340.753,T*2D
$PYRTM,2024,124.167604292986,15.277251703125
$GNGGA,040121.00,3506.91260292,N,12133.64440764,W,2,12,0.8,7.817,M,-37.792,M,7.0,0135*6C
$PYRTM,2024,124.167604292986,15.277251703125
$GNHDT,340.806,T*22
$PYRTM,2024,124.167610016516,15.277257426655
$GNGGA,040121.50,3506.91308556,N,12133.64452132,W,2,12,0.8,7.607,M,-37.792,M,7.4,0135*64
$PYRTM,2024,124.167610016516,15.277257426655
$GNHDT,340.728,T*21
$PYRTM,2024,124.167615858657,15.277263268796
$GNGGA,040122.00,3506.91360194,N,12133.64466190,W,2,12,0.8,7.444,M,-37.792,M,7.0,0135*68
$PYRTM,2024,124.167615858657,15.277263268796
$GNHDT,340.883,T*2F
$PYRTM,2024,124.167621598345,15.277269008484
$GNGGA,040122.50,3506.91414238,N,12133.64489509,W,2,12,0.8,7.335,M,-37.792,M,7.4,0135*6C
$PYRTM,2024,124.167621598345,15.277269008484
$GNHDT,341.099,T*2D
$PYRTM,2024,124.167627436366,15.277274846505
$GNGGA,040123.00,3506.91465062,N,12133.64520965,W,2,12,0.8,7.398,M,-37.792,M,4.0,0135*67
$PYRTM,2024,124.167627436366,15.277274846505
$GNHDT,341.021,T*2E
$PYRTM,2024,124.167633172720,15.277280582859
$GNGGA,040123.50,3506.91510293,N,12133.64554593,W,2,12,0.8,7.665,M,-37.792,M,4.4,0135*68
$PYRTM,2024,124.167633172720,15.277280582859
$GNHDT,341.055,T*2D
$PYRTM,2024,124.167639010197,15.277286420336
$GNGGA,040124.00,3506.91550424,N,12133.64587141,W,2,12,0.8,8.108,M,-37.792,M,5.0,0135*67
$PYRTM,2024,124.167639010197,15.277286420336
$GNHDT,341.281,T*26
$PYRTM,2024,124.167644739792,15.277292149931
$GNGGA,040124.50,3506.91592077,N,12133.64614585,W,2,12,0.8,8.544,M,-37.792,M,5.4,0135*63
$PYRTM,2024,124.167644739792,15.277292149931
$GNHDT,341.834,T*22
$PYRTM,2024,124.167650589259,15.277297999398
$GNGGA,040125.00,3506.91639616,N,12133.64638357,W,2,12,0.8,8.809,M,-37.792,M,6.0,0135*60
$PYRTM,2024,124.167650589259,15.277297999398
$GNHDT,342.307,T*2A
$PYRTM,2024,124.167656315081,15.277303725220
$GNGGA,040125.50,3506.91694538,N,12133.64656356,W,2,12,0.8,8.758,M,-37.792,M,6.4,0135*6B
$PYRTM,2024,124.167656315081,15.277303725220
$GNHDT,342.571,T*2D
$PYRTM,2024,124.167662162361,15.277309572500
$GNGGA,040126.00,3506.91753215,N,12133.64670778,W,2,12,0.8,8.505,M,-37.792,M,7.0,0135*6C
$PYRTM,2024,124.167662162361,15.277309572500
$GNHDT,342.699,T*28
$PYRTM,2024,124.167667889282,15.277315299421
$GNGGA,040126.50,3506.91810270,N,12133.64686042,W,2,12,0.8,8.153,M,-37.792,M,7.4,0135*66
$PYRTM,2024,124.167667889282,15.277315299421
$GNHDT,342.572,T*2E
$PYRTM,2024,124.167673726435,15.277321136574
$GNGGA,040127.00,3506.91861057,N,12133.64706969,W,2,12,0.8,7.870,M,-37.792,M,7.0,0135*69
$PYRTM,2024,124.167673726435,15.277321136574
$GNHDT,342.315,T*29
$PYRTM,2024,124.167679461597,15.277326871736
$GNGGA,040127.50,3506.91904895,N,12133.64734476,W,2,12,0.8,7.793,M,-37.792,M,7.4,0135*6C
$PYRTM,2024,124.167679461597,15.277326871736
$GNHDT,342.260,T*2A
$PYRTM,2024,124.167685301933,15.277332712072
$GNGGA,040128.00,3506.91945068,N,12133.64766986,W,2,12,0.8,7.900,M,-37.792,M,7.0,0135*6C
$PYRTM,2024,124.167685301933,15.277332712072
$GNHDT,342.164,T*2D
$PYRTM,2024,124.167691040775,15.277338450914
$GNGGA,040128.50,3506.91985951,N,12133.64800085,W,2,12,0.8,8.107,M,-37.792,M,7.4,0135*67
$PYRTM,2024,124.167691040775,15.277338450914
$GNHDT,342.167,T*2E
$PYRTM,2024,124.167696882639,15.277344292778
$GNGGA,040129.00,3506.92031971,N,12133.64829808,W,2,12,0.8,8.312,M,-37.792,M,4.0,0135*63
$PYRTM,2024,124.167696882639,15.277344292778
$GNHDT,342.183,T*24
$PYRTM,2024,124.167702613148,15.277350023299
$GNGGA,040129.50,3506.92085100,N,12133.64854538,W,2,12,0.8,8.370,M,-37.792,M,4.4,0135*63
$PYRTM,2024,124.167702613148,15.277350023299
$GNHDT,341.775,T*28
$PYRTM,2024,124.167708450417,15.277355860556
$GNGGA,040130.00,3506.92143331,N,12133.64874530,W,2,12,0.8,8.286,M,-37.792,M,5.0,0135*62
$PYRTM,2024,124.167708450417,15.277355860556
$GNHDT,341.647,T*28
$PYRTM,2024,124.167714183333,15.277361593472
$GNGGA,040130.50,3506.92202415,N,12133.64894062,W,2,12,0.8,8.082,M,-37.792,M,5.4,0135*6E
$PYRTM,2024,124.167714183333,15.277361593472
$GNHDT,341.856,T*26
$PYRTM,2024,124.167720029815,15.277367439965
$GNGGA,040131.00,3506.92259886,N,12133.64917270,W,2,12,0.8,7.824,M,-37.792,M,6.0,0135*65
$PYRTM,2024,124.167720029815,15.277367439965
$GNHDT,341.777,T*2A
$PYRTM,2024,124.167725764965,15.277373175104
$GNGGA,040131.50,3506.92314781,N,12133.64947360,W,2,12,0.8,7.610,M,-37.792,M,6.4,0135*68
$PYRTM,2024,124.167725764965,15.277373175104
$GNHDT,341.606,T*2D
$PYRTM,2024,124.167731610162,15.277379020301
$GNGGA,040132.00,3506.92366125,N,12133.64984024,W,2,12,0.8,7.512,M,-37.792,M,7.0,0135*6B
$PYRTM,2024,124.167731610162,15.277379020301
$GNHDT,341.451,T*2D
$PYRTM,2024,124.167737340521,15.277384750660
$GNGGA,040132.50,3506.92412651,N,12133.65021727,W,2,12,0.8,7.634,M,-37.792,M,7.4,0135*6E
$PYRTM,2024,124.167737340521,15.277384750660
$GNHDT,341.172,T*29
$PYRTM,2024,124.167743176505,15.277390586644
$GNGGA,040133.00,3506.92452722,N,12133.65053253,W,2,12,0.8,8.021,M,-37.792,M,7.0,0135*61
$PYRTM,2024,124.167743176505,15.277390586644
$GNHDT,341.162,T*28
$PYRTM,2024,124.167748909954,15.277396320093
$GNGGA,040133.50,3506.92490420,N,12133.65077097,W,2,12,0.8,8.522,M,-37.792,M,7.4,0135*65
$PYRTM,2024,124.167748909954,15.277396320093
$GNHDT,341.524,T*2E
$PYRTM,2024,124.167754745775,15.277402155914
$GNGGA,040134.00,3506.92531645,N,12133.65094297,W,2,12,0.8,8.996,M,-37.792,M,7.0,0135*64
$PYRTM,2024,124.167754745775,15.277402155914
$GNHDT,341.466,T*29
$PYRTM,2024,124.167760490961,15.277407901100
$GNGGA,040134.50,3506.92584515,N,12133.65111151,W,2,12,0.8,9.126,M,-37.792,M,7.4,0135*6A
$PYRTM,2024,124.167760490961,15.277407901100
$GNHDT,341.388,T*2E
$PYRTM,2024,124.167766325729,15.277413735868
$GNGGA,040135.00,3506.92646689,N,12133.65132782,W,2,12,0.8,8.817,M,-37.792,M,4.0,0135*61
$PYRTM,2024,124.167766325729,15.277413735868
$GNHDT,340.990,T*2C
$PYRTM,2024,124.167772062627,15.277419472766
$GNGGA,040135.50,3506.92712553,N,12133.65159198,W,2,12,0.8,8.187,M,-37.792,M,4.4,0135*64
$PYRTM,2024,124.167772062627,15.277419472766
$GNHDT,340.733,T*2B
$PYRTM,2024,124.167777898889,15.277425309039
$GNGGA,040136.00,3506.92776208,N,12133.65190930,W,2,12,0.8,7.500,M,-37.792,M,5.0,0135*67
$PYRTM,2024,124.167777898889,15.277425309039
$GNHDT,340.575,T*2B
$PYRTM,2024,124.167783633322,15.277431043461
$GNGGA,040136.50,3506.92833304,N,12133.65223921,W,2,12,0.8,7.078,M,-37.792,M,5.4,0135*64
$PYRTM,2024,124.167783633322,15.277431043461
$GNHDT,340.760,T*2D
$PYRTM,2024,124.167789474954,15.277436885093
$GNGGA,040137.00,3506.92879751,N,12133.65254679,W,2,12,0.8,7.166,M,-37.792,M,6.0,0135*61
$PYRTM,2024,124.167789474954,15.277436885093
$GNHDT,340.752,T*2C
$PYRTM,2024,124.167795214838,15.277442624977
$GNGGA,040137.50,3506.92916918,N,12133.65279703,W,2,12,0.8,7.732,M,-37.792,M,6.4,0135*6F
$PYRTM,2024,124.167795214838,15.277442624977
$GNHDT,340.847,T*27
$PYRTM,2024,124.167801057211,15.277448467350
$GNGGA,040138.00,3506.92947781,N,12133.65299715,W,2,12,0.8,8.562,M,-37.792,M,7.0,0135*6B
$PYRTM,2024,124.167801057211,15.277448467350
$GNHDT,341.075,T*2F
$PYRTM,2024,124.167806781088,15.277454191238
$GNGGA,040138.50,3506.92981699,N,12133.65316337,W,2,12,0.8,9.323,M,-37.792,M,7.4,0135*68
$PYRTM,2024,124.167806781088,15.277454191238
$GNHDT,340.857,T*26
$PYRTM,2024,124.167812624514,15.277460034664
$GNGGA,040139.00,3506.93025131,N,12133.65334769,W,2,12,0.8,9.696,M,-37.792,M,7.0,0135*6F
$PYRTM,2024,124.167812624514,15.277460034664
$GNHDT,340.993,T*2F
$PYRTM,2024,124.167818355961,15.277465766100
$GNGGA,040139.50,3506.93080869,N,12133.65356992,W,2,12,0.8,9.520,M,-37.792,M,7.4,0135*65
$PYRTM,2024,124.167818355961,15.277465766100
$GNHDT,341.091,T*25
$PYRTM,2024,124.167824211065,15.277471621204
$GNGGA,040140.00,3506.93143906,N,12133.65381776,W,2,12,0.8,8.852,M,-37.792,M,7.0,0135*6B
$PYRTM,2024,124.167824211065,15.277471621204
$GNHDT,340.977,T*25
$PYRTM,2024,124.167829930914,15.277477341053
$GNGGA,040140.50,3506.93205215,N,12133.65408020,W,2,12,0.8,8.032,M,-37.792,M,7.4,0135*6E
$PYRTM,2024,124.167829930914,15.277477341053
$GNHDT,340.976,T*24
$PYRTM,2024,124.167835764769,15.277483174907
$GNGGA,040141.00,3506.93258032,N,12133.65434830,W,2,12,0.8,7.423,M,-37.792,M,4.0,0135*6F
$PYRTM,2024,124.167835764769,15.277483174907
$GNHDT,340.494,T*25
$PYRTM,2024,124.167841500220,15.277488910370
$GNGGA,040141.50,3506.93298964,N,12133.65463591,W,2,12,0.8,7.283,M,-37.792,M,4.4,0135*60
$PYRTM,2024,124.167841500220,15.277488910370
$GNHDT,340.083,T*27
$PYRTM,2024,124.167847344375,15.277494754514
$GNGGA,040142.00,3506.93329156,N,12133.65492873,W,2,12,0.8,7.662,M,-37.792,M,5.0,0135*65
$PYRTM,2024,124.167847344375,15.277494754514
$GNHDT,339.616,T*23
$PYRTM,2024,124.167853079965,15.277500490104
$GNGGA,040142.50,3506.93356525,N,12133.65515691,W,2,12,0.8,8.248,M,-37.792,M,5.4,0135*63
$PYRTM,2024,124.167853079965,15.277500490104
$GNHDT,339.840,T*2E
$PYRTM,2024,124.167858918345,15.277506328484
$GNGGA,040143.00,3506.93388947,N,12133.65532670,W,2,12,0.8,8.787,M,-37.792,M,6.0,0135*67
$PYRTM,2024,124.167858918345,15.277506328484
$GNHDT,340.176,T*2C
$PYRTM,2024,124.167864651447,15.277512061586
$GNGGA,040143.50,3506.93432068,N,12133.65546828,W,2,12,0.8,9.103,M,-37.792,M,6.4,0135*6F
$PYRTM,2024,124.167864651447,15.277512061586
$GNHDT,340.266,T*2E
$PYRTM,2024,124.167870491887,15.277517902025
$GNGGA,040144.00,3506.93486165,N,12133.65562554,W,2,12,0.8,9.063,M,-37.792,M,7.0,0135*6C
$PYRTM,2024,124.167870491887,15.277517902025
$GNHDT,340.142,T*2B
$PYRTM,2024,124.167876227199,15.277523637338
$GNGGA,040144.50,3506.93543036,N,12133.65583130,W,2,12,0.8,8.796,M,-37.792,M,7.4,0135*67
$PYRTM,2024,124.167876227199,15.277523637338
$GNHDT,340.168,T*23
$PYRTM,2024,124.167882061898,15.277529472037
$GNGGA,040145.00,3506.93596476,N,12133.65610232,W,2,12,0.8,8.388,M,-37.792,M,7.0,0135*6C
$PYRTM,2024,124.167882061898,15.277529472037
$GNHDT,339.937,T*2F
$PYRTM,2024,124.167887801736,15.277535211875
$GNGGA,040145.50,3506.93644677,N,12133.65640519,W,2,12,0.8,8.017,M,-37.792,M,7.4,0135*6C
$PYRTM,2024,124.167887801736,15.277535211875
$GNHDT,339.584,T*2B
$PYRTM,2024,124.167893635752,15.277541045891
$GNGGA,040146.00,3506.93688179,N,12133.65672498,W,2,12,0.8,7.717,M,-37.792,M,7.0,0135*66
$PYRTM,2024,124.167893635752,15.277541045891
$GNHDT,339.173,T*27
$PYRTM,2024,124.167899386551,15.277546796690
$GNGGA,040146.50,3506.93728860,N,12133.65710116,W,2,12,0.8,7.635,M,-37.792,M,7.4,0135*6A
$PYRTM,2024,124.167899386551,15.277546796690
$GNHDT,338.779,T*2A
$PYRTM,2024,124.167905218171,15.277552628310
$GNGGA,040147.00,3506.93769021,N,12133.65749070,W,2,12,0.8,7.671,M,-37.792,M,4.0,0135*6C
$PYRTM,2024,124.167905218171,15.277552628310
$GNHDT,338.401,T*26
$PYRTM,2024,124.167910950741,15.277558360880
$GNGGA,040147.50,3506.93809536,N,12133.65786422,W,2,12,0.8,7.764,M,-37.792,M,4.4,0135*62
$PYRTM,2024,124.167910950741,15.277558360880
$GNHDT,338.055,T*23
$PYRTM,2024,124.167916787766,15.277564197905
$GNGGA,040148.00,3506.93850911,N,12133.65818536,W,2,12,0.8,7.873,M,-37.792,M,5.0,0135*6D
$PYRTM,2024,124.167916787766,15.277564197905
$GNHDT,337.868,T*2A
$PYRTM,2024,124.167922524352,15.277569934491
$GNGGA,040148.50,3506.93894269,N,12133.65846160,W,2,12,0.8,7.979,M,-37.792,M,5.4,0135*67
$PYRTM,2024,124.167922524352,15.277569934491
$GNHDT,337.902,T*27
$PYRTM,2024,124.167928359572,15.277575769711
$GNGGA,040149.00,3506.93940515,N,12133.65864518,W,2,12,0.8,8.083,M,-37.792,M,6.0,0135*68
$PYRTM,2024,124.167928359572,15.277575769711
$GNHDT,338.204,T*25
$PYRTM,2024,124.167934099259,15.277581509398
$GNGGA,040149.50,3506.93988988,N,12133.65875961,W,2,12,0.8,8.157,M,-37.792,M,6.4,0135*6F
$PYRTM,2024,124.167934099259,15.277581509398
$GNHDT,338.585,T*2B
$PYRTM,2024,124.167939932778,15.277587342917
$GNGGA,040150.00,3506.94037922,N,12133.65883513,W,2,12,0.8,8.216,M,-37.792,M,7.0,0135*6B
$PYRTM,2024,124.167939932778,15.277587342917
$GNHDT,338.925,T*2D
$PYRTM,2024,124.167945684271,15.277593094410
$GNGGA,040150.50,3506.94085487,N,12133.65895837,W,2,12,0.8,8.263,M,-37.792,M,7.4,0135*6F
$PYRTM,2024,124.167945684271,15.277593094410
$GNHDT,338.728,T*2E
$PYRTM,2024,124.167951516771,15.277598926910
$GNGGA,040151.00,3506.94131536,N,12133.65917676,W,2,12,0.8,8.245,M,-37.792,M,7.0,0135*6E
$PYRTM,2024,124.167951516771,15.277598926910
$GNHDT,338.340,T*24
$PYRTM,2024,124.167957246736,15.277604656887
$GNGGA,040151.50,3506.94176734,N,12133.65950348,W,2,12,0.8,8.169,M,-37.792,M,7.4,0135*6A
$PYRTM,2024,124.167957246736,15.277604656887
$GNHDT,337.974,T*26
$PYRTM,2024,124.167963090266,15.277610500405
$GNGGA,040152.00,3506.94222616,N,12133.65993453,W,2,12,0.8,7.965,M,-37.792,M,7.0,0135*62
$PYRTM,2024,124.167963090266,15.277610500405
$GNHDT,337.776,T*2A
$PYRTM,2024,124.167968823148,15.277616233299
$GNGGA,040152.50,3506.94270439,N,12133.66043896,W,2,12,0.8,7.628,M,-37.792,M,7.4,0135*6F
$PYRTM,2024,124.167968823148,15.277616233299
$GNHDT,337.149,T*20
$PYRTM,2024,124.167974660139,15.277622070278
$GNGGA,040153.00,3506.94319993,N,12133.66099302,W,2,12,0.8,7.277,M,-37.792,M,4.0,0135*60
$PYRTM,2024,124.167974660139,15.277622070278
$GNHDT,336.730,T*29
$PYRTM,2024,124.167980396354,15.277627806493
$GNGGA,040153.50,3506.94369926,N,12133.66149386,W,2,12,0.8,7.089,M,-37.792,M,4.4,0135*6B
$PYRTM,2024,124.167980396354,15.277627806493
$GNHDT,336.386,T*20
$PYRTM,2024,124.167986236157,15.277633646296
$GNGGA,040154.00,3506.94419622,N,12133.66180665,W,2,12,0.8,7.189,M,-37.792,M,5.0,0135*6B
$PYRTM,2024,124.167986236157,15.277633646296
$GNHDT,336.255,T*2F
$PYRTM,2024,124.167991978021,15.277639388160
$GNGGA,040154.50,3506.94467318,N,12133.66194892,W,2,12,0.8,7.570,M,-37.792,M,5.4,0135*6E
$PYRTM,2024,124.167991978021,15.277639388160
$GNHDT,336.866,T*25
$PYRTM,2024,124.167997818796,15.277645228935
$GNGGA,040155.00,3506.94513748,N,12133.66194762,W,2,12,0.8,8.087,M,-37.792,M,6.0,0135*6C
$PYRTM,2024,124.167997818796,15.277645228935
$GNHDT,337.461,T*2F
$PYRTM,2024,124.168003555150,15.277650965289
$GNGGA,040155.50,3506.94559021,N,12133.66191709,W,2,12,0.8,8.648,M,-37.792,M,6.4,0135*66
$PYRTM,2024,124.168003555150,15.277650965289
$GNHDT,337.662,T*2E
$PYRTM,2024,124.168009377894,15.277656788032
$GNGGA,040156.00,3506.94604124,N,12133.66195818,W,2,12,0.8,9.128,M,-37.792,M,7.0,0135*61
$PYRTM,2024,124.168009377894,15.277656788032
$GNHDT,338.409,T*2E
$PYRTM,2024,124.168015116678,15.277662526817
$GNGGA,040156.50,3506.94651478,N,12133.66212192,W,2,12,0.8,9.322,M,-37.792,M,7.4,0135*63
$PYRTM,2024,124.168015116678,15.277662526817
$GNHDT,338.951,T*2E
$PYRTM,2024,124.168020960498,15.277668370637
$GNGGA,040157.00,3506.94705486,N,12133.66240476,W,2,12,0.8,9.074,M,-37.792,M,7.0,0135*6A
$PYRTM,2024,124.168020960498,15.277668370637
$GNHDT,339.170,T*24
$PYRTM,2024,124.168026699583,15.277674109722
$GNGGA,040157.50,3506.94762941,N,12133.66282366,W,2,12,0.8,8.438,M,-37.792,M,7.4,0135*69
$PYRTM,2024,124.168026699583,15.277674109722
$GNHDT,339.352,T*26
$PYRTM,2024,124.168032530625,15.277679940764
$GNGGA,040158.00,3506.94818887,N,12133.66331883,W,2,12,0.8,7.666,M,-37.792,M,7.0,0135*61
$PYRTM,2024,124.168032530625,15.277679940764
$GNHDT,338.854,T*2A
$PYRTM,2024,124.168038262500,15.277685672639
$GNGGA,040158.50,3506.94866124,N,12133.66385997,W,2,12,0.8,7.132,M,-37.792,M,7.4,0135*64
$PYRTM,2024,124.168038262500,15.277685672639
$GNHDT,338.321,T*23
$PYRTM,2024,124.168044113600,15.277691523738
$GNGGA,040159.00,3506.94904377,N,12133.66433800,W,2,12,0.8,7.037,M,-37.792,M,4.0,0135*67
$PYRTM,2024,124.168044113600,15.277691523738
$GNHDT,337.795,T*27
$PYRTM,2024,124.168049842847,15.277697252986
$GNGGA,040159.50,3506.94937407,N,12133.66464012,W,2,12,0.8,7.342,M,-37.792,M,4.4,0135*6E
$PYRTM,2024,124.168049842847,15.277697252986
$GNHDT,338.247,T*22
$PYRTM,2024,124.168055689931,15.277703100069
$GNGGA,040200.00,3506.94972745,N,12133.66476214,W,2,12,0.8,7.810,M,-37.792,M,5.0,0135*6E
$PYRTM,2024,124.168055689931,15.277703100069
$GNHDT,338.379,T*2E
$PYRTM,2024,124.168061416655,15.277708826794
$GNGGA,040200.50,3506.95016102,N,12133.66479453,W,2,12,0.8,8.205,M,-37.792,M,5.4,0135*6B
$PYRTM,2024,124.168061416655,15.277708826794
$GNHDT,338.889,T*2A
$PYRTM,2024,124.168067261991,15.277714672130
$GNGGA,040201.00,3506.95069414,N,12133.66483550,W,2,12,0.8,8.339,M,-37.792,M,6.0,0135*6B
$PYRTM,2024,124.168067261991,15.277714672130
$GNHDT,339.122,T*23
$PYRTM,2024,124.168072988657,15.277720398796
$GNGGA,040201.50,3506.95128243,N,12133.66495403,W,2,12,0.8,8.194,M,-37.792,M,6.4,0135*6F
$PYRTM,2024,124.168072988657,15.277720398796
$GNHDT,339.403,T*25
$PYRTM,2024,124.168078830556,15.277726240694
$GNGGA,040202.00,3506.95188849,N,12133.66514908,W,2,12,0.8,7.812,M,-37.792,M,7.0,0135*60
$PYRTM,2024,124.168078830556,15.277726240694
$GNHDT,339.444,T*26
$PYRTM,2024,124.168084565197,15.277731975347
$GNGGA,040202.50,3506.95244684,N,12133.66541883,W,2,12,0.8,7.391,M,-37.792,M,7.4,0135*6F
$PYRTM,2024,124.168084565197,15.277731975347
$GNHDT,339.631,T*26
$PYRTM,2024,124.168090406053,15.277737816192
$GNGGA,040203.00,3506.95290752,N,12133.66578885,W,2,12,0.8,7.133,M,-37.792,M,7.0,0135*6A
$PYRTM,2024,124.168090406053,15.277737816192
$GNHDT,339.898,T*2B
$PYRTM,2024,124.168096140718,15.277743550868
$GNGGA,040203.50,3506.95325884,N,12133.66624154,W,2,12,0.8,7.175,M,-37.792,M,7.4,0135*6D
$PYRTM,2024,124.168096140718,15.277743550868
$GNHDT,340.173,T*29
$PYRTM,2024,124.168101982465,15.277749392604
$GNGGA,040204.00,3506.95352687,N,12133.66670966,W,2,12,0.8,7.454,M,-37.792,M,7.0,0135*68
$PYRTM,2024,124.168101982465,15.277749392604
$GNHDT,340.402,T*2A
$PYRTM,2024,124.168107717014,15.277755127164
$GNGGA,040204.50,3506.95378612,N,12133.66711231,W,2,12,0.8,7.852,M,-37.792,M,7.4,0135*68
$PYRTM,2024,124.168107717014,15.277755127164
$GNHDT,340.077,T*2C
$PYRTM,2024,124.168113548970,15.277760959109
$GNGGA,040205.00,3506.95410271,N,12133.66740139,W,2,12,0.8,8.212,M,-37.792,M,4.0,0135*6D
$PYRTM,2024,124.168113548970,15.277760959109
$GNHDT,340.008,T*24
$PYRTM,2024,124.168119292708,15.277766702847
$GNGGA,040205.50,3506.95454062,N,12133.66755645,W,2,12,0.8,8.352,M,-37.792,M,4.4,0135*61
$PYRTM,2024,124.168119292708,15.277766702847
$GNHDT,339.894,T*27
$PYRTM,2024,124.168125123588,15.277772533727
$GNGGA,040206.00,3506.95508402,N,12133.66763358,W,2,12,0.8,8.205,M,-37.792,M,5.0,0135*67
$PYRTM,2024,124.168125123588,15.277772533727
$GNHDT,339.601,T*25
$PYRTM,2024,124.168130858403,15.277778268542
$GNGGA,040206.50,3506.95569254,N,12133.66772479,W,2,12,0.8,7.825,M,-37.792,M,5.4,0135*67
$PYRTM,2024,124.168130858403,15.277778268542
$GNHDT,339.339,T*2B
$PYRTM,2024,124.168136700926,15.277784111065
$GNGGA,040207.00,3506.95630705,N,12133.66788437,W,2,12,0.8,7.335,M,-37.792,M,6.0,0135*6F
$PYRTM,2024,124.168136700926,15.277784111065
$GNHDT,339.180,T*2B
$PYRTM,2024,124.168142429711,15.277789839850
$GNGGA,040207.50,3506.95686210,N,12133.66814882,W,2,12,0.8,6.977,M,-37.792,M,6.4,0135*67
$PYRTM,2024,124.168142429711,15.277789839850
$GNHDT,339.362,T*25
$PYRTM,2024,124.168148279618,15.277795689757
$GNGGA,040208.00,3506.95732491,N,12133.66852315,W,2,12,0.8,6.939,M,-37.792,M,7.0,0135*64
$PYRTM,2024,124.168148279618,15.277795689757
$GNHDT,339.281,T*29
$PYRTM,2024,124.168154011169,15.277801421308
$GNGGA,040208.50,3506.95772027,N,12133.66894808,W,2,12,0.8,7.254,M,-37.792,M,7.4,0135*64
$PYRTM,2024,124.168154011169,15.277801421308
$GNHDT,339.420,T*24
$PYRTM,2024,124.168159845752,15.277807255891
$GNGGA,040209.00,3506.95808532,N,12133.66935108,W,2,12,0.8,7.752,M,-37.792,M,7.0,0135*67
$PYRTM,2024,124.168159845752,15.277807255891
$GNHDT,339.053,T*24
$PYRTM,2024,124.168165579028,15.277812989178
$GNGGA,040209.50,3506.95846589,N,12133.66968852,W,2,12,0.8,8.268,M,-37.792,M,7.4,0135*61
$PYRTM,2024,124.168165579028,15.277812989178
$GNHDT,339.279,T*2E
$PYRTM,2024,124.168171422477,15.277818832616
$GNGGA,040210.00,3506.95888739,N,12133.66997921,W,2,12,0.8,8.665,M,-37.792,M,7.0,0135*6F
$PYRTM,2024,124.168171422477,15.277818832616
$GNHDT,338.995,T*26
$PYRTM,2024,124.168177166204,15.277824576354
$GNGGA,040210.50,3506.95938014,N,12133.67024016,W,2,12,0.8,8.798,M,-37.792,M,7.4,0135*62
$PYRTM,2024,124.168177166204,15.277824576354
$GNHDT,339.129,T*28
$PYRTM,2024,124.168182997245,15.277830407384
$GNGGA,040211.00,3506.95993765,N,12133.67048050,W,2,12,0.8,8.612,M,-37.792,M,4.0,0135*6A
$PYRTM,2024,124.168182997245,15.277830407384
$GNHDT,338.907,T*2D
$PYRTM,2024,124.168188732870,15.277836143009
$GNGGA,040211.50,3506.96056040,N,12133.67071907,W,2,12,0.8,8.064,M,-37.792,M,4.4,0135*6E
$PYRTM,2024,124.168188732870,15.277836143009
$GNHDT,339.423,T*27
$PYRTM,2024,124.168194570255,15.277841980394
$GNGGA,040212.00,3506.96120516,N,12133.67098727,W,2,12,0.8,7.418,M,-37.792,M,5.0,0135*60
$PYRTM,2024,124.168194570255,15.277841980394
$GNHDT,338.822,T*2B
$PYRTM,2024,124.168200301470,15.277847711609
$GNGGA,040212.50,3506.96181310,N,12133.67130427,W,2,12,0.8,6.886,M,-37.792,M,5.4,0135*60
$PYRTM,2024,124.168200301470,15.277847711609
$GNHDT,338.320,T*22
$PYRTM,2024,124.168206141771,15.277853551910
$GNGGA,040213.00,3506.96230450,N,12133.67165797,W,2,12,0.8,6.829,M,-37.792,M,6.0,0135*64
$PYRTM,2024,124.168206141771,15.277853551910
$GNHDT,337.985,T*28
$PYRTM,2024,124.168211882558,15.277859292697
$GNGGA,040213.50,3506.96267353,N,12133.67199337,W,2,12,0.8,7.210,M,-37.792,M,6.4,0135*6F
$PYRTM,2024,124.168211882558,15.277859292697
$GNHDT,337.923,T*24
$PYRTM,2024,124.168217717164,15.277865127303
$GNGGA,040214.00,3506.96298259,N,12133.67224568,W,2,12,0.8,7.864,M,-37.792,M,7.0,0135*63
$PYRTM,2024,124.168217717164,15.277865127303
$GNHDT,338.486,T*29
$PYRTM,2024,124.168223452743,15.277870862882
$GNGGA,040214.50,3506.96330165,N,12133.67248176,W,2,12,0.8,8.583,M,-37.792,M,7.4,0135*67
$PYRTM,2024,124.168223452743,15.277870862882
$GNHDT,339.039,T*28
$PYRTM,2024,124.168229289583,15.277876699722
$GNGGA,040215.00,3506.96371315,N,12133.67267356,W,2,12,0.8,9.047,M,-37.792,M,7.0,0135*66
$PYRTM,2024,124.168229289583,15.277876699722
$GNHDT,339.206,T*26
$PYRTM,2024,124.168235034213,15.277882444363
$GNGGA,040215.50,3506.96425244,N,12133.67285504,W,2,12,0.8,9.059,M,-37.792,M,7.4,0135*66
$PYRTM,2024,124.168235034213,15.277882444363
$GNHDT,339.262,T*24
$PYRTM,2024,124.168240866875,15.277888277014
$GNGGA,040216.00,3506.96488488,N,12133.67304970,W,2,12,0.8,8.573,M,-37.792,M,7.0,0135*6E
$PYRTM,2024,124.168240866875,15.277888277014
$GNHDT,339.193,T*29
$PYRTM,2024,124.168246600567,15.277894010706
$GNGGA,040216.50,3506.96549995,N,12133.67330310,W,2,12,0.8,7.823,M,-37.792,M,7.4,0135*6E
$PYRTM,2024,124.168246600567,15.277894010706
$GNHDT,338.689,T*24
$PYRTM,2024,124.168252437905,15.277899848044
$GNGGA,040217.00,3506.96603325,N,12133.67362475,W,2,12,0.8,7.041,M,-37.792,M,4.0,0135*6E
$PYRTM,2024,124.168252437905,15.277899848044
$GNHDT,338.386,T*2E
$PYRTM,2024,124.168258177188,15.277905587326
$GNGGA,040217.50,3506.96646321,N,12133.67403530,W,2,12,0.8,6.618,M,-37.792,M,4.4,0135*61
$PYRTM,2024,124.168258177188,15.277905587326
$GNHDT,338.154,T*23
$PYRTM,2024,124.168264016296,15.277911426435
$GNGGA,040218.00,3506.96682351,N,12133.67446280,W,2,12,0.8,6.579,M,-37.792,M,5.0,0135*68
$PYRTM,2024,124.168264016296,15.277911426435
$GNHDT,337.947,T*26
$PYRTM,2024,124.168269741829,15.277917151968
$GNGGA,040218.50,3506.96718078,N,12133.67485077,W,2,12,0.8,6.843,M,-37.792,M,5.4,0135*62
$PYRTM,2024,124.168269741829,15.277917151968
$GNHDT,337.857,T*26
$PYRTM,2024,124.168275591030,15.277923001169
$GNGGA,040219.00,3506.96756744,N,12133.67514382,W,2,12,0.8,7.279,M,-37.792,M,6.0,0135*61
$PYRTM,2024,124.168275591030,15.277923001169
$GNHDT,337.747,T*28
$PYRTM,2024,124.168281327419,15.277928737558
$GNGGA,040219.50,3506.96801130,N,12133.67536643,W,2,12,0.8,7.672,M,-37.792,M,6.4,0135*6F
$PYRTM,2024,124.168281327419,15.277928737558
$GNHDT,337.463,T*2D
$PYRTM,2024,124.168287157986,15.277934568137
$GNGGA,040220.00,3506.96851245,N,12133.67556869,W,2,12,0.8,7.941,M,-37.792,M,7.0,0135*6E
$PYRTM,2024,124.168287157986,15.277934568137
$GNHDT,337.378,T*20
$PYRTM,2024,124.168292895255,15.277940305405
$GNGGA,040220.50,3506.96903373,N,12133.67579237,W,2,12,0.8,8.044,M,-37.792,M,7.4,0135*62
$PYRTM,2024,124.168292895255,15.277940305405
$GNHDT,337.265,T*2D
$PYRTM,2024,124.168298730567,15.277946140706
$GNGGA,040221.00,3506.96953769,N,12133.67605938,W,2,12,0.8,7.968,M,-37.792,M,7.0,0135*6C
$PYRTM,2024,124.168298730567,15.277946140706
$GNHDT,337.036,T*29
$PYRTM,2024,124.168304467083,15.277951877222
$GNGGA,040221.50,3506.97001607,N,12133.67637838,W,2,12,0.8,7.834,M,-37.792,M,7.4,0135*63
$PYRTM,2024,124.168304467083,15.277951877222
$GNHDT,337.096,T*23
$PYRTM,2024,124.168310312917,15.277957723056
$GNGGA,040222.00,3506.97045988,N,12133.67673627,W,2,12,0.8,7.675,M,-37.792,M,7.0,0135*62
$PYRTM,2024,124.168310312917,15.277957723056
$GNHDT,336.840,T*21
$PYRTM,2024,124.168316042095,15.277963452234
$GNGGA,040222.50,3506.97090257,N,12133.67710461,W,2,12,0.8,7.534,M,-37.792,M,7.4,0135*60
$PYRTM,2024,124.168316042095,15.277963452234
$GNHDT,336.727,T*2F
$PYRTM,2024,124.168321880660,15.277969290799
$GNGGA,040223.00,3506.97135755,N,12133.67745715,W,2,12,0.8,7.393,M,-37.792,M,4.0,0135*61
$PYRTM,2024,124.168321880660,15.277969290799
$GNHDT,336.725,T*2D
$PYRTM,2024,124.168327614039,15.277975024178
$GNGGA,040223.50,3506.97184733,N,12133.67778345,W,2,12,0.8,7.277,M,-37.792,M,4.4,0135*6E
$PYRTM,2024,124.168327614039,15.277975024178
$GNHDT,336.552,T*2F
$PYRTM,2024,124.168333455127,15.277980865278
$GNGGA,040224.00,3506.97237323,N,12133.67811391,W,2,12,0.8,7.157,M,-37.792,M,5.0,0135*6F
$PYRTM,2024,124.168333455127,15.277980865278
$GNHDT,336.244,T*2F
$PYRTM,2024,124.168339187118,15.277986597257
$GNGGA,040224.50,3506.97291047,N,12133.67844395,W,2,12,0.8,7.095,M,-37.792,M,5.4,0135*68
$PYRTM,2024,124.168339187118,15.277986597257
$GNHDT,336.084,T*21
$PYRTM,2024,124.168345036123,15.277992446262
$GNGGA,040225.00,3506.97341074,N,12133.67876123,W,2,12,0.8,7.196,M,-37.792,M,6.0,0135*6B
$PYRTM,2024,124.168345036123,15.277992446262
$GNHDT,335.965,T*24
$PYRTM,2024,124.168350773137,15.277998183275
$GNGGA,040225.50,3506.97384622,N,12133.67903847,W,2,12,0.8,7.497,M,-37.792,M,6.4,0135*6A
$PYRTM,2024,124.168350773137,15.277998183275
$GNHDT,335.979,T*29
$PYRTM,2024,124.168356607963,15.278004018102
$GNGGA,040226.00,3506.97423097,N,12133.67929078,W,2,12,0.8,7.948,M,-37.792,M,7.0,0135*68
$PYRTM,2024,124.168356607963,15.278004018102
$GNHDT,336.045,T*2C
$PYRTM,2024,124.168362342014,15.278009752153
$GNGGA,040226.50,3506.97463655,N,12133.67955161,W,2,12,0.8,8.373,M,-37.792,M,7.4,0135*6A
$PYRTM,2024,124.168362342014,15.278009752153
$GNHDT,336.077,T*2D
$PYRTM,2024,124.168368174352,15.278015584502
$GNGGA,040227.00,3506.97513154,N,12133.67987209,W,2,12,0.8,8.486,M,-37.792,M,7.0,0135*65
$PYRTM,2024,124.168368174352,15.278015584502
$GNHDT,336.090,T*24
$PYRTM,2024,124.168373915208,15.278021325347
$GNGGA,040227.50,3506.97573297,N,12133.68025922,W,2,12,0.8,8.183,M,-37.792,M,7.4,0135*62
$PYRTM,2024,124.168373915208,15.278021325347
$GNHDT,335.836,T*23
$PYRTM,2024,124.168379758623,15.278027168762
$GNGGA,040228.00,3506.97636032,N,12133.68071151,W,2,12,0.8,7.571,M,-37.792,M,7.0,0135*68
$PYRTM,2024,124.168379758623,15.278027168762
$GNHDT,335.594,T*26
$PYRTM,2024,124.168385493831,15.278032903970
$GNGGA,040228.50,3506.97691781,N,12133.68116473,W,2,12,0.8,7.015,M,-37.792,M,7.4,0135*69
$PYRTM,2024,124.168385493831,15.278032903970
$GNHDT,335.496,T*25
$PYRTM,2024,124.168391334722,15.278038744861
