$PYRTM,2024,125.583333487512,16.692980897650
$GNGGA,140000.00,3510.60350512,N,12151.35608129,W,2,12,1.0,8.849,M,-38.659,M,5.0,0131*68
$PYRTM,2024,125.583333487512,16.692980897650
$GNHDT,269.409,T*2B
$PYRTM,2024,125.583339219444,16.692986629583
$GNGGA,140000.50,3510.60355729,N,12151.35745139,W,2,12,1.0,8.606,M,-38.659,M,5.4,0131*6A
$PYRTM,2024,125.583339219444,16.692986629583
$GNHDT,268.859,T*23
$PYRTM,2024,125.583345059502,16.692992469641
$GNGGA,140001.00,3510.60359507,N,12151.35882897,W,2,12,1.0,8.174,M,-38.659,M,6.0,0131*60
$PYRTM,2024,125.583345059502,16.692992469641
$GNHDT,268.428,T*29
$PYRTM,2024,125.583350787546,16.692998197685
$GNGGA,140001.50,3510.60365041,N,12151.36018422,W,2,12,1.0,7.683,M,-38.659,M,6.4,0131*63
$PYRTM,2024,125.583350787546,16.692998197685
$GNHDT,268.977,T*2E
$PYRTM,2024,125.583356637778,16.693004047917
$GNGGA,140002.00,3510.60374186,N,12151.36149230,W,2,12,1.0,7.292,M,-38.659,M,7.0,0131*6E
$PYRTM,2024,125.583356637778,16.693004047917
$GNHDT,269.701,T*20
$PYRTM,2024,125.583362362789,16.693009772940
$GNGGA,140002.50,3510.60388117,N,12151.36276036,W,2,12,1.0,7.100,M,-38.659,M,7.4,0131*67
$PYRTM,2024,125.583362362789,16.693009772940
$GNHDT,270.171,T*29
$PYRTM,2024,125.583368212998,16.693015623137
$GNGGA,140003.00,3510.60405642,N,12151.36399318,W,2,12,1.0,7.214,M,-38.659,M,7.0,0131*6B
$PYRTM,2024,125.583368212998,16.693015623137
$GNHDT,270.554,T*2A
$PYRTM,2024,125.583373941493,16.693021351644
$GNGGA,140003.50,3510.60419293,N,12151.36521517,W,2,12,1.0,7.578,M,-38.659,M,7.4,0131*6E
$PYRTM,2024,125.583373941493,16.693021351644
$GNHDT,270.069,T*21
$PYRTM,2024,125.583379789630,16.693027199769
$GNGGA,140004.00,3510.60420769,N,12151.36642745,W,2,12,1.0,8.219,M,-38.659,M,7.0,0131*6E
$PYRTM,2024,125.583379789630,16.693027199769
$GNHDT,269.744,T*21
$PYRTM,2024,125.583385511412,16.693032921551
$GNGGA,140004.50,3510.60409579,N,12151.36763891,W,2,12,1.0,8.930,M,-38.659,M,7.4,0131*63
$PYRTM,2024,125.583385511412,16.693032921551
$GNHDT,268.755,T*20
$PYRTM,2024,125.583391354942,16.693038765081
$GNGGA,140005.00,3510.60392735,N,12151.36887778,W,2,12,1.0,9.491,M,-38.659,M,4.0,0131*65
$PYRTM,2024,125.583391354942,16.693038765081
$GNHDT,268.522,T*22
$PYRTM,2024,125.583397090880,16.693044501019
$GNGGA,140005.50,3510.60381543,N,12151.37018857,W,2,12,1.0,9.625,M,-38.659,M,4.4,0131*65
$PYRTM,2024,125.583397090880,16.693044501019
$GNHDT,268.831,T*2D
$PYRTM,2024,125.583402936204,16.693050346343
$GNGGA,140006.00,3510.60384769,N,12151.37155535,W,2,12,1.0,9.258,M,-38.659,M,5.0,0131*66
$PYRTM,2024,125.583402936204,16.693050346343
$GNHDT,268.965,T*2D
$PYRTM,2024,125.583408663912,16.693056074051
$GNGGA,140006.50,3510.60404992,N,12151.37296121,W,2,12,1.0,8.462,M,-38.659,M,5.4,0131*61
$PYRTM,2024,125.583408663912,16.693056074051
$GNHDT,269.086,T*28
$PYRTM,2024,125.583414513750,16.693061923889
$GNGGA,140007.00,3510.60437425,N,12151.37434539,W,2,12,1.0,7.534,M,-38.659,M,6.0,0131*6D
$PYRTM,2024,125.583414513750,16.693061923889
$GNHDT,269.515,T*27
$PYRTM,2024,125.583420238623,16.693067648762
$GNGGA,140007.50,3510.60470110,N,12151.37566741,W,2,12,1.0,6.881,M,-38.659,M,6.4,0131*65
$PYRTM,2024,125.583420238623,16.693067648762
$GNHDT,269.848,T*22
$PYRTM,2024,125.583426095197,16.693073505336
$GNGGA,140008.00,3510.60488887,N,12151.37688277,W,2,12,1.0,6.866,M,-38.660,M,7.0,0131*6A
$PYRTM,2024,125.583426095197,16.693073505336
$GNHDT,269.918,T*26
$PYRTM,2024,125.583431812789,16.693079222928
$GNGGA,140008.50,3510.60489974,N,12151.37800628,W,2,12,1.0,7.534,M,-38.660,M,7.4,0131*6C
$PYRTM,2024,125.583431812789,16.693079222928
$GNHDT,269.454,T*23
$PYRTM,2024,125.583437658137,16.693085068275
$GNGGA,140009.00,3510.60473824,N,12151.37907636,W,2,12,1.0,8.544,M,-38.660,M,7.0,0131*6C
$PYRTM,2024,125.583437658137,16.693085068275
$GNHDT,268.939,T*24
$PYRTM,2024,125.583443390127,16.693090800266
$GNGGA,140009.50,3510.60448961,N,12151.38019310,W,2,12,1.0,9.474,M,-38.660,M,7.4,0131*6E
$PYRTM,2024,125.583443390127,16.693090800266
$GNHDT,267.842,T*26
$PYRTM,2024,125.583449252963,16.693096663102
$GNGGA,140010.00,3510.60422060,N,12151.38144874,W,2,12,1.0,9.929,M,-38.660,M,7.0,0131*66
$PYRTM,2024,125.583449252963,16.693096663102
$GNHDT,267.244,T*2A
$PYRTM,2024,125.583454961100,16.693102371238
$GNGGA,140010.50,3510.60401706,N,12151.38285269,W,2,12,1.0,9.724,M,-38.660,M,7.4,0131*6A
$PYRTM,2024,125.583454961100,16.693102371238
$GNHDT,266.729,T*25
$PYRTM,2024,125.583460812130,16.693108222269
$GNGGA,140011.00,3510.60395896,N,12151.38432945,W,2,12,1.0,8.907,M,-38.660,M,4.0,0131*64
$PYRTM,2024,125.583460812130,16.693108222269
$GNHDT,266.587,T*23
$PYRTM,2024,125.583466536574,16.693113946725
$GNGGA,140011.50,3510.60409007,N,12151.38576521,W,2,12,1.0,7.687,M,-38.660,M,4.4,0131*60
$PYRTM,2024,125.583466536574,16.693113946725
$GNHDT,267.233,T*2A
$PYRTM,2024,125.583472381586,16.693119791725
$GNGGA,140012.00,3510.60439068,N,12151.38706297,W,2,12,1.0,6.565,M,-38.660,M,5.0,0131*68
$PYRTM,2024,125.583472381586,16.693119791725
$GNHDT,267.898,T*21
$PYRTM,2024,125.583478115810,16.693125525949
$GNGGA,140012.50,3510.60472389,N,12151.38818990,W,2,12,1.0,6.064,M,-38.660,M,5.4,0131*62
$PYRTM,2024,125.583478115810,16.693125525949
$GNHDT,268.044,T*27
$PYRTM,2024,125.583483953924,16.693131364063
$GNGGA,140013.00,3510.60497580,N,12151.38922133,W,2,12,1.0,6.264,M,-38.660,M,6.0,0131*6E
$PYRTM,2024,125.583483953924,16.693131364063
$GNHDT,268.283,T*2E
$PYRTM,2024,125.583489688704,16.693137098843
$GNGGA,140013.50,3510.60505253,N,12151.39021902,W,2,12,1.0,7.078,M,-38.660,M,6.4,0131*63
$PYRTM,2024,125.583489688704,16.693137098843
$GNHDT,268.101,T*27
$PYRTM,2024,125.583495528796,16.693142938935
$GNGGA,140014.00,3510.60493366,N,12151.39128333,W,2,12,1.0,8.126,M,-38.660,M,7.0,0131*68
$PYRTM,2024,125.583495528796,16.693142938935
$GNHDT,267.954,T*20
$PYRTM,2024,125.583501254167,16.693148664317
$GNGGA,140014.50,3510.60468602,N,12151.39249456,W,2,12,1.0,8.894,M,-38.660,M,7.4,0131*6A
$PYRTM,2024,125.583501254167,16.693148664317
$GNHDT,268.011,T*27
$PYRTM,2024,125.583507109699,16.693154519838
$GNGGA,140015.00,3510.60439134,N,12151.39384406,W,2,12,1.0,9.195,M,-38.660,M,7.0,0131*60
$PYRTM,2024,125.583507109699,16.693154519838
$GNHDT,268.311,T*24
$PYRTM,2024,125.583512831435,16.693160241574
$GNGGA,140015.50,3510.60415847,N,12151.39521825,W,2,12,1.0,9.056,M,-38.661,M,7.4,0131*69
$PYRTM,2024,125.583512831435,16.693160241574
$GNHDT,268.430,T*20
$PYRTM,2024,125.583518673819,16.693166083958
$GNGGA,140016.00,3510.60409604,N,12151.39648367,W,2,12,1.0,8.632,M,-38.661,M,7.0,0131*6B
$PYRTM,2024,125.583518673819,16.693166083958
$GNHDT,268.711,T*20
$PYRTM,2024,125.583524402153,16.693171812292
$GNGGA,140016.50,3510.60423138,N,12151.39759472,W,2,12,1.0,8.295,M,-38.661,M,7.4,0131*61
$PYRTM,2024,125.583524402153,16.693171812292
$GNHDT,269.451,T*26
$PYRTM,2024,125.583530242778,16.693177652917
$GNGGA,140017.00,3510.60449555,N,12151.39859219,W,2,12,1.0,8.087,M,-38.661,M,4.0,0131*64
$PYRTM,2024,125.583530242778,16.693177652917
$GNHDT,269.651,T*24
$PYRTM,2024,125.583535976887,16.693183387025
$GNGGA,140017.50,3510.60480186,N,12151.39956115,W,2,12,1.0,8.080,M,-38.661,M,4.4,0131*6C
$PYRTM,2024,125.583535976887,16.693183387025
$GNHDT,270.002,T*2C
$PYRTM,2024,125.583541822743,16.693189232882
$GNGGA,140018.00,3510.60506718,N,12151.40056429,W,2,12,1.0,8.158,M,-38.661,M,5.0,0131*64
$PYRTM,2024,125.583541822743,16.693189232882
$GNHDT,270.349,T*20
$PYRTM,2024,125.583547550532,16.693194960683
$GNGGA,140018.50,3510.60524371,N,12151.40167900,W,2,12,1.0,8.180,M,-38.661,M,5.4,0131*6E
$PYRTM,2024,125.583547550532,16.693194960683
$GNHDT,270.771,T*2F
$PYRTM,2024,125.583553393507,16.693200803646
$GNGGA,140019.00,3510.60533604,N,12151.40291039,W,2,12,1.0,8.033,M,-38.661,M,6.0,0131*6C
$PYRTM,2024,125.583553393507,16.693200803646
$GNHDT,271.417,T*2D
$PYRTM,2024,125.583559122199,16.693206532350
$GNGGA,140019.50,3510.60538072,N,12151.40421083,W,2,12,1.0,7.728,M,-38.661,M,6.4,0131*6F
$PYRTM,2024,125.583559122199,16.693206532350
$GNHDT,271.794,T*25
$PYRTM,2024,125.583564967593,16.693212377731
$GNGGA,140020.00,3510.60538353,N,12151.40550608,W,2,12,1.0,7.492,M,-38.661,M,7.0,0131*65
$PYRTM,2024,125.583564967593,16.693212377731
$GNHDT,272.147,T*2E
$PYRTM,2024,125.583570702674,16.693218112812
$GNGGA,140020.50,3510.60536235,N,12151.40669144,W,2,12,1.0,7.596,M,-38.661,M,7.4,0131*68
$PYRTM,2024,125.583570702674,16.693218112812
$GNHDT,272.774,T*28
$PYRTM,2024,125.583576547824,16.693223957963
$GNGGA,140021.00,3510.60532885,N,12151.40773938,W,2,12,1.0,8.103,M,-38.661,M,7.0,0131*63
$PYRTM,2024,125.583576547824,16.693223957963
$GNHDT,272.892,T*2F
$PYRTM,2024,125.583582275995,16.693229686134
$GNGGA,140021.50,3510.60531324,N,12151.40869397,W,2,12,1.0,8.892,M,-38.661,M,7.4,0131*6B
$PYRTM,2024,125.583582275995,16.693229686134
$GNHDT,271.780,T*20
$PYRTM,2024,125.583588122627,16.693235532766
$GNGGA,140022.00,3510.60534146,N,12151.40963835,W,2,12,1.0,9.649,M,-38.661,M,7.0,0131*6B
$PYRTM,2024,125.583588122627,16.693235532766
$GNHDT,271.486,T*25
$PYRTM,2024,125.583593856111,16.693241266262
$GNGGA,140022.50,3510.60544931,N,12151.41067443,W,2,12,1.0,10.062,M,-38.661,M,7.4,0131*53
$PYRTM,2024,125.583593856111,16.693241266262
$GNHDT,271.010,T*2E
$PYRTM,2024,125.583599693785,16.693247103924
$GNGGA,140023.00,3510.60564235,N,12151.41184675,W,2,12,1.0,9.882,M,-38.661,M,4.0,0131*68
$PYRTM,2024,125.583599693785,16.693247103924
$GNHDT,270.464,T*28
$PYRTM,2024,125.583605423021,16.693252833160
$GNGGA,140023.50,3510.60587740,N,12151.41312929,W,2,12,1.0,9.086,M,-38.661,M,4.4,0131*64
$PYRTM,2024,125.583605423021,16.693252833160
$GNHDT,270.658,T*25
$PYRTM,2024,125.583611270150,16.693258680301
$GNGGA,140024.00,3510.60609983,N,12151.41443336,W,2,12,1.0,7.921,M,-38.661,M,5.0,0131*6A
$PYRTM,2024,125.583611270150,16.693258680301
$GNHDT,269.900,T*2F
$PYRTM,2024,125.583616998218,16.693264408356
$GNGGA,140024.50,3510.60623533,N,12151.41570009,W,2,12,1.0,6.882,M,-38.661,M,5.4,0131*63
$PYRTM,2024,125.583616998218,16.693264408356
$GNHDT,268.924,T*28
$PYRTM,2024,125.583622837685,16.693270247824
$GNGGA,140025.00,3510.60625395,N,12151.41687383,W,2,12,1.0,6.339,M,-38.661,M,6.0,0131*6D
$PYRTM,2024,125.583622837685,16.693270247824
$GNHDT,268.598,T*23
$PYRTM,2024,125.583628583461,16.693275993600
$GNGGA,140025.50,3510.60616978,N,12151.41793903,W,2,12,1.0,6.426,M,-38.662,M,6.4,0131*69
$PYRTM,2024,125.583628583461,16.693275993600
$GNHDT,268.829,T*24
$PYRTM,2024,125.583634416956,16.693281827095
$GNGGA,140026.00,3510.60603131,N,12151.41891573,W,2,12,1.0,7.003,M,-38.662,M,7.0,0131*6F
$PYRTM,2024,125.583634416956,16.693281827095
$GNHDT,268.659,T*2D
$PYRTM,2024,125.583640158125,16.693287568264
$GNGGA,140026.50,3510.60593897,N,12151.41989467,W,2,12,1.0,7.738,M,-38.662,M,7.4,0131*62
$PYRTM,2024,125.583640158125,16.693287568264
$GNHDT,268.008,T*2F
$PYRTM,2024,125.583645989039,16.693293399190
$GNGGA,140027.00,3510.60595927,N,12151.42095088,W,2,12,1.0,8.352,M,-38.662,M,7.0,0131*6B
$PYRTM,2024,125.583645989039,16.693293399190
$GNHDT,268.259,T*29
$PYRTM,2024,125.583651720197,16.693299130347
$GNGGA,140027.50,3510.60609789,N,12151.42211146,W,2,12,1.0,8.676,M,-38.662,M,7.4,0131*68
$PYRTM,2024,125.583651720197,16.693299130347
$GNHDT,268.341,T*21
$PYRTM,2024,125.583657561701,16.693304971840
$GNGGA,140028.00,3510.60627751,N,12151.42333874,W,2,12,1.0,8.711,M,-38.662,M,7.0,0131*66
$PYRTM,2024,125.583657561701,16.693304971840
$GNHDT,268.092,T*2C
$PYRTM,2024,125.583663296713,16.693310706852
$GNGGA,140028.50,3510.60640438,N,12151.42457927,W,2,12,1.0,8.591,M,-38.662,M,7.4,0131*62
$PYRTM,2024,125.583663296713,16.693310706852
$GNHDT,267.237,T*2E
$PYRTM,2024,125.583669139549,16.693316549687
$GNGGA,140029.00,3510.60642040,N,12151.42578585,W,2,12,1.0,8.409,M,-38.662,M,4.0,0131*60
$PYRTM,2024,125.583669139549,16.693316549687
$GNHDT,266.120,T*2A
$PYRTM,2024,125.583674870463,16.693322280602
$GNGGA,140029.50,3510.60631665,N,12151.42693509,W,2,12,1.0,8.272,M,-38.662,M,4.4,0131*6C
$PYRTM,2024,125.583674870463,16.693322280602
$GNHDT,265.769,T*22
$PYRTM,2024,125.583680713102,16.693328123241
$GNGGA,140030.00,3510.60614783,N,12151.42803629,W,2,12,1.0,8.169,M,-38.662,M,5.0,0131*65
$PYRTM,2024,125.583680713102,16.693328123241
$GNHDT,265.210,T*29
$PYRTM,2024,125.583686447662,16.693333857801
$GNGGA,140030.50,3510.60599381,N,12151.42910978,W,2,12,1.0,8.057,M,-38.662,M,5.4,0131*60
$PYRTM,2024,125.583686447662,16.693333857801
$GNHDT,265.679,T*22
$PYRTM,2024,125.583692288576,16.693339698715
$GNGGA,140031.00,3510.60592866,N,12151.43017626,W,2,12,1.0,7.902,M,-38.662,M,6.0,0131*67
$PYRTM,2024,125.583692288576,16.693339698715
$GNHDT,265.959,T*2F
$PYRTM,2024,125.583698015475,16.693345425613
$GNGGA,140031.50,3510.60600616,N,12151.43126247,W,2,12,1.0,7.656,M,-38.662,M,6.4,0131*69
$PYRTM,2024,125.583698015475,16.693345425613
$GNHDT,266.574,T*2F
$PYRTM,2024,125.583703860185,16.693351270324
$GNGGA,140032.00,3510.60621424,N,12151.43238614,W,2,12,1.0,7.407,M,-38.662,M,7.0,0131*62
$PYRTM,2024,125.583703860185,16.693351270324
$GNHDT,267.037,T*2C
$PYRTM,2024,125.583709592049,16.693357002188
$GNGGA,140032.50,3510.60646241,N,12151.43352213,W,2,12,1.0,7.356,M,-38.662,M,7.4,0131*6A
$PYRTM,2024,125.583709592049,16.693357002188
$GNHDT,267.740,T*2B
$PYRTM,2024,125.583715438600,16.693362848738
$GNGGA,140033.00,3510.60661691,N,12151.43463225,W,2,12,1.0,7.675,M,-38.662,M,7.0,0131*62
$PYRTM,2024,125.583715438600,16.693362848738
$GNHDT,267.672,T*2B
$PYRTM,2024,125.583721166088,16.693368576238
$GNGGA,140033.50,3510.60659093,N,12151.43570197,W,2,12,1.0,8.332,M,-38.662,M,7.4,0131*6C
$PYRTM,2024,125.583721166088,16.693368576238
$GNHDT,267.479,T*22
$PYRTM,2024,125.583727009120,16.693374419259
$GNGGA,140034.00,3510.60640287,N,12151.43676560,W,2,12,1.0,9.075,M,-38.662,M,7.0,0131*6D
$PYRTM,2024,125.583727009120,16.693374419259
$GNHDT,267.213,T*28
$PYRTM,2024,125.583732738692,16.693380148831
$GNGGA,140034.50,3510.60616780,N,12151.43785740,W,2,12,1.0,9.627,M,-38.662,M,7.4,0131*61
$PYRTM,2024,125.583732738692,16.693380148831
$GNHDT,267.188,T*29
$PYRTM,2024,125.583738585162,16.693385995301
$GNGGA,140035.00,3510.60603030,N,12151.43903088,W,2,12,1.0,9.639,M,-38.662,M,4.0,0131*66
$PYRTM,2024,125.583738585162,16.693385995301
$GNHDT,267.386,T*25
$PYRTM,2024,125.583744313391,16.693391723542
$GNGGA,140035.50,3510.60606391,N,12151.44028599,W,2,12,1.0,9.096,M,-38.662,M,4.4,0131*6B
$PYRTM,2024,125.583744313391,16.693391723542
$GNHDT,267.506,T*2B
$PYRTM,2024,125.583750161204,16.693397571354
$GNGGA,140036.00,3510.60624750,N,12151.44152448,W,2,12,1.0,8.254,M,-38.663,M,5.0,0131*6C
$PYRTM,2024,125.583750161204,16.693397571354
$GNHDT,267.720,T*2D
$PYRTM,2024,125.583755896875,16.693403307014
$GNGGA,140036.50,3510.60648563,N,12151.44267710,W,2,12,1.0,7.564,M,-38.663,M,5.4,0131*65
$PYRTM,2024,125.583755896875,16.693403307014
$GNHDT,267.804,T*24
$PYRTM,2024,125.583761738102,16.693409148241
$GNGGA,140037.00,3510.60666950,N,12151.44370427,W,2,12,1.0,7.370,M,-38.663,M,6.0,0131*65
$PYRTM,2024,125.583761738102,16.693409148241
$GNHDT,267.627,T*2B
$PYRTM,2024,125.583767458947,16.693414869086
$GNGGA,140037.50,3510.60673085,N,12151.44463273,W,2,12,1.0,7.695,M,-38.663,M,6.4,0131*6D
$PYRTM,2024,125.583767458947,16.693414869086
$GNHDT,267.801,T*21
$PYRTM,2024,125.583773303623,16.693420713762
$GNGGA,140038.00,3510.60664918,N,12151.44554944,W,2,12,1.0,8.336,M,-38.663,M,7.0,0131*60
$PYRTM,2024,125.583773303623,16.693420713762
$GNHDT,267.671,T*28
$PYRTM,2024,125.583779034421,16.693426444560
$GNGGA,140038.50,3510.60645119,N,12151.44657079,W,2,12,1.0,8.870,M,-38.663,M,7.4,0131*65
$PYRTM,2024,125.583779034421,16.693426444560
$GNHDT,267.751,T*2B
$PYRTM,2024,125.583784877002,16.693432287141
$GNGGA,140039.00,3510.60623423,N,12151.44775639,W,2,12,1.0,8.951,M,-38.663,M,7.0,0131*68
$PYRTM,2024,125.583784877002,16.693432287141
$GNHDT,268.077,T*27
$PYRTM,2024,125.583790625046,16.693438035185
$GNGGA,140039.50,3510.60609258,N,12151.44907630,W,2,12,1.0,8.500,M,-38.663,M,7.4,0131*61
$PYRTM,2024,125.583790625046,16.693438035185
$GNHDT,268.731,T*22
$PYRTM,2024,125.583796458877,16.693443869028
$GNGGA,140040.00,3510.60609138,N,12151.45035076,W,2,12,1.0,7.740,M,-38.663,M,7.0,0131*6F
$PYRTM,2024,125.583796458877,16.693443869028
$GNHDT,268.761,T*27
$PYRTM,2024,125.583802182523,16.693449592662
$GNGGA,140040.50,3510.60618445,N,12151.45150955,W,2,12,1.0,7.125,M,-38.663,M,7.4,0131*6E
$PYRTM,2024,125.583802182523,16.693449592662
$GNHDT,268.731,T*22
$PYRTM,2024,125.583808032894,16.693455443032
$GNGGA,140041.00,3510.60629843,N,12151.45251532,W,2,12,1.0,6.927,M,-38.663,M,4.0,0131*61
$PYRTM,2024,125.583808032894,16.693455443032
$GNHDT,268.968,T*20
$PYRTM,2024,125.583813758750,16.693461168889
$GNGGA,140041.50,3510.60636827,N,12151.45342141,W,2,12,1.0,7.218,M,-38.663,M,4.4,0131*69
$PYRTM,2024,125.583813758750,16.693461168889
$GNHDT,268.941,T*2B
$PYRTM,2024,125.583819601134,16.693467011285
$GNGGA,140042.00,3510.60636650,N,12151.45434083,W,2,12,1.0,7.758,M,-38.663,M,5.0,0131*6C
$PYRTM,2024,125.583819601134,16.693467011285
$GNHDT,268.561,T*25
$PYRTM,2024,125.583825327697,16.693472737836
$GNGGA,140042.50,3510.60631864,N,12151.45538599,W,2,12,1.0,8.229,M,-38.663,M,5.4,0131*6C
$PYRTM,2024,125.583825327697,16.693472737836
$GNHDT,268.807,T*28
$PYRTM,2024,125.583831169769,16.693478579907
$GNGGA,140043.00,3510.60629253,N,12151.45658985,W,2,12,1.0,8.360,M,-38.663,M,6.0,0131*60
$PYRTM,2024,125.583831169769,16.693478579907
$GNHDT,269.001,T*27
$PYRTM,2024,125.583836903495,16.693484313634
$GNGGA,140043.50,3510.60633644,N,12151.45786111,W,2,12,1.0,8.131,M,-38.663,M,6.4,0131*69
$PYRTM,2024,125.583836903495,16.693484313634
$GNHDT,269.096,T*29
$PYRTM,2024,125.583842754225,16.693490164363
$GNGGA,140044.00,3510.60642444,N,12151.45909395,W,2,12,1.0,7.829,M,-38.664,M,7.0,0131*65
$PYRTM,2024,125.583842754225,16.693490164363
$GNHDT,269.420,T*20
$PYRTM,2024,125.583848473738,16.693495883877
$GNGGA,140044.50,3510.60648522,N,12151.46022100,W,2,12,1.0,7.702,M,-38.664,M,7.4,0131*64
$PYRTM,2024,125.583848473738,16.693495883877
$GNHDT,269.632,T*21
$PYRTM,2024,125.583854318553,16.693501728704
$GNGGA,140045.00,3510.60645655,N,12151.46125481,W,2,12,1.0,7.908,M,-38.664,M,7.0,0131*64
$PYRTM,2024,125.583854318553,16.693501728704
$GNHDT,268.921,T*2D
$PYRTM,2024,125.583860054965,16.693507465104
$GNGGA,140045.50,3510.60633169,N,12151.46224435,W,2,12,1.0,8.365,M,-38.664,M,7.4,0131*6F
$PYRTM,2024,125.583860054965,16.693507465104
$GNHDT,268.146,T*24
$PYRTM,2024,125.583865904028,16.693513314167
$GNGGA,140046.00,3510.60616271,N,12151.46325292,W,2,12,1.0,8.859,M,-38.664,M,7.0,0131*6F
$PYRTM,2024,125.583865904028,16.693513314167
$GNHDT,267.496,T*23
$PYRTM,2024,125.583871625741,16.693519035880
$GNGGA,140046.50,3510.60604454,N,12151.46436531,W,2,12,1.0,9.051,M,-38.664,M,7.4,0131*66
$PYRTM,2024,125.583871625741,16.693519035880
$GNHDT,266.860,T*27
$PYRTM,2024,125.583877483854,16.693524893993
$GNGGA,140047.00,3510.60603043,N,12151.46559585,W,2,12,1.0,8.803,M,-38.664,M,4.0,0131*69
$PYRTM,2024,125.583877483854,16.693524893993
$GNHDT,266.411,T*2D
$PYRTM,2024,125.583883204456,16.693530614595
$GNGGA,140047.50,3510.60614077,N,12151.46684465,W,2,12,1.0,8.262,M,-38.664,M,4.4,0131*68
$PYRTM,2024,125.583883204456,16.693530614595
$GNHDT,266.904,T*24
$PYRTM,2024,125.583889046262,16.693536456400
$GNGGA,140048.00,3510.60632496,N,12151.46802900,W,2,12,1.0,7.729,M,-38.664,M,5.0,0131*63
$PYRTM,2024,125.583889046262,16.693536456400
$GNHDT,267.004,T*2C
$PYRTM,2024,125.583894775856,16.693542186007
$GNGGA,140048.50,3510.60651183,N,12151.46914132,W,2,12,1.0,7.464,M,-38.664,M,5.4,0131*63
$PYRTM,2024,125.583894775856,16.693542186007
$GNHDT,266.978,T*2F
$PYRTM,2024,125.583900621632,16.693548031771
$GNGGA,140049.00,3510.60662487,N,12151.47019802,W,2,12,1.0,7.565,M,-38.664,M,6.0,0131*6E
$PYRTM,2024,125.583900621632,16.693548031771
$GNHDT,266.917,T*26
$PYRTM,2024,125.583906351759,16.693553761898
$GNGGA,140049.50,3510.60662610,N,12151.47126275,W,2,12,1.0,7.941,M,-38.664,M,6.4,0131*6E
$PYRTM,2024,125.583906351759,16.693553761898
$GNHDT,266.882,T*2B
$PYRTM,2024,125.583912189051,16.693559599190
$GNGGA,140050.00,3510.60652579,N,12151.47235874,W,2,12,1.0,8.404,M,-38.664,M,7.0,0131*60
$PYRTM,2024,125.583912189051,16.693559599190
$GNHDT,267.133,T*29
$PYRTM,2024,125.583917933819,16.693565343958
$GNGGA,140050.50,3510.60636397,N,12151.47349979,W,2,12,1.0,8.750,M,-38.664,M,7.4,0131*61
$PYRTM,2024,125.583917933819,16.693565343958
$GNHDT,267.448,T*20
$PYRTM,2024,125.583923771840,16.693571181979
$GNGGA,140051.00,3510.60618593,N,12151.47468987,W,2,12,1.0,8.833,M,-38.664,M,7.0,0131*60
$PYRTM,2024,125.583923771840,16.693571181979
$GNHDT,267.335,T*2D
$PYRTM,2024,125.583929493750,16.693576903900
$GNGGA,140051.50,3510.60606977,N,12151.47587981,W,2,12,1.0,8.655,M,-38.664,M,7.4,0131*60
$PYRTM,2024,125.583929493750,16.693576903900
$GNHDT,268.028,T*2D
$PYRTM,2024,125.583935341644,16.693582751782
$GNGGA,140052.00,3510.60603846,N,12151.47703781,W,2,12,1.0,8.363,M,-38.664,M,7.0,0131*64
$PYRTM,2024,125.583935341644,16.693582751782
$GNHDT,268.112,T*25
$PYRTM,2024,125.583941072465,16.693588482604
$GNGGA,140052.50,3510.60610483,N,12151.47815025,W,2,12,1.0,8.060,M,-38.664,M,7.4,0131*63
$PYRTM,2024,125.583941072465,16.693588482604
$GNHDT,267.774,T*2C
$PYRTM,2024,125.583946916991,16.693594327130
$GNGGA,140053.00,3510.60625520,N,12151.47923836,W,2,12,1.0,7.812,M,-38.664,M,4.0,0131*62
$PYRTM,2024,125.583946916991,16.693594327130
$GNHDT,267.707,T*28
$PYRTM,2024,125.583952641505,16.693600051644
$GNGGA,140053.50,3510.60645621,N,12151.48033807,W,2,12,1.0,7.613,M,-38.664,M,4.4,0131*6D
$PYRTM,2024,125.583952641505,16.693600051644
$GNHDT,268.454,T*22
$PYRTM,2024,125.583958487465,16.693605897604
$GNGGA,140054.00,3510.60665188,N,12151.48147754,W,2,12,1.0,7.459,M,-38.664,M,5.0,0131*6B
$PYRTM,2024,125.583958487465,16.693605897604
$GNHDT,269.015,T*22
$PYRTM,2024,125.583964216481,16.693611626620
$GNGGA,140054.50,3510.60677328,N,12151.48266740,W,2,12,1.0,7.368,M,-38.665,M,5.4,0131*60
$PYRTM,2024,125.583964216481,16.693611626620
$GNHDT,269.308,T*2D
$PYRTM,2024,125.583970072685,16.693617482824
$GNGGA,140055.00,3510.60676210,N,12151.48390122,W,2,12,1.0,7.403,M,-38.665,M,6.0,0131*68
$PYRTM,2024,125.583970072685,16.693617482824
$GNHDT,269.555,T*23
$PYRTM,2024,125.583975794201,16.693623204340
$GNGGA,140055.50,3510.60660491,N,12151.48510243,W,2,12,1.0,7.600,M,-38.665,M,6.4,0131*6A
$PYRTM,2024,125.583975794201,16.693623204340
$GNHDT,269.593,T*29
$PYRTM,2024,125.583981639792,16.693629049931
$GNGGA,140056.00,3510.60637101,N,12151.48624945,W,2,12,1.0,7.963,M,-38.665,M,7.0,0131*64
$PYRTM,2024,125.583981639792,16.693629049931
$GNHDT,269.694,T*2D
$PYRTM,2024,125.583987363102,16.693634773241
$GNGGA,140056.50,3510.60615593,N,12151.48734678,W,2,12,1.0,8.347,M,-38.665,M,7.4,0131*68
$PYRTM,2024,125.583987363102,16.693634773241
$GNHDT,269.629,T*2B
$PYRTM,2024,125.583993216505,16.693640626644
$GNGGA,140057.00,3510.60605786,N,12151.48844482,W,2,12,1.0,8.620,M,-38.665,M,7.0,0131*64
$PYRTM,2024,125.583993216505,16.693640626644
$GNHDT,270.002,T*2C
$PYRTM,2024,125.583998939537,16.693646349676
$GNGGA,140057.50,3510.60612426,N,12151.48959116,W,2,12,1.0,8.629,M,-38.665,M,7.4,0131*66
$PYRTM,2024,125.583998939537,16.693646349676
$GNHDT,270.274,T*2F
$PYRTM,2024,125.584004785718,16.693652195856
$GNGGA,140058.00,3510.60636023,N,12151.49078491,W,2,12,1.0,8.350,M,-38.665,M,7.0,0131*65
$PYRTM,2024,125.584004785718,16.693652195856
$GNHDT,270.000,T*2E
$PYRTM,2024,125.584010516667,16.693657926806
$GNGGA,140058.50,3510.60669458,N,12151.49202598,W,2,12,1.0,7.847,M,-38.665,M,7.4,0131*63
$PYRTM,2024,125.584010516667,16.693657926806
$GNHDT,269.632,T*21
$PYRTM,2024,125.584016362407,16.693663772546
$GNGGA,140059.00,3510.60702649,N,12151.49331736,W,2,12,1.0,7.251,M,-38.665,M,4.0,0131*64
$PYRTM,2024,125.584016362407,16.693663772546
$GNHDT,269.461,T*25
$PYRTM,2024,125.584022089468,16.693669499606
$GNGGA,140059.50,3510.60724180,N,12151.49462392,W,2,12,1.0,6.750,M,-38.665,M,4.4,0131*6D
$PYRTM,2024,125.584022089468,16.693669499606
$GNHDT,269.868,T*20
$PYRTM,2024,125.584027940231,16.693675350370
$GNGGA,140100.00,3510.60725307,N,12151.49588400,W,2,12,1.0,6.700,M,-38.665,M,5.0,0131*60
$PYRTM,2024,125.584027940231,16.693675350370
$GNHDT,269.658,T*2D
$PYRTM,2024,125.584033661933,16.693681072072
$GNGGA,140100.50,3510.60710809,N,12151.49703960,W,2,12,1.0,7.153,M,-38.665,M,5.4,0131*69
$PYRTM,2024,125.584033661933,16.693681072072
$GNHDT,270.045,T*2F
$PYRTM,2024,125.584039516308,16.693686926458
$GNGGA,140101.00,3510.60690575,N,12151.49811153,W,2,12,1.0,7.907,M,-38.665,M,6.0,0131*68
$PYRTM,2024,125.584039516308,16.693686926458
$GNHDT,270.018,T*27
$PYRTM,2024,125.584045241852,16.693692651991
$GNGGA,140101.50,3510.60675692,N,12151.49916121,W,2,12,1.0,8.675,M,-38.665,M,6.4,0131*6E
$PYRTM,2024,125.584045241852,16.693692651991
$GNHDT,270.764,T*2B
$PYRTM,2024,125.584051089120,16.693698499259
$GNGGA,140102.00,3510.60677391,N,12151.50029143,W,2,12,1.0,9.127,M,-38.665,M,7.0,0131*61
$PYRTM,2024,125.584051089120,16.693698499259
$GNHDT,270.537,T*2F
$PYRTM,2024,125.584056810394,16.693704220532
$GNGGA,140102.50,3510.60696504,N,12151.50154797,W,2,12,1.0,9.070,M,-38.665,M,7.4,0131*62
$PYRTM,2024,125.584056810394,16.693704220532
$GNHDT,270.100,T*2F
$PYRTM,2024,125.584062661343,16.693710071481
$GNGGA,140103.00,3510.60725411,N,12151.50287704,W,2,12,1.0,8.661,M,-38.665,M,7.0,0131*6E
$PYRTM,2024,125.584062661343,16.693710071481
$GNHDT,269.790,T*28
$PYRTM,2024,125.584068392882,16.693715803021
$GNGGA,140103.50,3510.60750854,N,12151.50419136,W,2,12,1.0,8.112,M,-38.665,M,7.4,0131*65
$PYRTM,2024,125.584068392882,16.693715803021
$GNHDT,269.101,T*26
$PYRTM,2024,125.584074228067,16.693721638206
$GNGGA,140104.00,3510.60766839,N,12151.50543182,W,2,12,1.0,7.697,M,-38.666,M,7.0,0131*6A
$PYRTM,2024,125.584074228067,16.693721638206
$GNHDT,268.714,T*25
$PYRTM,2024,125.584079955486,16.693727365625
$GNGGA,140104.50,3510.60770668,N,12151.50657649,W,2,12,1.0,7.567,M,-38.666,M,7.4,0131*6C
$PYRTM,2024,125.584079955486,16.693727365625
$GNHDT,268.142,T*20
$PYRTM,2024,125.584085809410,16.693733219549
$GNGGA,140105.00,3510.60765567,N,12151.50765729,W,2,12,1.0,7.728,M,-38.666,M,4.0,0131*69
$PYRTM,2024,125.584085809410,16.693733219549
$GNHDT,267.776,T*2E
$PYRTM,2024,125.584091539769,16.693738949907
$GNGGA,140105.50,3510.60757689,N,12151.50873512,W,2,12,1.0,7.995,M,-38.666,M,4.4,0131*60
$PYRTM,2024,125.584091539769,16.693738949907
$GNHDT,268.042,T*21
$PYRTM,2024,125.584097379074,16.693744789213
$GNGGA,140106.00,3510.60749508,N,12151.50985048,W,2,12,1.0,8.214,M,-38.666,M,5.0,0131*69
$PYRTM,2024,125.584097379074,16.693744789213
$GNHDT,268.096,T*28
$PYRTM,2024,125.584103108067,16.693750518206
$GNGGA,140106.50,3510.60745738,N,12151.51101198,W,2,12,1.0,8.275,M,-38.666,M,5.4,0131*6B
$PYRTM,2024,125.584103108067,16.693750518206
$GNHDT,268.367,T*25
$PYRTM,2024,125.584108956157,16.693756366296
$GNGGA,140107.00,3510.60750030,N,12151.51221561,W,2,12,1.0,8.168,M,-38.666,M,6.0,0131*6F
$PYRTM,2024,125.584108956157,16.693756366296
$GNHDT,268.320,T*26
$PYRTM,2024,125.584114684039,16.693762094178
$GNGGA,140107.50,3510.60762084,N,12151.51345717,W,2,12,1.0,7.894,M,-38.666,M,6.4,0131*65
$PYRTM,2024,125.584114684039,16.693762094178
$GNHDT,268.168,T*28
$PYRTM,2024,125.584120530440,16.693767940579
$GNGGA,140108.00,3510.60777236,N,12151.51471379,W,2,12,1.0,7.567,M,-38.666,M,7.0,0131*68
$PYRTM,2024,125.584120530440,16.693767940579
$GNHDT,268.189,T*27
$PYRTM,2024,125.584126254931,16.693773665069
$GNGGA,140108.50,3510.60790424,N,12151.51595488,W,2,12,1.0,7.316,M,-38.666,M,7.4,0131*67
$PYRTM,2024,125.584126254931,16.693773665069
$GNHDT,267.266,T*2A
$PYRTM,2024,125.584132102164,16.693779512303
$GNGGA,140109.00,3510.60799514,N,12151.51717320,W,2,12,1.0,7.211,M,-38.666,M,7.0,0131*67
$PYRTM,2024,125.584132102164,16.693779512303
$GNHDT,266.899,T*21
$PYRTM,2024,125.584137839965,16.693785250104
$GNGGA,140109.50,3510.60802840,N,12151.51837749,W,2,12,1.0,7.265,M,-38.666,M,7.4,0131*62
$PYRTM,2024,125.584137839965,16.693785250104
$GNHDT,266.699,T*2F
$PYRTM,2024,125.584143678345,16.693791088495
$GNGGA,140110.00,3510.60801271,N,12151.51959080,W,2,12,1.0,7.389,M,-38.666,M,7.0,0131*68
$PYRTM,2024,125.584143678345,16.693791088495
$GNHDT,267.063,T*2D
$PYRTM,2024,125.584149406817,16.693796816956
$GNGGA,140110.50,3510.60797766,N,12151.52083602,W,2,12,1.0,7.499,M,-38.666,M,7.4,0131*6D
$PYRTM,2024,125.584149406817,16.693796816956
$GNHDT,267.669,T*21
$PYRTM,2024,125.584155251632,16.693802661771
$GNGGA,140111.00,3510.60793608,N,12151.52208507,W,2,12,1.0,7.662,M,-38.666,M,4.0,0131*62
$PYRTM,2024,125.584155251632,16.693802661771
$GNHDT,267.924,T*27
$PYRTM,2024,125.584160980093,16.693808390231
$GNGGA,140111.50,3510.60792745,N,12151.52328550,W,2,12,1.0,7.923,M,-38.667,M,4.4,0131*60
$PYRTM,2024,125.584160980093,16.693808390231
$GNHDT,268.119,T*2E
$PYRTM,2024,125.584166822338,16.693814232477
$GNGGA,140112.00,3510.60796499,N,12151.52441623,W,2,12,1.0,8.279,M,-38.667,M,5.0,0131*61
$PYRTM,2024,125.584166822338,16.693814232477
$GNHDT,267.989,T*20
$PYRTM,2024,125.584172559769,16.693819969907
$GNGGA,140112.50,3510.60802825,N,12151.52551416,W,2,12,1.0,8.668,M,-38.667,M,5.4,0131*69
$PYRTM,2024,125.584172559769,16.693819969907
$GNHDT,267.858,T*2D
$PYRTM,2024,125.584178398380,16.693825808530
$GNGGA,140113.00,3510.60808946,N,12151.52662201,W,2,12,1.0,8.954,M,-38.667,M,6.0,0131*67
$PYRTM,2024,125.584178398380,16.693825808530
$GNHDT,268.092,T*2C
$PYRTM,2024,125.584184123819,16.693831533970
$GNGGA,140113.50,3510.60813908,N,12151.52782299,W,2,12,1.0,8.901,M,-38.667,M,6.4,0131*68
$PYRTM,2024,125.584184123819,16.693831533970
$GNHDT,267.903,T*22
$PYRTM,2024,125.584189977002,16.693837387141
$GNGGA,140114.00,3510.60816384,N,12151.52912319,W,2,12,1.0,8.454,M,-38.667,M,7.0,0131*67
$PYRTM,2024,125.584189977002,16.693837387141
$GNHDT,267.969,T*2E
$PYRTM,2024,125.584195699479,16.693843109630
$GNGGA,140114.50,3510.60816989,N,12151.53047064,W,2,12,1.0,7.767,M,-38.667,M,7.4,0131*6C
$PYRTM,2024,125.584195699479,16.693843109630
$GNHDT,268.232,T*24
$PYRTM,2024,125.584201540660,16.693848950799
$GNGGA,140115.00,3510.60818048,N,12151.53180722,W,2,12,1.0,7.008,M,-38.667,M,7.0,0131*67
$PYRTM,2024,125.584201540660,16.693848950799
$GNHDT,268.195,T*2A
$PYRTM,2024,125.584207274236,16.693854684375
$GNGGA,140115.50,3510.60822990,N,12151.53309278,W,2,12,1.0,6.442,M,-38.667,M,7.4,0131*61
$PYRTM,2024,125.584207274236,16.693854684375
$GNHDT,268.761,T*27
$PYRTM,2024,125.584213119155,16.693860529294
$GNGGA,140116.00,3510.60836101,N,12151.53428668,W,2,12,1.0,6.290,M,-38.667,M,7.0,0131*6E
$PYRTM,2024,125.584213119155,16.693860529294
$GNHDT,269.560,T*25
$PYRTM,2024,125.584218857431,16.693866267569
$GNGGA,140116.50,3510.60856697,N,12151.53539619,W,2,12,1.0,6.606,M,-38.667,M,7.4,0131*6D
$PYRTM,2024,125.584218857431,16.693866267569
$GNHDT,270.148,T*23
$PYRTM,2024,125.584224698704,16.693872108843
$GNGGA,140117.00,3510.60878067,N,12151.53643527,W,2,12,1.0,7.325,M,-38.667,M,4.0,0131*6E
$PYRTM,2024,125.584224698704,16.693872108843
$GNHDT,270.549,T*26
$PYRTM,2024,125.584230426412,16.693877836551
$GNGGA,140117.50,3510.60891676,N,12151.53744086,W,2,12,1.0,8.304,M,-38.667,M,4.4,0131*6A
$PYRTM,2024,125.584230426412,16.693877836551
$GNHDT,269.885,T*23
$PYRTM,2024,125.584236269363,16.693883679514
$GNGGA,140118.00,3510.60895492,N,12151.53848172,W,2,12,1.0,9.302,M,-38.667,M,5.0,0131*67
$PYRTM,2024,125.584236269363,16.693883679514
$GNHDT,269.391,T*2D
$PYRTM,2024,125.584242007824,16.693889417963
$GNGGA,140118.50,3510.60889860,N,12151.53964518,W,2,12,1.0,9.914,M,-38.667,M,5.4,0131*60
$PYRTM,2024,125.584242007824,16.693889417963
$GNHDT,268.613,T*23
$PYRTM,2024,125.584247848113,16.693895258252
$GNGGA,140119.00,3510.60880102,N,12151.54097573,W,2,12,1.0,9.840,M,-38.667,M,6.0,0131*68
$PYRTM,2024,125.584247848113,16.693895258252
$GNHDT,268.564,T*20
$PYRTM,2024,125.584253579282,16.693900989421
$GNGGA,140119.50,3510.60872702,N,12151.54237032,W,2,12,1.0,9.116,M,-38.667,M,6.4,0131*60
$PYRTM,2024,125.584253579282,16.693900989421
$GNHDT,269.990,T*26
$PYRTM,2024,125.584259415694,16.693906825833
$GNGGA,140120.00,3510.60875140,N,12151.54369068,W,2,12,1.0,8.066,M,-38.667,M,7.0,0131*6F
$PYRTM,2024,125.584259415694,16.693906825833
$GNHDT,269.874,T*2D
$PYRTM,2024,125.584265140937,16.693912551076
$GNGGA,140120.50,3510.60889090,N,12151.54483315,W,2,12,1.0,7.223,M,-38.667,M,7.4,0131*67
$PYRTM,2024,125.584265140937,16.693912551076
$GNHDT,270.305,T*28
$PYRTM,2024,125.584270993715,16.693918403854
$GNGGA,140121.00,3510.60908154,N,12151.54582681,W,2,12,1.0,6.836,M,-38.667,M,7.0,0131*61
$PYRTM,2024,125.584270993715,16.693918403854
$GNHDT,270.602,T*2A
$PYRTM,2024,125.584276720405,16.693924130544
$GNGGA,140121.50,3510.60928008,N,12151.54674234,W,2,12,1.0,6.971,M,-38.668,M,7.4,0131*67
$PYRTM,2024,125.584276720405,16.693924130544
$GNHDT,270.179,T*21
$PYRTM,2024,125.584282568090,16.693929978229
$GNGGA,140122.00,3510.60944265,N,12151.54767808,W,2,12,1.0,7.408,M,-38.668,M,7.0,0131*62
$PYRTM,2024,125.584282568090,16.693929978229
$GNHDT,269.988,T*2F
$PYRTM,2024,125.584288296065,16.693935706204
$GNGGA,140122.50,3510.60954326,N,12151.54875024,W,2,12,1.0,7.854,M,-38.668,M,7.4,0131*6B
$PYRTM,2024,125.584288296065,16.693935706204
$GNHDT,270.834,T*21
$PYRTM,2024,125.584294134861,16.693941545000
$GNGGA,140123.00,3510.60959534,N,12151.54995115,W,2,12,1.0,8.122,M,-38.668,M,4.0,0131*6B
$PYRTM,2024,125.584294134861,16.693941545000
$GNHDT,270.967,T*26
$PYRTM,2024,125.584299868264,16.693947278403
$GNGGA,140123.50,3510.60959760,N,12151.55123093,W,2,12,1.0,8.160,M,-38.668,M,4.4,0131*64
$PYRTM,2024,125.584299868264,16.693947278403
$GNHDT,270.561,T*2C
$PYRTM,2024,125.584305715961,16.693953126100
$GNGGA,140124.00,3510.60957464,N,12151.55251596,W,2,12,1.0,8.015,M,-38.668,M,5.0,0131*6F
$PYRTM,2024,125.584305715961,16.693953126100
$GNHDT,270.363,T*28
$PYRTM,2024,125.584311442662,16.693958852813
$GNGGA,140124.50,3510.60955877,N,12151.55376854,W,2,12,1.0,7.771,M,-38.668,M,5.4,0131*6F
$PYRTM,2024,125.584311442662,16.693958852813
$GNHDT,269.892,T*25
$PYRTM,2024,125.584317281076,16.693964691215
$GNGGA,140125.00,3510.60959607,N,12151.55495882,W,2,12,1.0,7.518,M,-38.668,M,6.0,0131*65
$PYRTM,2024,125.584317281076,16.693964691215
$GNHDT,270.097,T*20
$PYRTM,2024,125.584323012859,16.693970422998
$GNGGA,140125.50,3510.60973316,N,12151.55609471,W,2,12,1.0,7.328,M,-38.668,M,6.4,0131*6B
$PYRTM,2024,125.584323012859,16.693970422998
$GNHDT,270.251,T*28
$PYRTM,2024,125.584328856875,16.693976267025
$GNGGA,140126.00,3510.60996346,N,12151.55719294,W,2,12,1.0,7.283,M,-38.668,M,7.0,0131*6B
$PYRTM,2024,125.584328856875,16.693976267025
$GNHDT,270.373,T*29
$PYRTM,2024,125.584334590127,16.693982000266
$GNGGA,140126.50,3510.61020976,N,12151.55826935,W,2,12,1.0,7.435,M,-38.668,M,7.4,0131*6E
$PYRTM,2024,125.584334590127,16.693982000266
$GNHDT,270.325,T*2A
$PYRTM,2024,125.584340427720,16.693987837859
$GNGGA,140127.00,3510.61036747,N,12151.55934428,W,2,12,1.0,7.825,M,-38.668,M,7.0,0131*6B
$PYRTM,2024,125.584340427720,16.693987837859
$GNHDT,269.609,T*29
$PYRTM,2024,125.584346164259,16.693993574398
$GNGGA,140127.50,3510.61040036,N,12151.56044074,W,2,12,1.0,8.308,M,-38.668,M,7.4,0131*61
$PYRTM,2024,125.584346164259,16.693993574398
$GNHDT,268.851,T*2B
$PYRTM,2024,125.584352010000,16.693999420139
$GNGGA,140128.00,3510.61033553,N,12151.56158989,W,2,12,1.0,8.721,M,-38.668,M,7.0,0131*65
$PYRTM,2024,125.584352010000,16.693999420139
$GNHDT,268.837,T*2B
$PYRTM,2024,125.584357736296,16.694005146447
$GNGGA,140128.50,3510.61025120,N,12151.56281698,W,2,12,1.0,8.820,M,-38.668,M,7.4,0131*65
$PYRTM,2024,125.584357736296,16.694005146447
$GNHDT,268.725,T*27
$PYRTM,2024,125.584363578900,16.694010989039
$GNGGA,140129.00,3510.61021876,N,12151.56408852,W,2,12,1.0,8.578,M,-38.668,M,4.0,0131*67
$PYRTM,2024,125.584363578900,16.694010989039
$GNHDT,268.759,T*2C
$PYRTM,2024,125.584369309074,16.694016719213
$GNGGA,140129.50,3510.61027622,N,12151.56534567,W,2,12,1.0,8.140,M,-38.668,M,4.4,0131*65
$PYRTM,2024,125.584369309074,16.694016719213
$GNHDT,268.399,T*24
$PYRTM,2024,125.584375151991,16.694022562130
$GNGGA,140130.00,3510.61039558,N,12151.56656710,W,2,12,1.0,7.696,M,-38.668,M,5.0,0131*6A
$PYRTM,2024,125.584375151991,16.694022562130
$GNHDT,268.363,T*21
$PYRTM,2024,125.584380893947,16.694028304086
$GNGGA,140130.50,3510.61055416,N,12151.56773807,W,2,12,1.0,7.423,M,-38.668,M,5.4,0131*69
$PYRTM,2024,125.584380893947,16.694028304086
$GNHDT,268.212,T*26
$PYRTM,2024,125.584386732593,16.694034142731
$GNGGA,140131.00,3510.61073045,N,12151.56886505,W,2,12,1.0,7.432,M,-38.668,M,6.0,0131*66
$PYRTM,2024,125.584386732593,16.694034142731
$GNHDT,268.446,T*21
$PYRTM,2024,125.584392462257,16.694039872396
$GNGGA,140131.50,3510.61090020,N,12151.57000107,W,2,12,1.0,7.594,M,-38.669,M,6.4,0131*64
$PYRTM,2024,125.584392462257,16.694039872396
$GNHDT,268.693,T*2B
$PYRTM,2024,125.584398309005,16.694045719144
$GNGGA,140132.00,3510.61105322,N,12151.57118570,W,2,12,1.0,7.844,M,-38.669,M,7.0,0131*67
$PYRTM,2024,125.584398309005,16.694045719144
$GNHDT,268.834,T*28
$PYRTM,2024,125.584404030359,16.694051440498
$GNGGA,140132.50,3510.61117927,N,12151.57240641,W,2,12,1.0,8.065,M,-38.669,M,7.4,0131*61
$PYRTM,2024,125.584404030359,16.694051440498
$GNHDT,268.984,T*22
$PYRTM,2024,125.584409876690,16.694057286829
$GNGGA,140133.00,3510.61124621,N,12151.57362616,W,2,12,1.0,8.280,M,-38.669,M,7.0,0131*62
$PYRTM,2024,125.584409876690,16.694057286829
$GNHDT,268.801,T*2E
$PYRTM,2024,125.584415610023,16.694063020174
$GNGGA,140133.50,3510.61123801,N,12151.57483679,W,2,12,1.0,8.473,M,-38.669,M,7.4,0131*63
$PYRTM,2024,125.584415610023,16.694063020174
$GNHDT,268.879,T*21
$PYRTM,2024,125.584421451366,16.694068861505
$GNGGA,140134.00,3510.61118534,N,12151.57605863,W,2,12,1.0,8.563,M,-38.669,M,7.0,0131*6F
$PYRTM,2024,125.584421451366,16.694068861505
$GNHDT,268.691,T*29
$PYRTM,2024,125.584427182326,16.694074592465
$GNGGA,140134.50,3510.61116004,N,12151.57732067,W,2,12,1.0,8.458,M,-38.669,M,7.4,0131*66
$PYRTM,2024,125.584427182326,16.694074592465
$GNHDT,268.741,T*25
$PYRTM,2024,125.584433023449,16.694080433588
$GNGGA,140135.00,3510.61119745,N,12151.57861084,W,2,12,1.0,8.182,M,-38.669,M,4.0,0131*6E
$PYRTM,2024,125.584433023449,16.694080433588
$GNHDT,268.407,T*24
$PYRTM,2024,125.584438757049,16.694086167187
$GNGGA,140135.50,3510.61132616,N,12151.57988309,W,2,12,1.0,7.837,M,-38.669,M,4.4,0131*69
$PYRTM,2024,125.584438757049,16.694086167187
$GNHDT,268.361,T*23
$PYRTM,2024,125.584444600347,16.694092010486
$GNGGA,140136.00,3510.61151977,N,12151.58108794,W,2,12,1.0,7.590,M,-38.669,M,5.0,0131*68
$PYRTM,2024,125.584444600347,16.694092010486
$GNHDT,268.300,T*24
$PYRTM,2024,125.584450337812,16.694097747951
$GNGGA,140136.50,3510.61173094,N,12151.58220944,W,2,12,1.0,7.595,M,-38.669,M,5.4,0131*62
$PYRTM,2024,125.584450337812,16.694097747951
$GNHDT,268.603,T*22
$PYRTM,2024,125.584456174317,16.694103584456
$GNGGA,140137.00,3510.61190054,N,12151.58329284,W,2,12,1.0,7.823,M,-38.669,M,6.0,0131*6F
$PYRTM,2024,125.584456174317,16.694103584456
$GNHDT,269.042,T*20
$PYRTM,2024,125.584461908657,16.694109318796
$GNGGA,140137.50,3510.61198388,N,12151.58441019,W,2,12,1.0,8.114,M,-38.669,M,6.4,0131*69
$PYRTM,2024,125.584461908657,16.694109318796
$GNHDT,269.108,T*2F
$PYRTM,2024,125.584467749120,16.694115159259
$GNGGA,140138.00,3510.61198510,N,12151.58562438,W,2,12,1.0,8.289,M,-38.669,M,7.0,0131*61
$PYRTM,2024,125.584467749120,16.694115159259
$GNHDT,269.233,T*24
$PYRTM,2024,125.584473477917,16.694120888056
$GNGGA,140138.50,3510.61192946,N,12151.58693291,W,2,12,1.0,8.182,M,-38.669,M,7.4,0131*65
$PYRTM,2024,125.584473477917,16.694120888056
$GNHDT,269.482,T*28
$PYRTM,2024,125.584479324525,16.694126734664
$GNGGA,140139.00,3510.61186406,N,12151.58826537,W,2,12,1.0,7.917,M,-38.669,M,7.0,0131*69
$PYRTM,2024,125.584479324525,16.694126734664
$GNHDT,269.388,T*25
$PYRTM,2024,125.584485051736,16.694132461875
$GNGGA,140139.50,3510.61184272,N,12151.58954901,W,2,12,1.0,7.586,M,-38.669,M,7.4,0131*66
$PYRTM,2024,125.584485051736,16.694132461875
$GNHDT,269.673,T*24
$PYRTM,2024,125.584490897187,16.694138307326
$GNGGA,140140.00,3510.61190303,N,12151.59074809,W,2,12,1.0,7.363,M,-38.669,M,7.0,0131*65
$PYRTM,2024,125.584490897187,16.694138307326
$GNHDT,269.886,T*20
$PYRTM,2024,125.584496630012,16.694144040150
$GNGGA,140140.50,3510.61204805,N,12151.59188133,W,2,12,1.0,7.330,M,-38.669,M,7.4,0131*63
$PYRTM,2024,125.584496630012,16.694144040150
$GNHDT,269.910,T*2E
$PYRTM,2024,125.584502469190,16.694149879340
$GNGGA,140141.00,3510.61224810,N,12151.59300736,W,2,12,1.0,7.485,M,-38.670,M,4.0,0131*66
$PYRTM,2024,125.584502469190,16.694149879340
$GNHDT,269.853,T*28
$PYRTM,2024,125.584508202755,16.694155612894
$GNGGA,140141.50,3510.61245257,N,12151.59418194,W,2,12,1.0,7.721,M,-38.670,M,4.4,0131*64
$PYRTM,2024,125.584508202755,16.694155612894
$GNHDT,269.565,T*20
$PYRTM,2024,125.584514051389,16.694161461528
$GNGGA,140142.00,3510.61261726,N,12151.59543165,W,2,12,1.0,7.970,M,-38.670,M,5.0,0131*69
$PYRTM,2024,125.584514051389,16.694161461528
$GNHDT,269.224,T*22
$PYRTM,2024,125.584519774606,16.694167184745
$GNGGA,140142.50,3510.61271058,N,12151.59672603,W,2,12,1.0,8.183,M,-38.670,M,5.4,0131*6A
$PYRTM,2024,125.584519774606,16.694167184745
$GNHDT,269.414,T*27
$PYRTM,2024,125.584525622407,16.694173032546
$GNGGA,140143.00,3510.61270266,N,12151.59800362,W,2,12,1.0,8.405,M,-38.670,M,6.0,0131*65
$PYRTM,2024,125.584525622407,16.694173032546
$GNHDT,269.331,T*27
$PYRTM,2024,125.584531349514,16.694178759664
$GNGGA,140143.50,3510.61263940,N,12151.59924081,W,2,12,1.0,8.606,M,-38.670,M,6.4,0131*61
$PYRTM,2024,125.584531349514,16.694178759664
$GNHDT,269.430,T*21
$PYRTM,2024,125.584537196563,16.694184606701
$GNGGA,140144.00,3510.61259878,N,12151.60044218,W,2,12,1.0,8.731,M,-38.670,M,7.0,0131*67
$PYRTM,2024,125.584537196563,16.694184606701
$GNHDT,269.377,T*25
$PYRTM,2024,125.584542922384,16.694190332535
$GNGGA,140144.50,3510.61265423,N,12151.60165059,W,2,12,1.0,8.657,M,-38.670,M,7.4,0131*6F
$PYRTM,2024,125.584542922384,16.694190332535
$GNHDT,269.172,T*22
$PYRTM,2024,125.584548772025,16.694196182176
$GNGGA,140145.00,3510.61281284,N,12151.60290762,W,2,12,1.0,8.323,M,-38.670,M,7.0,0131*6E
$PYRTM,2024,125.584548772025,16.694196182176
$GNHDT,269.169,T*28
$PYRTM,2024,125.584554511840,16.694201921979
$GNGGA,140145.50,3510.61302798,N,12151.60418935,W,2,12,1.0,7.918,M,-38.670,M,7.4,0131*6A
$PYRTM,2024,125.584554511840,16.694201921979
$GNHDT,269.608,T*28
$PYRTM,2024,125.584560338310,16.694207748449
$GNGGA,140146.00,3510.61324201,N,12151.60547099,W,2,12,1.0,7.550,M,-38.670,M,7.0,0131*6D
$PYRTM,2024,125.584560338310,16.694207748449
$GNHDT,269.467,T*23
$PYRTM,2024,125.584566068090,16.694213478241
$GNGGA,140146.50,3510.61338558,N,12151.60673138,W,2,12,1.0,7.427,M,-38.670,M,7.4,0131*65
$PYRTM,2024,125.584566068090,16.694213478241
$GNHDT,268.900,T*2E
$PYRTM,2024,125.584571911042,16.694219321181
$GNGGA,140147.00,3510.61344460,N,12151.60798000,W,2,12,1.0,7.553,M,-38.670,M,4.0,0131*6B
$PYRTM,2024,125.584571911042,16.694219321181
$GNHDT,268.527,T*27
$PYRTM,2024,125.584577645914,16.694225056065
$GNGGA,140147.50,3510.61343853,N,12151.60922685,W,2,12,1.0,7.828,M,-38.670,M,4.4,0131*64
$PYRTM,2024,125.584577645914,16.694225056065
$GNHDT,268.305,T*21
$PYRTM,2024,125.584583495012,16.694230905162
$GNGGA,140148.00,3510.61339143,N,12151.61047968,W,2,12,1.0,8.162,M,-38.671,M,5.0,0131*60
$PYRTM,2024,125.584583495012,16.694230905162
$GNHDT,268.050,T*22
$PYRTM,2024,125.584589215116,16.694236625255
$GNGGA,140148.50,3510.61334310,N,12151.61175877,W,2,12,1.0,8.409,M,-38.671,M,5.4,0131*6F
$PYRTM,2024,125.584589215116,16.694236625255
$GNHDT,267.917,T*27
$PYRTM,2024,125.584595066285,16.694242476424
$GNGGA,140149.00,3510.61332459,N,12151.61307589,W,2,12,1.0,8.467,M,-38.671,M,6.0,0131*63
$PYRTM,2024,125.584595066285,16.694242476424
$GNHDT,267.883,T*2B
$PYRTM,2024,125.584600794977,16.694248205116
$GNGGA,140149.50,3510.61336881,N,12151.61439468,W,2,12,1.0,8.348,M,-38.671,M,6.4,0131*61
$PYRTM,2024,125.584600794977,16.694248205116
$GNHDT,267.740,T*2B
$PYRTM,2024,125.584606634919,16.694254045058
$GNGGA,140150.00,3510.61348543,N,12151.61568879,W,2,12,1.0,8.146,M,-38.671,M,7.0,0131*66
$PYRTM,2024,125.584606634919,16.694254045058
$GNHDT,267.797,T*21
$PYRTM,2024,125.584612364641,16.694259774792
$GNGGA,140150.50,3510.61366005,N,12151.61693647,W,2,12,1.0,7.973,M,-38.671,M,7.4,0131*69
$PYRTM,2024,125.584612364641,16.694259774792
$GNHDT,267.730,T*2C
$PYRTM,2024,125.584618207269,16.694265617407
$GNGGA,140151.00,3510.61385243,N,12151.61815628,W,2,12,1.0,7.878,M,-38.671,M,7.0,0131*67
$PYRTM,2024,125.584618207269,16.694265617407
$GNHDT,267.778,T*20
$PYRTM,2024,125.584623948646,16.694271358785
$GNGGA,140151.50,3510.61400783,N,12151.61938922,W,2,12,1.0,7.850,M,-38.671,M,7.4,0131*64
$PYRTM,2024,125.584623948646,16.694271358785
$GNHDT,268.018,T*2E
$PYRTM,2024,125.584629790289,16.694277200428
$GNGGA,140152.00,3510.61408748,N,12151.62067547,W,2,12,1.0,7.870,M,-38.671,M,7.0,0131*64
$PYRTM,2024,125.584629790289,16.694277200428
$GNHDT,268.277,T*25
$PYRTM,2024,125.584635517731,16.694282927882
$GNGGA,140152.50,3510.61408595,N,12151.62201965,W,2,12,1.0,7.852,M,-38.671,M,7.4,0131*69
$PYRTM,2024,125.584635517731,16.694282927882
$GNHDT,268.557,T*20
$PYRTM,2024,125.584641358958,16.694288769097
$GNGGA,140153.00,3510.61402369,N,12151.62335745,W,2,12,1.0,7.871,M,-38.671,M,4.0,0131*6E
$PYRTM,2024,125.584641358958,16.694288769097
$GNHDT,268.082,T*2D
$PYRTM,2024,125.584647090428,16.694294500567
$GNGGA,140153.50,3510.61397016,N,12151.62464267,W,2,12,1.0,7.904,M,-38.671,M,4.4,0131*6A
$PYRTM,2024,125.584647090428,16.694294500567
$GNHDT,268.353,T*22
$PYRTM,2024,125.584652932199,16.694300342338
$GNGGA,140154.00,3510.61395803,N,12151.62587109,W,2,12,1.0,7.998,M,-38.671,M,5.0,0131*61
$PYRTM,2024,125.584652932199,16.694300342338
$GNHDT,268.246,T*27
$PYRTM,2024,125.584658659722,16.694306069861
$GNGGA,140154.50,3510.61401240,N,12151.62710752,W,2,12,1.0,8.072,M,-38.671,M,5.4,0131*61
$PYRTM,2024,125.584658659722,16.694306069861
$GNHDT,268.430,T*20
$PYRTM,2024,125.584664504016,16.694311914155
$GNGGA,140155.00,3510.61411751,N,12151.62840126,W,2,12,1.0,8.048,M,-38.671,M,6.0,0131*60
$PYRTM,2024,125.584664504016,16.694311914155
$GNHDT,268.220,T*27
$PYRTM,2024,125.584670234815,16.694317644954
$GNGGA,140155.50,3510.61424425,N,12151.62973330,W,2,12,1.0,7.962,M,-38.671,M,6.4,0131*6D
$PYRTM,2024,125.584670234815,16.694317644954
$GNHDT,268.539,T*28
$PYRTM,2024,125.584676082500,16.694323492639
$GNGGA,140156.00,3510.61437670,N,12151.63106098,W,2,12,1.0,7.873,M,-38.671,M,7.0,0131*65
$PYRTM,2024,125.584676082500,16.694323492639
$GNHDT,268.797,T*2E
$PYRTM,2024,125.584681810590,16.694329220729
$GNGGA,140156.50,3510.61451003,N,12151.63235158,W,2,12,1.0,7.849,M,-38.671,M,7.4,0131*61
$PYRTM,2024,125.584681810590,16.694329220729
$GNHDT,268.991,T*26
$PYRTM,2024,125.584687652373,16.694335062512
$GNGGA,140157.00,3510.61464662,N,12151.63359522,W,2,12,1.0,7.907,M,-38.671,M,7.0,0131*6F
$PYRTM,2024,125.584687652373,16.694335062512
$GNHDT,269.241,T*21
$PYRTM,2024,125.584693386076,16.694340796215
$GNGGA,140157.50,3510.61476437,N,12151.63480200,W,2,12,1.0,8.064,M,-38.672,M,7.4,0131*6B
$PYRTM,2024,125.584693386076,16.694340796215
$GNHDT,269.547,T*20
$PYRTM,2024,125.584699232396,16.694346642535
$GNGGA,140158.00,3510.61480825,N,12151.63601402,W,2,12,1.0,8.312,M,-38.672,M,7.0,0131*6E
$PYRTM,2024,125.584699232396,16.694346642535
$GNHDT,269.530,T*20
$PYRTM,2024,125.584704957049,16.694352367199
$GNGGA,140158.50,3510.61474319,N,12151.63727194,W,2,12,1.0,8.565,M,-38.672,M,7.4,0131*69
$PYRTM,2024,125.584704957049,16.694352367199
$GNHDT,269.337,T*21
$PYRTM,2024,125.584710798102,16.694358208241
$GNGGA,140159.00,3510.61457711,N,12151.63858420,W,2,12,1.0,8.727,M,-38.672,M,4.0,0131*6E
$PYRTM,2024,125.584710798102,16.694358208241
$GNHDT,268.999,T*2E
$PYRTM,2024,125.584716532546,16.694363942685
$GNGGA,140159.50,3510.61440936,N,12151.63992122,W,2,12,1.0,8.692,M,-38.672,M,4.4,0131*6D
$PYRTM,2024,125.584716532546,16.694363942685
$GNHDT,268.785,T*2D
$PYRTM,2024,125.584722377940,16.694369788090
$GNGGA,140200.00,3510.61436807,N,12151.64124068,W,2,12,1.0,8.429,M,-38.672,M,5.0,0131*6F
$PYRTM,2024,125.584722377940,16.694369788090
$GNHDT,269.083,T*2D
$PYRTM,2024,125.584728105162,16.694375515301
$GNGGA,140200.50,3510.61452488,N,12151.64253145,W,2,12,1.0,7.949,M,-38.672,M,5.4,0131*6E
$PYRTM,2024,125.584728105162,16.694375515301
$GNHDT,269.304,T*21
$PYRTM,2024,125.584733955833,16.694381365972
$GNGGA,140201.00,3510.61482157,N,12151.64381851,W,2,12,1.0,7.391,M,-38.672,M,6.0,0131*6A
$PYRTM,2024,125.584733955833,16.694381365972
$GNHDT,269.798,T*20
$PYRTM,2024,125.584739678056,16.694387088194
$GNGGA,140201.50,3510.61517608,N,12151.64512724,W,2,12,1.0,6.902,M,-38.672,M,6.4,0131*6B
$PYRTM,2024,125.584739678056,16.694387088194
$GNHDT,270.027,T*2B
$PYRTM,2024,125.584745528854,16.694392938993
$GNGGA,140202.00,3510.61545269,N,12151.64646532,W,2,12,1.0,6.705,M,-38.672,M,7.0,0131*62
$PYRTM,2024,125.584745528854,16.694392938993
$GNHDT,270.175,T*2D
$PYRTM,2024,125.584751253611,16.694398663750
$GNGGA,140202.50,3510.61556437,N,12151.64778854,W,2,12,1.0,6.947,M,-38.672,M,7.4,0131*65
$PYRTM,2024,125.584751253611,16.694398663750
$GNHDT,269.866,T*2E
$PYRTM,2024,125.584757099086,16.694404509225
$GNGGA,140203.00,3510.61551560,N,12151.64905132,W,2,12,1.0,7.590,M,-38.672,M,7.0,0131*6B
$PYRTM,2024,125.584757099086,16.694404509225
$GNHDT,269.753,T*27
$PYRTM,2024,125.584762845613,16.694410255752
$GNGGA,140203.50,3510.61539401,N,12151.65025415,W,2,12,1.0,8.400,M,-38.672,M,7.4,0131*6F
$PYRTM,2024,125.584762845613,16.694410255752
$GNHDT,269.699,T*20
$PYRTM,2024,125.584768672419,16.694416082558
$GNGGA,140204.00,3510.61529211,N,12151.65143595,W,2,12,1.0,9.155,M,-38.672,M,7.0,0131*63
$PYRTM,2024,125.584768672419,16.694416082558
$GNHDT,269.323,T*24
$PYRTM,2024,125.584774405521,16.694421815660
$GNGGA,140204.50,3510.61527472,N,12151.65267060,W,2,12,1.0,9.560,M,-38.672,M,7.4,0131*67
$PYRTM,2024,125.584774405521,16.694421815660
$GNHDT,269.680,T*28
$PYRTM,2024,125.584780251319,16.694427661458
$GNGGA,140205.00,3510.61534676,N,12151.65403613,W,2,12,1.0,9.388,M,-38.672,M,4.0,0131*66
$PYRTM,2024,125.584780251319,16.694427661458
$GNHDT,269.385,T*28
$PYRTM,2024,125.584785984630,16.694433394769
$GNGGA,140205.50,3510.61548603,N,12151.65549008,W,2,12,1.0,8.762,M,-38.672,M,4.4,0131*6C
$PYRTM,2024,125.584785984630,16.694433394769
$GNHDT,269.026,T*22
$PYRTM,2024,125.584791833727,16.694439243866
$GNGGA,140206.00,3510.61567272,N,12151.65690811,W,2,12,1.0,7.963,M,-38.672,M,5.0,0131*67
$PYRTM,2024,125.584791833727,16.694439243866
$GNHDT,269.136,T*22
$PYRTM,2024,125.584797553356,16.694444963495
$GNGGA,140206.50,3510.61585830,N,12151.65820853,W,2,12,1.0,7.409,M,-38.673,M,5.4,0131*65
$PYRTM,2024,125.584797553356,16.694444963495
$GNHDT,269.147,T*24
$PYRTM,2024,125.584803396169,16.694450806308
$GNGGA,140207.00,3510.61601177,N,12151.65935034,W,2,12,1.0,7.316,M,-38.673,M,6.0,0131*66
$PYRTM,2024,125.584803396169,16.694450806308
$GNHDT,268.975,T*2C
$PYRTM,2024,125.584809127153,16.694456537292
$GNGGA,140207.50,3510.61609880,N,12151.66038130,W,2,12,1.0,7.749,M,-38.673,M,6.4,0131*62
$PYRTM,2024,125.584809127153,16.694456537292
$GNHDT,268.671,T*27
$PYRTM,2024,125.584814970417,16.694462380556
$GNGGA,140208.00,3510.61612040,N,12151.66140570,W,2,12,1.0,8.404,M,-38.673,M,7.0,0131*68
$PYRTM,2024,125.584814970417,16.694462380556
$GNHDT,268.209,T*2C
$PYRTM,2024,125.584820697535,16.694468107674
$GNGGA,140208.50,3510.61610095,N,12151.66254296,W,2,12,1.0,8.921,M,-38.673,M,7.4,0131*60
$PYRTM,2024,125.584820697535,16.694468107674
$GNHDT,268.332,T*25
$PYRTM,2024,125.584826549803,16.694473959942
$GNGGA,140209.00,3510.61607660,N,12151.66387208,W,2,12,1.0,8.955,M,-38.673,M,7.0,0131*61
$PYRTM,2024,125.584826549803,16.694473959942
$GNHDT,268.825,T*28
$PYRTM,2024,125.584832278519,16.694479688657
$GNGGA,140209.50,3510.61606206,N,12151.66530090,W,2,12,1.0,8.524,M,-38.673,M,7.4,0131*66
$PYRTM,2024,125.584832278519,16.694479688657
$GNHDT,268.887,T*20
$PYRTM,2024,125.584838115764,16.694485525903
$GNGGA,140210.00,3510.61607738,N,12151.66668916,W,2,12,1.0,7.901,M,-38.673,M,7.0,0131*6B
$PYRTM,2024,125.584838115764,16.694485525903
$GNHDT,268.817,T*29
$PYRTM,2024,125.584843850243,16.694491260382
$GNGGA,140210.50,3510.61611394,N,12151.66796917,W,2,12,1.0,7.349,M,-38.673,M,7.4,0131*68
$PYRTM,2024,125.584843850243,16.694491260382
$GNHDT,267.870,T*27
$PYRTM,2024,125.584849693738,16.694497103877
$GNGGA,140211.00,3510.61616544,N,12151.66913719,W,2,12,1.0,7.112,M,-38.673,M,4.0,0131*68
$PYRTM,2024,125.584849693738,16.694497103877
$GNHDT,267.668,T*20
$PYRTM,2024,125.584855423646,16.694502833785
$GNGGA,140211.50,3510.61622389,N,12151.67024533,W,2,12,1.0,7.202,M,-38.673,M,4.4,0131*6D
$PYRTM,2024,125.584855423646,16.694502833785
$GNHDT,267.476,T*2D
$PYRTM,2024,125.584861272060,16.694508682199
$GNGGA,140212.00,3510.61631298,N,12151.67135772,W,2,12,1.0,7.457,M,-38.673,M,5.0,0131*6D
$PYRTM,2024,125.584861272060,16.694508682199
$GNHDT,267.512,T*2E
$PYRTM,2024,125.584866995718,16.694514405856
$GNGGA,140212.50,3510.61643870,N,12151.67253626,W,2,12,1.0,7.724,M,-38.673,M,5.4,0131*61
$PYRTM,2024,125.584866995718,16.694514405856
$GNHDT,267.814,T*25
$PYRTM,2024,125.584872841736,16.694520251875
$GNGGA,140213.00,3510.61659072,N,12151.67377094,W,2,12,1.0,7.929,M,-38.673,M,6.0,0131*68
$PYRTM,2024,125.584872841736,16.694520251875
$GNHDT,268.355,T*24
$PYRTM,2024,125.584878572002,16.694525982141
$GNGGA,140213.50,3510.61671612,N,12151.67501990,W,2,12,1.0,8.089,M,-38.674,M,6.4,0131*62
$PYRTM,2024,125.584878572002,16.694525982141
$GNHDT,268.276,T*24
$PYRTM,2024,125.584884419456,16.694531829595
$GNGGA,140214.00,3510.61677524,N,12151.67625252,W,2,12,1.0,8.239,M,-38.674,M,7.0,0131*6C
$PYRTM,2024,125.584884419456,16.694531829595
$GNHDT,268.016,T*20
$PYRTM,2024,125.584890146748,16.694537556887
$GNGGA,140214.50,3510.61676029,N,12151.67746602,W,2,12,1.0,8.388,M,-38.674,M,7.4,0131*6A
$PYRTM,2024,125.584890146748,16.694537556887
$GNHDT,267.886,T*2E
$PYRTM,2024,125.584895993021,16.694543403160
$GNGGA,140215.00,3510.61667684,N,12151.67868147,W,2,12,1.0,8.486,M,-38.674,M,7.0,0131*67
$PYRTM,2024,125.584895993021,16.694543403160
$GNHDT,267.652,T*29
$PYRTM,2024,125.584901717963,16.694549128102
$GNGGA,140215.50,3510.61655231,N,12151.67990896,W,2,12,1.0,8.494,M,-38.674,M,7.4,0131*6D
$PYRTM,2024,125.584901717963,16.694549128102
$GNHDT,267.538,T*26
$PYRTM,2024,125.584907568241,16.694554978380
$GNGGA,140216.00,3510.61642631,N,12151.68115673,W,2,12,1.0,8.389,M,-38.674,M,7.0,0131*69
$PYRTM,2024,125.584907568241,16.694554978380
$GNHDT,267.745,T*2E
$PYRTM,2024,125.584913298113,16.694560708252
$GNGGA,140216.50,3510.61637516,N,12151.68240633,W,2,12,1.0,8.174,M,-38.674,M,7.4,0131*6B
$PYRTM,2024,125.584913298113,16.694560708252
$GNHDT,268.040,T*23
$PYRTM,2024,125.584919137269,16.694566547407
$GNGGA,140217.00,3510.61646182,N,12151.68363083,W,2,12,1.0,7.886,M,-38.674,M,4.0,0131*61
$PYRTM,2024,125.584919137269,16.694566547407
$GNHDT,268.537,T*26
$PYRTM,2024,125.584924866782,16.694572276921
$GNGGA,140217.50,3510.61667836,N,12151.68479408,W,2,12,1.0,7.650,M,-38.674,M,4.4,0131*6B
$PYRTM,2024,125.584924866782,16.694572276921
$GNHDT,268.926,T*2A
$PYRTM,2024,125.584930719711,16.694578129850
$GNGGA,140218.00,3510.61697027,N,12151.68591493,W,2,12,1.0,7.558,M,-38.674,M,5.0,0131*6D
$PYRTM,2024,125.584930719711,16.694578129850
$GNHDT,269.138,T*2C
$PYRTM,2024,125.584936448634,16.694583858785
$GNGGA,140218.50,3510.61723792,N,12151.68704088,W,2,12,1.0,7.618,M,-38.674,M,5.4,0131*6C
$PYRTM,2024,125.584936448634,16.694583858785
$GNHDT,269.753,T*27
$PYRTM,2024,125.584942282801,16.694589692940
$GNGGA,140219.00,3510.61742069,N,12151.68824643,W,2,12,1.0,7.745,M,-38.674,M,6.0,0131*6E
$PYRTM,2024,125.584942282801,16.694589692940
$GNHDT,270.077,T*2E
$PYRTM,2024,125.584948022303,16.694595432442
$GNGGA,140219.50,3510.61747689,N,12151.68957859,W,2,12,1.0,7.789,M,-38.674,M,6.4,0131*62
$PYRTM,2024,125.584948022303,16.694595432442
$GNHDT,269.748,T*2D
$PYRTM,2024,125.584953860000,16.694601270139
$GNGGA,140220.00,3510.61741357,N,12151.69098699,W,2,12,1.0,7.744,M,-38.674,M,7.0,0131*60
$PYRTM,2024,125.584953860000,16.694601270139
$GNHDT,269.871,T*28
$PYRTM,2024,125.584959599792,16.694607009931
$GNGGA,140220.50,3510.61727608,N,12151.69235511,W,2,12,1.0,7.763,M,-38.674,M,7.4,0131*6D
$PYRTM,2024,125.584959599792,16.694607009931
$GNHDT,270.468,T*24
$PYRTM,2024,125.584965439606,16.694612849745
$GNGGA,140221.00,3510.61715330,N,12151.69356408,W,2,12,1.0,7.971,M,-38.674,M,7.0,0131*62
$PYRTM,2024,125.584965439606,16.694612849745
$GNHDT,269.880,T*26
$PYRTM,2024,125.584971171273,16.694618581412
$GNGGA,140221.50,3510.61712629,N,12151.69463869,W,2,12,1.0,8.396,M,-38.674,M,7.4,0131*6F
$PYRTM,2024,125.584971171273,16.694618581412
$GNHDT,269.830,T*2D
$PYRTM,2024,125.584977013218,16.694624423356
$GNGGA,140222.00,3510.61720461,N,12151.69566773,W,2,12,1.0,8.909,M,-38.674,M,7.0,0131*6E
$PYRTM,2024,125.584977013218,16.694624423356
$GNHDT,269.922,T*2F
$PYRTM,2024,125.584982734340,16.694630144479
$GNGGA,140222.50,3510.61740770,N,12151.69676866,W,2,12,1.0,9.228,M,-38.674,M,7.4,0131*6A
$PYRTM,2024,125.584982734340,16.694630144479
$GNHDT,269.717,T*27
$PYRTM,2024,125.584988583796,16.694635993935
$GNGGA,140223.00,3510.61768109,N,12151.69797555,W,2,12,1.0,9.191,M,-38.674,M,4.0,0131*69
$PYRTM,2024,125.584988583796,16.694635993935
$GNHDT,270.050,T*2B
$PYRTM,2024,125.584994315625,16.694641725764
$GNGGA,140223.50,3510.61794712,N,12151.69925249,W,2,12,1.0,8.833,M,-38.675,M,4.4,0131*6B
$PYRTM,2024,125.584994315625,16.694641725764
$GNHDT,270.510,T*2A
$PYRTM,2024,125.585000154896,16.694647565046
$GNGGA,140224.00,3510.61815129,N,12151.70055020,W,2,12,1.0,8.275,M,-38.675,M,5.0,0131*67
$PYRTM,2024,125.585000154896,16.694647565046
$GNHDT,270.212,T*2F
$PYRTM,2024,125.585005885729,16.694653295868
$GNGGA,140224.50,3510.61824178,N,12151.70183011,W,2,12,1.0,7.731,M,-38.675,M,5.4,0131*62
$PYRTM,2024,125.585005885729,16.694653295868
$GNHDT,269.800,T*2E
$PYRTM,2024,125.585011732789,16.694659142928
$GNGGA,140225.00,3510.61823290,N,12151.70308105,W,2,12,1.0,7.349,M,-38.675,M,6.0,0131*6D
$PYRTM,2024,125.585011732789,16.694659142928
$GNHDT,269.676,T*21
$PYRTM,2024,125.585017468542,16.694664878681
$GNGGA,140225.50,3510.61816823,N,12151.70430404,W,2,12,1.0,7.216,M,-38.675,M,6.4,0131*6B
$PYRTM,2024,125.585017468542,16.694664878681
$GNHDT,269.325,T*22
$PYRTM,2024,125.585023307350,16.694670717488
$GNGGA,140226.00,3510.61812096,N,12151.70548011,W,2,12,1.0,7.345,M,-38.675,M,7.0,0131*63
$PYRTM,2024,125.585023307350,16.694670717488
$GNHDT,269.437,T*26
$PYRTM,2024,125.585029041863,16.694676452002
$GNGGA,140226.50,3510.61813179,N,12151.70661916,W,2,12,1.0,7.666,M,-38.675,M,7.4,0131*61
$PYRTM,2024,125.585029041863,16.694676452002
$GNHDT,269.735,T*27
$PYRTM,2024,125.585034876667,16.694682286806
$GNGGA,140227.00,3510.61819423,N,12151.70775160,W,2,12,1.0,8.098,M,-38.675,M,7.0,0131*64
$PYRTM,2024,125.585034876667,16.694682286806
$GNHDT,269.568,T*2D
$PYRTM,2024,125.585040610949,16.694688021100
$GNGGA,140227.50,3510.61830791,N,12151.70894659,W,2,12,1.0,8.429,M,-38.675,M,7.4,0131*67
$PYRTM,2024,125.585040610949,16.694688021100
$GNHDT,268.844,T*2F
$PYRTM,2024,125.585046455440,16.694693865579
$GNGGA,140228.00,3510.61844795,N,12151.71022694,W,2,12,1.0,8.556,M,-38.675,M,7.0,0131*62
$PYRTM,2024,125.585046455440,16.694693865579
$GNHDT,268.555,T*22
$PYRTM,2024,125.585052184028,16.694699594167
$GNGGA,140228.50,3510.61859629,N,12151.71157011,W,2,12,1.0,8.372,M,-38.675,M,7.4,0131*61
$PYRTM,2024,125.585052184028,16.694699594167
$GNHDT,268.424,T*25
$PYRTM,2024,125.585058030637,16.694705440775
