$PYRTM,2024,125.750000113796,16.859647523935
$GNGGA,180000.00,3501.58388942,N,12208.45490571,W,2,11,0.9,6.607,M,-39.440,M,4.0,0131*6A
$PYRTM,2024,125.750000113796,16.859647523935
$GNHDT,171.891,T*2C
$PYRTM,2024,125.750005848113,16.859653258252
$GNGGA,180000.50,3501.58254196,N,12208.45505666,W,2,11,0.9,6.335,M,-39.440,M,4.4,0131*66
$PYRTM,2024,125.750005848113,16.859653258252
$GNHDT,171.781,T*22
$PYRTM,2024,125.750011688553,16.859659098692
$GNGGA,180001.00,3501.58120790,N,12208.45507827,W,2,11,0.9,6.416,M,-39.440,M,5.0,0131*68
$PYRTM,2024,125.750011688553,16.859659098692
$GNHDT,172.049,T*22
$PYRTM,2024,125.750017430625,16.859664840764
$GNGGA,180001.50,3501.57988659,N,12208.45489141,W,2,11,0.9,6.813,M,-39.440,M,5.4,0131*6F
$PYRTM,2024,125.750017430625,16.859664840764
$GNHDT,172.682,T*23
$PYRTM,2024,125.750023263935,16.859670674074
$GNGGA,180002.00,3501.57856708,N,12208.45450857,W,2,11,0.9,7.461,M,-39.441,M,6.0,0131*6A
$PYRTM,2024,125.750023263935,16.859670674074
$GNHDT,172.945,T*27
$PYRTM,2024,125.750029001030,16.859676411169
$GNGGA,180002.50,3501.57723661,N,12208.45401304,W,2,11,0.9,8.142,M,-39.441,M,6.4,0131*6A
$PYRTM,2024,125.750029001030,16.859676411169
$GNHDT,173.002,T*2C
$PYRTM,2024,125.750034839352,16.859682249491
$GNGGA,180003.00,3501.57587085,N,12208.45349731,W,2,11,0.9,8.624,M,-39.441,M,7.0,0131*65
$PYRTM,2024,125.750034839352,16.859682249491
$GNHDT,173.258,T*21
$PYRTM,2024,125.750040572674,16.859687982812
$GNGGA,180003.50,3501.57446565,N,12208.45308300,W,2,11,0.9,8.767,M,-39.441,M,7.4,0131*66
$PYRTM,2024,125.750040572674,16.859687982812
$GNHDT,173.437,T*2E
$PYRTM,2024,125.750046407755,16.859693817894
$GNGGA,180004.00,3501.57302830,N,12208.45281652,W,2,11,0.9,8.573,M,-39.441,M,7.0,0131*6F
$PYRTM,2024,125.750046407755,16.859693817894
$GNHDT,172.919,T*2E
$PYRTM,2024,125.750052157083,16.859699567222
$GNGGA,180004.50,3501.57157569,N,12208.45269222,W,2,11,0.9,8.119,M,-39.441,M,7.4,0131*60
$PYRTM,2024,125.750052157083,16.859699567222
$GNHDT,172.553,T*2C
$PYRTM,2024,125.750057986319,16.859705396458
$GNGGA,180005.00,3501.57013866,N,12208.45264307,W,2,11,0.9,7.583,M,-39.441,M,7.0,0131*60
$PYRTM,2024,125.750057986319,16.859705396458
$GNHDT,172.026,T*2B
$PYRTM,2024,125.750063732662,16.859711142813
$GNGGA,180005.50,3501.56872828,N,12208.45259135,W,2,11,0.9,7.145,M,-39.441,M,7.4,0131*66
$PYRTM,2024,125.750063732662,16.859711142813
$GNHDT,171.273,T*2A
$PYRTM,2024,125.750069561968,16.859716972106
$GNGGA,180006.00,3501.56735957,N,12208.45250719,W,2,11,0.9,6.875,M,-39.441,M,4.0,0131*68
$PYRTM,2024,125.750069561968,16.859716972106
$GNHDT,170.676,T*2A
$PYRTM,2024,125.750075297894,16.859722708044
$GNGGA,180006.50,3501.56602257,N,12208.45233040,W,2,11,0.9,6.852,M,-39.441,M,4.4,0131*6C
$PYRTM,2024,125.750075297894,16.859722708044
$GNHDT,170.572,T*2D
$PYRTM,2024,125.750081136528,16.859728546667
$GNGGA,180007.00,3501.56470680,N,12208.45208805,W,2,11,0.9,6.980,M,-39.441,M,5.0,0131*6B
$PYRTM,2024,125.750081136528,16.859728546667
$GNHDT,170.677,T*2B
$PYRTM,2024,125.750086878194,16.859734288333
$GNGGA,180007.50,3501.56339935,N,12208.45175528,W,2,11,0.9,7.176,M,-39.441,M,5.4,0131*6A
$PYRTM,2024,125.750086878194,16.859734288333
$GNHDT,170.609,T*22
$PYRTM,2024,125.750092710567,16.859740120706
$GNGGA,180008.00,3501.56210391,N,12208.45141384,W,2,11,0.9,7.369,M,-39.441,M,6.0,0131*62
$PYRTM,2024,125.750092710567,16.859740120706
$GNHDT,170.590,T*21
$PYRTM,2024,125.750098442037,16.859745852176
$GNGGA,180008.50,3501.56079999,N,12208.45114917,W,2,11,0.9,7.429,M,-39.441,M,6.4,0131*6F
$PYRTM,2024,125.750098442037,16.859745852176
$GNHDT,171.572,T*2C
$PYRTM,2024,125.750104279352,16.859751689491
$GNGGA,180009.00,3501.55949057,N,12208.45104376,W,2,11,0.9,7.331,M,-39.441,M,7.0,0131*6E
$PYRTM,2024,125.750104279352,16.859751689491
$GNHDT,171.903,T*26
$PYRTM,2024,125.750110024317,16.859757434456
$GNGGA,180009.50,3501.55817324,N,12208.45108423,W,2,11,0.9,7.135,M,-39.441,M,7.4,0131*6F
$PYRTM,2024,125.750110024317,16.859757434456
$GNHDT,172.686,T*27
$PYRTM,2024,125.750115857234,16.859763267373
$GNGGA,180010.00,3501.55685068,N,12208.45121946,W,2,11,0.9,6.875,M,-39.441,M,7.0,0131*61
$PYRTM,2024,125.750115857234,16.859763267373
$GNHDT,173.273,T*28
$PYRTM,2024,125.750121603241,16.859769013391
$GNGGA,180010.50,3501.55553238,N,12208.45136128,W,2,11,0.9,6.677,M,-39.441,M,7.4,0131*65
$PYRTM,2024,125.750121603241,16.859769013391
$GNHDT,173.433,T*2A
$PYRTM,2024,125.750127429502,16.859774839641
$GNGGA,180011.00,3501.55422575,N,12208.45139421,W,2,11,0.9,6.659,M,-39.441,M,7.0,0131*63
$PYRTM,2024,125.750127429502,16.859774839641
$GNHDT,173.530,T*28
$PYRTM,2024,125.750133170312,16.859780580451
$GNGGA,180011.50,3501.55292441,N,12208.45124720,W,2,11,0.9,6.856,M,-39.441,M,7.4,0131*66
$PYRTM,2024,125.750133170312,16.859780580451
$GNHDT,173.375,T*2F
$PYRTM,2024,125.750139006389,16.859786416528
$GNGGA,180012.00,3501.55162789,N,12208.45095219,W,2,11,0.9,7.209,M,-39.441,M,4.0,0131*69
$PYRTM,2024,125.750139006389,16.859786416528
$GNHDT,173.259,T*20
$PYRTM,2024,125.750144745440,16.859792155579
$GNGGA,180012.50,3501.55032756,N,12208.45055389,W,2,11,0.9,7.592,M,-39.441,M,4.4,0131*6F
$PYRTM,2024,125.750144745440,16.859792155579
$GNHDT,172.681,T*20
$PYRTM,2024,125.750150578634,16.859797988773
$GNGGA,180013.00,3501.54901142,N,12208.45010975,W,2,11,0.9,7.909,M,-39.441,M,5.0,0131*63
$PYRTM,2024,125.750150578634,16.859797988773
$GNHDT,172.344,T*2C
$PYRTM,2024,125.750156317188,16.859803727326
$GNGGA,180013.50,3501.54766854,N,12208.44975649,W,2,11,0.9,8.008,M,-39.441,M,5.4,0131*6F
$PYRTM,2024,125.750156317188,16.859803727326
$GNHDT,172.221,T*2E
$PYRTM,2024,125.750162150729,16.859809560868
$GNGGA,180014.00,3501.54630021,N,12208.44953668,W,2,11,0.9,7.873,M,-39.441,M,6.0,0131*6E
$PYRTM,2024,125.750162150729,16.859809560868
$GNHDT,172.075,T*2D
$PYRTM,2024,125.750167893171,16.859815303310
$GNGGA,180014.50,3501.54493830,N,12208.44943624,W,2,11,0.9,7.647,M,-39.441,M,6.4,0131*6C
$PYRTM,2024,125.750167893171,16.859815303310
$GNHDT,171.960,T*23
$PYRTM,2024,125.750173727674,16.859821137813
$GNGGA,180015.00,3501.54358899,N,12208.44941900,W,2,11,0.9,7.421,M,-39.441,M,7.0,0131*67
$PYRTM,2024,125.750173727674,16.859821137813
$GNHDT,171.805,T*21
$PYRTM,2024,125.750179465486,16.859826875637
$GNGGA,180015.50,3501.54226350,N,12208.44941840,W,2,11,0.9,7.307,M,-39.441,M,7.4,0131*66
$PYRTM,2024,125.750179465486,16.859826875637
$GNHDT,171.919,T*2D
$PYRTM,2024,125.750185296227,16.859832706366
$GNGGA,180016.00,3501.54095742,N,12208.44936465,W,2,11,0.9,7.348,M,-39.441,M,7.0,0131*69
$PYRTM,2024,125.750185296227,16.859832706366
$GNHDT,171.797,T*25
$PYRTM,2024,125.750191035822,16.859838445961
$GNGGA,180016.50,3501.53964927,N,12208.44924159,W,2,11,0.9,7.507,M,-39.441,M,7.4,0131*61
$PYRTM,2024,125.750191035822,16.859838445961
$GNHDT,172.156,T*2D
$PYRTM,2024,125.750196877037,16.859844287176
$GNGGA,180017.00,3501.53832918,N,12208.44904901,W,2,11,0.9,7.654,M,-39.441,M,7.0,0131*6D
$PYRTM,2024,125.750196877037,16.859844287176
$GNHDT,172.038,T*24
$PYRTM,2024,125.750202611713,16.859850021852
$GNGGA,180017.50,3501.53698938,N,12208.44881345,W,2,11,0.9,7.730,M,-39.441,M,7.4,0131*65
$PYRTM,2024,125.750202611713,16.859850021852
$GNHDT,172.264,T*2F
$PYRTM,2024,125.750208451169,16.859855861308
$GNGGA,180018.00,3501.53564667,N,12208.44856377,W,2,11,0.9,7.718,M,-39.441,M,4.0,0131*6C
$PYRTM,2024,125.750208451169,16.859855861308
$GNHDT,172.289,T*2C
$PYRTM,2024,125.750214189641,16.859861599780
$GNGGA,180018.50,3501.53429990,N,12208.44831898,W,2,11,0.9,7.683,M,-39.441,M,4.4,0131*6A
$PYRTM,2024,125.750214189641,16.859861599780
$GNHDT,172.446,T*29
$PYRTM,2024,125.750220022905,16.859867433044
$GNGGA,180019.00,3501.53295764,N,12208.44808856,W,2,11,0.9,7.607,M,-39.441,M,5.0,0131*6B
$PYRTM,2024,125.750220022905,16.859867433044
$GNHDT,172.552,T*2D
$PYRTM,2024,125.750225760324,16.859873170463
$GNGGA,180019.50,3501.53162119,N,12208.44790621,W,2,11,0.9,7.609,M,-39.441,M,5.4,0131*63
$PYRTM,2024,125.750225760324,16.859873170463
$GNHDT,173.176,T*2E
$PYRTM,2024,125.750231595694,16.859879005833
$GNGGA,180020.00,3501.53028977,N,12208.44775132,W,2,11,0.9,7.677,M,-39.441,M,6.0,0131*63
$PYRTM,2024,125.750231595694,16.859879005833
$GNHDT,173.370,T*2A
$PYRTM,2024,125.750237332211,16.859884742350
$GNGGA,180020.50,3501.52895500,N,12208.44762449,W,2,11,0.9,7.796,M,-39.441,M,6.4,0131*60
$PYRTM,2024,125.750237332211,16.859884742350
$GNHDT,173.182,T*25
$PYRTM,2024,125.750243173183,16.859890583322
$GNGGA,180021.00,3501.52760401,N,12208.44752899,W,2,11,0.9,7.865,M,-39.441,M,7.0,0131*65
$PYRTM,2024,125.750243173183,16.859890583322
$GNHDT,173.204,T*28
$PYRTM,2024,125.750248909271,16.859896319410
$GNGGA,180021.50,3501.52623322,N,12208.44746402,W,2,11,0.9,7.862,M,-39.441,M,7.4,0131*68
$PYRTM,2024,125.750248909271,16.859896319410
$GNHDT,173.391,T*25
$PYRTM,2024,125.750254743044,16.859902153183
$GNGGA,180022.00,3501.52483475,N,12208.44742591,W,2,11,0.9,7.737,M,-39.441,M,7.0,0131*67
$PYRTM,2024,125.750254743044,16.859902153183
$GNHDT,173.548,T*27
$PYRTM,2024,125.750260486146,16.859907896285
$GNGGA,180022.50,3501.52342540,N,12208.44736659,W,2,11,0.9,7.572,M,-39.441,M,7.4,0131*6C
$PYRTM,2024,125.750260486146,16.859907896285
$GNHDT,173.503,T*28
$PYRTM,2024,125.750266319780,16.859913729919
$GNGGA,180023.00,3501.52201679,N,12208.44725624,W,2,11,0.9,7.438,M,-39.441,M,7.0,0131*64
$PYRTM,2024,125.750266319780,16.859913729919
$GNHDT,173.192,T*24
$PYRTM,2024,125.750272054097,16.859919464236
$GNGGA,180023.50,3501.52062963,N,12208.44706845,W,2,11,0.9,7.398,M,-39.441,M,7.4,0131*63
$PYRTM,2024,125.750272054097,16.859919464236
$GNHDT,172.995,T*2A
$PYRTM,2024,125.750277895868,16.859925306007
$GNGGA,180024.00,3501.51927848,N,12208.44679785,W,2,11,0.9,7.508,M,-39.441,M,4.0,0131*60
$PYRTM,2024,125.750277895868,16.859925306007
$GNHDT,172.562,T*2E
$PYRTM,2024,125.750283631563,16.859931041701
$GNGGA,180024.50,3501.51794753,N,12208.44647488,W,2,11,0.9,7.742,M,-39.441,M,4.4,0131*6D
$PYRTM,2024,125.750283631563,16.859931041701
$GNHDT,172.182,T*24
$PYRTM,2024,125.750289471412,16.859936881551
$GNGGA,180025.00,3501.51662528,N,12208.44615142,W,2,11,0.9,7.993,M,-39.441,M,5.0,0131*6C
$PYRTM,2024,125.750289471412,16.859936881551
$GNHDT,171.924,T*23
$PYRTM,2024,125.750295202604,16.859942612743
$GNGGA,180025.50,3501.51529535,N,12208.44588270,W,2,11,0.9,8.147,M,-39.441,M,5.4,0131*66
$PYRTM,2024,125.750295202604,16.859942612743
$GNHDT,171.529,T*22
$PYRTM,2024,125.750301040243,16.859948450382
$GNGGA,180026.00,3501.51395304,N,12208.44568470,W,2,11,0.9,8.182,M,-39.441,M,6.0,0131*63
$PYRTM,2024,125.750301040243,16.859948450382
$GNHDT,171.254,T*2F
$PYRTM,2024,125.750306776458,16.859954186597
$GNGGA,180026.50,3501.51261136,N,12208.44553730,W,2,11,0.9,8.097,M,-39.441,M,6.4,0131*61
$PYRTM,2024,125.750306776458,16.859954186597
$GNHDT,170.871,T*23
$PYRTM,2024,125.750312614421,16.859960024560
$GNGGA,180027.00,3501.51128298,N,12208.44541674,W,2,11,0.9,7.926,M,-39.441,M,7.0,0131*67
$PYRTM,2024,125.750312614421,16.859960024560
$GNHDT,170.526,T*2C
$PYRTM,2024,125.750318351759,16.859965761910
$GNGGA,180027.50,3501.50997397,N,12208.44530273,W,2,11,0.9,7.678,M,-39.441,M,7.4,0131*64
$PYRTM,2024,125.750318351759,16.859965761910
$GNHDT,170.627,T*2E
$PYRTM,2024,125.750324188333,16.859971598472
$GNGGA,180028.00,3501.50868139,N,12208.44520326,W,2,11,0.9,7.424,M,-39.441,M,7.0,0131*66
$PYRTM,2024,125.750324188333,16.859971598472
$GNHDT,170.823,T*24
$PYRTM,2024,125.750329931204,16.859977341354
$GNGGA,180028.50,3501.50738471,N,12208.44511149,W,2,11,0.9,7.164,M,-39.441,M,7.4,0131*6C
$PYRTM,2024,125.750329931204,16.859977341354
$GNHDT,170.772,T*2F
$PYRTM,2024,125.750335771609,16.859983181748
$GNGGA,180029.00,3501.50607671,N,12208.44503332,W,2,11,0.9,6.891,M,-39.441,M,7.0,0131*6C
$PYRTM,2024,125.750335771609,16.859983181748
$GNHDT,171.121,T*2E
$PYRTM,2024,125.750341503866,16.859988914005
$GNGGA,180029.50,3501.50475466,N,12208.44494666,W,2,11,0.9,6.684,M,-39.441,M,7.4,0131*6F
$PYRTM,2024,125.750341503866,16.859988914005
$GNHDT,171.114,T*28
$PYRTM,2024,125.750347341574,16.859994751713
$GNGGA,180030.00,3501.50342100,N,12208.44482224,W,2,11,0.9,6.589,M,-39.442,M,4.0,0131*6B
$PYRTM,2024,125.750347341574,16.859994751713
$GNHDT,171.311,T*2F
$PYRTM,2024,125.750353080613,16.860000490752
$GNGGA,180030.50,3501.50208706,N,12208.44464200,W,2,11,0.9,6.651,M,-39.442,M,4.4,0131*6D
$PYRTM,2024,125.750353080613,16.860000490752
$GNHDT,171.987,T*2A
$PYRTM,2024,125.750358911493,16.860006321632
$GNGGA,180031.00,3501.50076074,N,12208.44440329,W,2,11,0.9,6.901,M,-39.442,M,5.0,0131*63
$PYRTM,2024,125.750358911493,16.860006321632
$GNHDT,172.216,T*2A
$PYRTM,2024,125.750364654502,16.860012064641
$GNGGA,180031.50,3501.49944271,N,12208.44413779,W,2,11,0.9,7.256,M,-39.442,M,5.4,0131*6A
$PYRTM,2024,125.750364654502,16.860012064641
$GNHDT,172.236,T*28
$PYRTM,2024,125.750370487269,16.860017897407
$GNGGA,180032.00,3501.49812193,N,12208.44389008,W,2,11,0.9,7.624,M,-39.442,M,6.0,0131*62
$PYRTM,2024,125.750370487269,16.860017897407
$GNHDT,172.182,T*24
$PYRTM,2024,125.750376219502,16.860023629653
$GNGGA,180032.50,3501.49678660,N,12208.44370608,W,2,11,0.9,7.890,M,-39.442,M,6.4,0131*6B
$PYRTM,2024,125.750376219502,16.860023629653
$GNHDT,171.698,T*2B
$PYRTM,2024,125.750382058785,16.860029468935
$GNGGA,180033.00,3501.49542726,N,12208.44359417,W,2,11,0.9,7.987,M,-39.442,M,7.0,0131*63
$PYRTM,2024,125.750382058785,16.860029468935
$GNHDT,171.281,T*27
$PYRTM,2024,125.750387797928,16.860035208067
$GNGGA,180033.50,3501.49405249,N,12208.44352979,W,2,11,0.9,7.939,M,-39.442,M,7.4,0131*67
$PYRTM,2024,125.750387797928,16.860035208067
$GNHDT,171.193,T*27
$PYRTM,2024,125.750393635220,16.860041045359
$GNGGA,180034.00,3501.49266725,N,12208.44347505,W,2,11,0.9,7.737,M,-39.442,M,7.0,0131*6E
$PYRTM,2024,125.750393635220,16.860041045359
$GNHDT,171.066,T*2C
$PYRTM,2024,125.750399373137,16.860046783275
$GNGGA,180034.50,3501.49129308,N,12208.44338954,W,2,11,0.9,7.548,M,-39.442,M,7.4,0131*66
$PYRTM,2024,125.750399373137,16.860046783275
$GNHDT,170.824,T*23
$PYRTM,2024,125.750405204769,16.860052614907
$GNGGA,180035.00,3501.48993518,N,12208.44324166,W,2,11,0.9,7.425,M,-39.442,M,7.0,0131*67
$PYRTM,2024,125.750405204769,16.860052614907
$GNHDT,170.828,T*2F
$PYRTM,2024,125.750410942280,16.860058352419
$GNGGA,180035.50,3501.48860232,N,12208.44302191,W,2,11,0.9,7.444,M,-39.442,M,7.4,0131*6F
$PYRTM,2024,125.750410942280,16.860058352419
$GNHDT,171.389,T*2E
$PYRTM,2024,125.750416781620,16.860064191771
$GNGGA,180036.00,3501.48728072,N,12208.44274909,W,2,11,0.9,7.571,M,-39.442,M,4.0,0131*65
$PYRTM,2024,125.750416781620,16.860064191771
$GNHDT,171.857,T*26
$PYRTM,2024,125.750422520197,16.860069930347
$GNGGA,180036.50,3501.48596914,N,12208.44246050,W,2,11,0.9,7.784,M,-39.442,M,4.4,0131*66
$PYRTM,2024,125.750422520197,16.860069930347
$GNHDT,172.114,T*2B
$PYRTM,2024,125.750428360428,16.860075770567
$GNGGA,180037.00,3501.48464957,N,12208.44218446,W,2,11,0.9,7.989,M,-39.442,M,5.0,0131*67
$PYRTM,2024,125.750428360428,16.860075770567
$GNHDT,172.092,T*24
$PYRTM,2024,125.750434097894,16.860081508032
$GNGGA,180037.50,3501.48331322,N,12208.44196141,W,2,11,0.9,8.141,M,-39.442,M,5.4,0131*6D
$PYRTM,2024,125.750434097894,16.860081508032
$GNHDT,172.780,T*20
$PYRTM,2024,125.750439931562,16.860087341713
$GNGGA,180038.00,3501.48196166,N,12208.44178999,W,2,11,0.9,8.178,M,-39.442,M,6.0,0131*6A
$PYRTM,2024,125.750439931562,16.860087341713
$GNHDT,173.044,T*2E
$PYRTM,2024,125.750445664745,16.860093074884
$GNGGA,180038.50,3501.48060622,N,12208.44165078,W,2,11,0.9,8.139,M,-39.442,M,6.4,0131*6B
$PYRTM,2024,125.750445664745,16.860093074884
$GNHDT,173.348,T*21
$PYRTM,2024,125.750451502338,16.860098912488
$GNGGA,180039.00,3501.47925111,N,12208.44151157,W,2,11,0.9,8.035,M,-39.442,M,7.0,0131*6C
$PYRTM,2024,125.750451502338,16.860098912488
$GNHDT,173.480,T*22
$PYRTM,2024,125.750457239375,16.860104649514
$GNGGA,180039.50,3501.47789611,N,12208.44135641,W,2,11,0.9,7.891,M,-39.442,M,7.4,0131*69
$PYRTM,2024,125.750457239375,16.860104649514
$GNHDT,173.444,T*2A
$PYRTM,2024,125.750463077928,16.860110488067
$GNGGA,180040.00,3501.47654426,N,12208.44117499,W,2,11,0.9,7.730,M,-39.442,M,7.0,0131*62
$PYRTM,2024,125.750463077928,16.860110488067
$GNHDT,173.101,T*2E
$PYRTM,2024,125.750468819769,16.860116229907
$GNGGA,180040.50,3501.47519412,N,12208.44099586,W,2,11,0.9,7.566,M,-39.442,M,7.4,0131*67
$PYRTM,2024,125.750468819769,16.860116229907
$GNHDT,172.875,T*25
$PYRTM,2024,125.750474650613,16.860122060752
$GNGGA,180041.00,3501.47384515,N,12208.44082861,W,2,11,0.9,7.420,M,-39.442,M,7.0,0131*6E
$PYRTM,2024,125.750474650613,16.860122060752
$GNHDT,172.655,T*29
$PYRTM,2024,125.750480386644,16.860127796782
$GNGGA,180041.50,3501.47249291,N,12208.44067077,W,2,11,0.9,7.360,M,-39.442,M,7.4,0131*63
$PYRTM,2024,125.750480386644,16.860127796782
$GNHDT,172.514,T*2F
$PYRTM,2024,125.750486224109,16.860133634248
$GNGGA,180042.00,3501.47112619,N,12208.44050203,W,2,11,0.9,7.332,M,-39.442,M,4.0,0131*69
$PYRTM,2024,125.750486224109,16.860133634248
$GNHDT,172.356,T*2F
$PYRTM,2024,125.750491963947,16.860139374086
$GNGGA,180042.50,3501.46974989,N,12208.44031350,W,2,11,0.9,7.378,M,-39.442,M,4.4,0131*69
$PYRTM,2024,125.750491963947,16.860139374086
$GNHDT,172.249,T*20
$PYRTM,2024,125.750497798264,16.860145208403
$GNGGA,180043.00,3501.46837218,N,12208.44011756,W,2,11,0.9,7.490,M,-39.442,M,5.0,0131*6C
$PYRTM,2024,125.750497798264,16.860145208403
$GNHDT,172.311,T*2C
$PYRTM,2024,125.750503536481,16.860150946632
$GNGGA,180043.50,3501.46699719,N,12208.43994676,W,2,11,0.9,7.605,M,-39.442,M,5.4,0131*6D
$PYRTM,2024,125.750503536481,16.860150946632
$GNHDT,172.298,T*2C
$PYRTM,2024,125.750509376690,16.860156786829
$GNGGA,180044.00,3501.46562347,N,12208.43981845,W,2,11,0.9,7.706,M,-39.442,M,6.0,0131*68
$PYRTM,2024,125.750509376690,16.860156786829
$GNHDT,172.329,T*27
$PYRTM,2024,125.750515116169,16.860162526319
$GNGGA,180044.50,3501.46425321,N,12208.43971340,W,2,11,0.9,7.776,M,-39.442,M,6.4,0131*6D
$PYRTM,2024,125.750515116169,16.860162526319
$GNHDT,172.046,T*2D
$PYRTM,2024,125.750520949248,16.860168359398
$GNGGA,180045.00,3501.46288497,N,12208.43960114,W,2,11,0.9,7.823,M,-39.442,M,7.0,0131*6B
$PYRTM,2024,125.750520949248,16.860168359398
$GNHDT,171.627,T*2F
$PYRTM,2024,125.750526685972,16.860174096111
$GNGGA,180045.50,3501.46151768,N,12208.43944875,W,2,11,0.9,7.860,M,-39.442,M,7.4,0131*61
$PYRTM,2024,125.750526685972,16.860174096111
$GNHDT,171.020,T*2E
$PYRTM,2024,125.750532520579,16.860179930718
$GNGGA,180046.00,3501.46014558,N,12208.43926261,W,2,11,0.9,7.828,M,-39.442,M,7.0,0131*65
$PYRTM,2024,125.750532520579,16.860179930718
$GNHDT,170.731,T*28
$PYRTM,2024,125.750538259213,16.860185669352
$GNGGA,180046.50,3501.45876423,N,12208.43905910,W,2,11,0.9,7.723,M,-39.442,M,7.4,0131*6E
$PYRTM,2024,125.750538259213,16.860185669352
$GNHDT,170.616,T*2C
$PYRTM,2024,125.750544097419,16.860191507558
$GNGGA,180047.00,3501.45738024,N,12208.43886363,W,2,11,0.9,7.530,M,-39.442,M,7.0,0131*6C
$PYRTM,2024,125.750544097419,16.860191507558
$GNHDT,170.652,T*2C
$PYRTM,2024,125.750549837141,16.860197247280
$GNGGA,180047.50,3501.45599968,N,12208.43868047,W,2,11,0.9,7.320,M,-39.442,M,7.4,0131*67
$PYRTM,2024,125.750549837141,16.860197247280
$GNHDT,170.744,T*2A
$PYRTM,2024,125.750555672465,16.860203082604
$GNGGA,180048.00,3501.45463006,N,12208.43851297,W,2,11,0.9,7.148,M,-39.442,M,4.0,0131*66
$PYRTM,2024,125.750555672465,16.860203082604
$GNHDT,171.012,T*2F
$PYRTM,2024,125.750561405845,16.860208815995
$GNGGA,180048.50,3501.45328262,N,12208.43833519,W,2,11,0.9,7.124,M,-39.442,M,4.4,0131*60
$PYRTM,2024,125.750561405845,16.860208815995
$GNHDT,171.769,T*24
$PYRTM,2024,125.750567240775,16.860214650914
$GNGGA,180049.00,3501.45196477,N,12208.43813573,W,2,11,0.9,7.254,M,-39.442,M,5.0,0131*6E
$PYRTM,2024,125.750567240775,16.860214650914
$GNHDT,171.996,T*2A
$PYRTM,2024,125.750572984988,16.860220395127
$GNGGA,180049.50,3501.45065963,N,12208.43791978,W,2,11,0.9,7.465,M,-39.442,M,5.4,0131*6C
$PYRTM,2024,125.750572984988,16.860220395127
$GNHDT,171.993,T*2F
$PYRTM,2024,125.750578819421,16.860226229560
$GNGGA,180050.00,3501.44934678,N,12208.43771942,W,2,11,0.9,7.643,M,-39.442,M,6.0,0131*6E
$PYRTM,2024,125.750578819421,16.860226229560
$GNHDT,171.901,T*24
$PYRTM,2024,125.750584559965,16.860231970104
$GNGGA,180050.50,3501.44801088,N,12208.43753170,W,2,11,0.9,7.731,M,-39.442,M,6.4,0131*6C
$PYRTM,2024,125.750584559965,16.860231970104
$GNHDT,171.472,T*2D
$PYRTM,2024,125.750590391782,16.860237801933
$GNGGA,180051.00,3501.44665438,N,12208.43734424,W,2,11,0.9,7.661,M,-39.442,M,7.0,0131*6F
$PYRTM,2024,125.750590391782,16.860237801933
$GNHDT,171.324,T*29
$PYRTM,2024,125.750596127338,16.860243537488
$GNGGA,180051.50,3501.44529562,N,12208.43715926,W,2,11,0.9,7.490,M,-39.442,M,7.4,0131*6B
$PYRTM,2024,125.750596127338,16.860243537488
$GNHDT,170.867,T*24
$PYRTM,2024,125.750601964664,16.860249374803
$GNGGA,180052.00,3501.44394913,N,12208.43698577,W,2,11,0.9,7.260,M,-39.442,M,7.0,0131*66
$PYRTM,2024,125.750601964664,16.860249374803
$GNHDT,170.675,T*29
$PYRTM,2024,125.750607706782,16.860255116921
$GNGGA,180052.50,3501.44262434,N,12208.43681902,W,2,11,0.9,7.071,M,-39.442,M,7.4,0131*63
$PYRTM,2024,125.750607706782,16.860255116921
$GNHDT,169.983,T*27
$PYRTM,2024,125.750613538171,16.860260948310
$GNGGA,180053.00,3501.44132526,N,12208.43666272,W,2,11,0.9,6.968,M,-39.442,M,7.0,0131*62
$PYRTM,2024,125.750613538171,16.860260948310
$GNHDT,169.727,T*27
$PYRTM,2024,125.750619276782,16.860266686921
$GNGGA,180053.50,3501.44004393,N,12208.43649728,W,2,11,0.9,6.987,M,-39.442,M,7.4,0131*69
$PYRTM,2024,125.750619276782,16.860266686921
$GNHDT,169.420,T*23
$PYRTM,2024,125.750625114178,16.860272524317
$GNGGA,180054.00,3501.43876583,N,12208.43632172,W,2,11,0.9,7.121,M,-39.442,M,4.0,0131*61
$PYRTM,2024,125.750625114178,16.860272524317
$GNHDT,169.383,T*2D
$PYRTM,2024,125.750630850532,16.860278260683
$GNGGA,180054.50,3501.43747767,N,12208.43613234,W,2,11,0.9,7.303,M,-39.442,M,4.4,0131*65
$PYRTM,2024,125.750630850532,16.860278260683
$GNHDT,169.476,T*20
$PYRTM,2024,125.750636693160,16.860284103310
$GNGGA,180055.00,3501.43616941,N,12208.43595658,W,2,11,0.9,7.461,M,-39.442,M,5.0,0131*6B
$PYRTM,2024,125.750636693160,16.860284103310
$GNHDT,169.673,T*27
$PYRTM,2024,125.750642426076,16.860289836227
$GNGGA,180055.50,3501.43483197,N,12208.43582712,W,2,11,0.9,7.556,M,-39.442,M,5.4,0131*6B
$PYRTM,2024,125.750642426076,16.860289836227
$GNHDT,170.128,T*26
$PYRTM,2024,125.750648263611,16.860295673750
$GNGGA,180056.00,3501.43345973,N,12208.43573746,W,2,11,0.9,7.554,M,-39.442,M,6.0,0131*68
$PYRTM,2024,125.750648263611,16.860295673750
$GNHDT,170.563,T*2D
$PYRTM,2024,125.750654004722,16.860301414861
$GNGGA,180056.50,3501.43206411,N,12208.43566460,W,2,11,0.9,7.544,M,-39.442,M,6.4,0131*64
$PYRTM,2024,125.750654004722,16.860301414861
$GNHDT,171.321,T*2C
$PYRTM,2024,125.750659839734,16.860307249873
$GNGGA,180057.00,3501.43065756,N,12208.43554531,W,2,11,0.9,7.640,M,-39.442,M,7.0,0131*61
$PYRTM,2024,125.750659839734,16.860307249873
$GNHDT,172.050,T*2A
$PYRTM,2024,125.750665571921,16.860312982060
$GNGGA,180057.50,3501.42926145,N,12208.43533102,W,2,11,0.9,7.913,M,-39.443,M,7.4,0131*66
$PYRTM,2024,125.750665571921,16.860312982060
$GNHDT,172.847,T*24
$PYRTM,2024,125.750671410475,16.860318820625
$GNGGA,180058.00,3501.42786388,N,12208.43498400,W,2,11,0.9,8.330,M,-39.443,M,7.0,0131*6C
$PYRTM,2024,125.750671410475,16.860318820625
$GNHDT,173.272,T*29
$PYRTM,2024,125.750677149062,16.860324559201
$GNGGA,180058.50,3501.42646611,N,12208.43452460,W,2,11,0.9,8.817,M,-39.443,M,7.4,0131*6B
$PYRTM,2024,125.750677149062,16.860324559201
$GNHDT,173.393,T*27
$PYRTM,2024,125.750682983160,16.860330393299
$GNGGA,180059.00,3501.42505986,N,12208.43401189,W,2,11,0.9,9.206,M,-39.443,M,7.0,0131*61
$PYRTM,2024,125.750682983160,16.860330393299
$GNHDT,173.581,T*22
$PYRTM,2024,125.750688723380,16.860336133519
$GNGGA,180059.50,3501.42363691,N,12208.43357288,W,2,11,0.9,9.313,M,-39.443,M,7.4,0131*6C
$PYRTM,2024,125.750688723380,16.860336133519
$GNHDT,173.551,T*2F
$PYRTM,2024,125.750694565938,16.860341976088
$GNGGA,180100.00,3501.42218870,N,12208.43326851,W,2,11,0.9,9.053,M,-39.443,M,4.0,0131*60
$PYRTM,2024,125.750694565938,16.860341976088
$GNHDT,173.045,T*2F
$PYRTM,2024,125.750700300370,16.860347710509
$GNGGA,180100.50,3501.42074278,N,12208.43310760,W,2,11,0.9,8.526,M,-39.443,M,4.4,0131*65
$PYRTM,2024,125.750700300370,16.860347710509
$GNHDT,172.731,T*2A
$PYRTM,2024,125.750706140532,16.860353550671
$GNGGA,180101.00,3501.41929990,N,12208.43302396,W,2,11,0.9,7.829,M,-39.443,M,5.0,0131*68
$PYRTM,2024,125.750706140532,16.860353550671
$GNHDT,171.758,T*26
$PYRTM,2024,125.750711874745,16.860359284884
$GNGGA,180101.50,3501.41788348,N,12208.43294981,W,2,11,0.9,7.178,M,-39.443,M,5.4,0131*6C
$PYRTM,2024,125.750711874745,16.860359284884
$GNHDT,171.474,T*2B
$PYRTM,2024,125.750717706586,16.860365116736
$GNGGA,180102.00,3501.41651799,N,12208.43283125,W,2,11,0.9,6.729,M,-39.443,M,6.0,0131*63
$PYRTM,2024,125.750717706586,16.860365116736
$GNHDT,171.036,T*29
$PYRTM,2024,125.750723446088,16.860370856227
$GNGGA,180102.50,3501.41521337,N,12208.43260864,W,2,11,0.9,6.634,M,-39.443,M,6.4,0131*6A
$PYRTM,2024,125.750723446088,16.860370856227
$GNHDT,170.347,T*2D
$PYRTM,2024,125.750729282083,16.860376692222
$GNGGA,180103.00,3501.41395102,N,12208.43228941,W,2,11,0.9,6.812,M,-39.443,M,7.0,0131*66
$PYRTM,2024,125.750729282083,16.860376692222
$GNHDT,170.038,T*26
$PYRTM,2024,125.750735016632,16.860382426771
$GNGGA,180103.50,3501.41270025,N,12208.43193546,W,2,11,0.9,7.075,M,-39.443,M,7.4,0131*69
$PYRTM,2024,125.750735016632,16.860382426771
$GNHDT,170.143,T*2B
$PYRTM,2024,125.750740857581,16.860388267731
$GNGGA,180104.00,3501.41143401,N,12208.43161213,W,2,11,0.9,7.283,M,-39.443,M,7.0,0131*6F
$PYRTM,2024,125.750740857581,16.860388267731
$GNHDT,170.466,T*29
$PYRTM,2024,125.750746593067,16.860394003206
$GNGGA,180104.50,3501.41014360,N,12208.43140834,W,2,11,0.9,7.313,M,-39.443,M,7.4,0131*69
$PYRTM,2024,125.750746593067,16.860394003206
$GNHDT,170.103,T*2F
$PYRTM,2024,125.750752430509,16.860399840660
$GNGGA,180105.00,3501.40883499,N,12208.43136945,W,2,11,0.9,7.137,M,-39.443,M,7.0,0131*6D
$PYRTM,2024,125.750752430509,16.860399840660
$GNHDT,170.271,T*29
$PYRTM,2024,125.750758163773,16.860405573912
$GNGGA,180105.50,3501.40752275,N,12208.43146140,W,2,11,0.9,6.875,M,-39.443,M,7.4,0131*6F
$PYRTM,2024,125.750758163773,16.860405573912
$GNHDT,170.557,T*2A
$PYRTM,2024,125.750764007037,16.860411417176
$GNGGA,180106.00,3501.40622491,N,12208.43160117,W,2,11,0.9,6.636,M,-39.443,M,4.0,0131*6B
$PYRTM,2024,125.750764007037,16.860411417176
$GNHDT,171.028,T*26
$PYRTM,2024,125.750769741667,16.860417151806
$GNGGA,180106.50,3501.40494102,N,12208.43168262,W,2,11,0.9,6.603,M,-39.443,M,4.4,0131*65
$PYRTM,2024,125.750769741667,16.860417151806
$GNHDT,171.308,T*27
$PYRTM,2024,125.750775574965,16.860422985116
$GNGGA,180107.00,3501.40367337,N,12208.43160036,W,2,11,0.9,6.810,M,-39.443,M,5.0,0131*6C
$PYRTM,2024,125.750775574965,16.860422985116
$GNHDT,171.465,T*2B
$PYRTM,2024,125.750781316308,16.860428726447
$GNGGA,180107.50,3501.40241342,N,12208.43136015,W,2,11,0.9,7.185,M,-39.443,M,5.4,0131*6C
$PYRTM,2024,125.750781316308,16.860428726447
$GNHDT,171.625,T*2D
$PYRTM,2024,125.750787150949,16.860434561088
$GNGGA,180108.00,3501.40113294,N,12208.43094213,W,2,11,0.9,7.602,M,-39.443,M,6.0,0131*6A
$PYRTM,2024,125.750787150949,16.860434561088
$GNHDT,172.060,T*29
$PYRTM,2024,125.750792885949,16.860440296088
$GNGGA,180108.50,3501.39984738,N,12208.43048238,W,2,11,0.9,7.993,M,-39.443,M,6.4,0131*6F
$PYRTM,2024,125.750792885949,16.860440296088
$GNHDT,172.179,T*20
$PYRTM,2024,125.750798729271,16.860446139410
$GNGGA,180109.00,3501.39853660,N,12208.43007474,W,2,11,0.9,8.138,M,-39.443,M,7.0,0131*6A
$PYRTM,2024,125.750798729271,16.860446139410
$GNHDT,172.280,T*25
$PYRTM,2024,125.750804464525,16.860451874664
$GNGGA,180109.50,3501.39719849,N,12208.42980474,W,2,11,0.9,8.068,M,-39.443,M,7.4,0131*6C
$PYRTM,2024,125.750804464525,16.860451874664
$GNHDT,172.300,T*2C
$PYRTM,2024,125.750810294977,16.860457705116
$GNGGA,180110.00,3501.39582314,N,12208.42966174,W,2,11,0.9,7.836,M,-39.443,M,7.0,0131*67
$PYRTM,2024,125.750810294977,16.860457705116
$GNHDT,172.280,T*25
$PYRTM,2024,125.750816035741,16.860463445880
$GNGGA,180110.50,3501.39444262,N,12208.42959434,W,2,11,0.9,7.575,M,-39.443,M,7.4,0131*6A
$PYRTM,2024,125.750816035741,16.860463445880
$GNHDT,172.541,T*2F
$PYRTM,2024,125.750821870822,16.860469280961
$GNGGA,180111.00,3501.39307286,N,12208.42954563,W,2,11,0.9,7.348,M,-39.443,M,7.0,0131*66
$PYRTM,2024,125.750821870822,16.860469280961
$GNHDT,172.803,T*24
$PYRTM,2024,125.750827613773,16.860475023912
$GNGGA,180111.50,3501.39172402,N,12208.42944861,W,2,11,0.9,7.303,M,-39.443,M,7.4,0131*6C
$PYRTM,2024,125.750827613773,16.860475023912
$GNHDT,172.622,T*29
$PYRTM,2024,125.750833445301,16.860480855440
$GNGGA,180112.00,3501.39037427,N,12208.42925591,W,2,11,0.9,7.392,M,-39.443,M,4.0,0131*67
$PYRTM,2024,125.750833445301,16.860480855440
$GNHDT,172.758,T*25
$PYRTM,2024,125.750839189213,16.860486599352
$GNGGA,180112.50,3501.38901525,N,12208.42898715,W,2,11,0.9,7.522,M,-39.443,M,4.4,0131*6C
$PYRTM,2024,125.750839189213,16.860486599352
$GNHDT,173.141,T*2A
$PYRTM,2024,125.750845023808,16.860492433947
$GNGGA,180113.00,3501.38764402,N,12208.42866886,W,2,11,0.9,7.624,M,-39.443,M,5.0,0131*65
$PYRTM,2024,125.750845023808,16.860492433947
$GNHDT,173.122,T*2F
$PYRTM,2024,125.750850756667,16.860498166806
$GNGGA,180113.50,3501.38625830,N,12208.42835503,W,2,11,0.9,7.616,M,-39.443,M,5.4,0131*6A
$PYRTM,2024,125.750850756667,16.860498166806
$GNHDT,173.165,T*2C
$PYRTM,2024,125.750856592905,16.860504003044
$GNGGA,180114.00,3501.38487287,N,12208.42810411,W,2,11,0.9,7.495,M,-39.443,M,6.0,0131*6F
$PYRTM,2024,125.750856592905,16.860504003044
$GNHDT,173.444,T*2A
$PYRTM,2024,125.750862338785,16.860509748924
$GNGGA,180114.50,3501.38349942,N,12208.42794879,W,2,11,0.9,7.316,M,-39.443,M,6.4,0131*64
$PYRTM,2024,125.750862338785,16.860509748924
$GNHDT,173.256,T*2F
$PYRTM,2024,125.750868174005,16.860515584144
$GNGGA,180115.00,3501.38214585,N,12208.42788309,W,2,11,0.9,7.161,M,-39.443,M,7.0,0131*68
$PYRTM,2024,125.750868174005,16.860515584144
$GNHDT,173.329,T*26
$PYRTM,2024,125.750873907593,16.860521317743
$GNGGA,180115.50,3501.38081030,N,12208.42786015,W,2,11,0.9,7.091,M,-39.443,M,7.4,0131*62
$PYRTM,2024,125.750873907593,16.860521317743
$GNHDT,173.108,T*27
$PYRTM,2024,125.750879747859,16.860527157998
$GNGGA,180116.00,3501.37948788,N,12208.42783641,W,2,11,0.9,7.096,M,-39.443,M,7.0,0131*62
$PYRTM,2024,125.750879747859,16.860527157998
$GNHDT,172.729,T*23
$PYRTM,2024,125.750885483530,16.860532893669
$GNGGA,180116.50,3501.37816770,N,12208.42777867,W,2,11,0.9,7.174,M,-39.443,M,7.4,0131*62
$PYRTM,2024,125.750885483530,16.860532893669
$GNHDT,172.603,T*2A
$PYRTM,2024,125.750891321852,16.860538732002
$GNGGA,180117.00,3501.37685468,N,12208.42766919,W,2,11,0.9,7.302,M,-39.443,M,7.0,0131*67
$PYRTM,2024,125.750891321852,16.860538732002
$GNHDT,172.648,T*25
$PYRTM,2024,125.750897052674,16.860544462812
$GNGGA,180117.50,3501.37555154,N,12208.42749329,W,2,11,0.9,7.431,M,-39.443,M,7.4,0131*61
$PYRTM,2024,125.750897052674,16.860544462812
$GNHDT,172.480,T*23
$PYRTM,2024,125.750902892222,16.860550302361
$GNGGA,180118.00,3501.37425937,N,12208.42726861,W,2,11,0.9,7.574,M,-39.443,M,4.0,0131*69
$PYRTM,2024,125.750902892222,16.860550302361
$GNHDT,172.520,T*28
$PYRTM,2024,125.750908629595,16.860556039734
$GNGGA,180118.50,3501.37296345,N,12208.42702379,W,2,11,0.9,7.664,M,-39.443,M,4.4,0131*6F
$PYRTM,2024,125.750908629595,16.860556039734
$GNHDT,172.519,T*22
$PYRTM,2024,125.750914466458,16.860561876597
$GNGGA,180119.00,3501.37166166,N,12208.42681383,W,2,11,0.9,7.684,M,-39.443,M,5.0,0131*60
$PYRTM,2024,125.750914466458,16.860561876597
$GNHDT,172.508,T*22
$PYRTM,2024,125.750920202245,16.860567612396
$GNGGA,180119.50,3501.37035442,N,12208.42664258,W,2,11,0.9,7.659,M,-39.443,M,5.4,0131*69
$PYRTM,2024,125.750920202245,16.860567612396
$GNHDT,172.302,T*2E
$PYRTM,2024,125.750926038137,16.860573448275
$GNGGA,180120.00,3501.36905155,N,12208.42650999,W,2,11,0.9,7.619,M,-39.443,M,6.0,0131*6C
$PYRTM,2024,125.750926038137,16.860573448275
$GNHDT,172.123,T*2F
$PYRTM,2024,125.750931776400,16.860579186539
$GNGGA,180120.50,3501.36774467,N,12208.42639806,W,2,11,0.9,7.557,M,-39.443,M,6.4,0131*60
$PYRTM,2024,125.750931776400,16.860579186539
$GNHDT,172.226,T*29
$PYRTM,2024,125.750937616736,16.860585026875
$GNGGA,180121.00,3501.36642974,N,12208.42628950,W,2,11,0.9,7.492,M,-39.443,M,7.0,0131*60
$PYRTM,2024,125.750937616736,16.860585026875
$GNHDT,171.896,T*2B
$PYRTM,2024,125.750943350000,16.860590760139
$GNGGA,180121.50,3501.36508897,N,12208.42617517,W,2,11,0.9,7.397,M,-39.443,M,7.4,0131*61
$PYRTM,2024,125.750943350000,16.860590760139
$GNHDT,171.538,T*22
$PYRTM,2024,125.750949187257,16.860596597396
$GNGGA,180122.00,3501.36372264,N,12208.42605192,W,2,11,0.9,7.267,M,-39.443,M,7.0,0131*6A
$PYRTM,2024,125.750949187257,16.860596597396
$GNHDT,171.115,T*29
$PYRTM,2024,125.750954927187,16.860602337326
$GNGGA,180122.50,3501.36234527,N,12208.42587897,W,2,11,0.9,7.153,M,-39.443,M,7.4,0131*69
$PYRTM,2024,125.750954927187,16.860602337326
$GNHDT,170.989,T*25
$PYRTM,2024,125.750960760405,16.860608170544
$GNGGA,180123.00,3501.36096416,N,12208.42562156,W,2,11,0.9,7.102,M,-39.443,M,7.0,0131*6B
$PYRTM,2024,125.750960760405,16.860608170544
$GNHDT,170.821,T*26
$PYRTM,2024,125.750966507986,16.860613918125
$GNGGA,180123.50,3501.35959091,N,12208.42534129,W,2,11,0.9,7.154,M,-39.443,M,7.4,0131*60
$PYRTM,2024,125.750966507986,16.860613918125
$GNHDT,171.253,T*28
$PYRTM,2024,125.750972339109,16.860619749248
$GNGGA,180124.00,3501.35821302,N,12208.42507606,W,2,11,0.9,7.261,M,-39.443,M,4.0,0131*6D
$PYRTM,2024,125.750972339109,16.860619749248
$GNHDT,171.738,T*20
$PYRTM,2024,125.750978077384,16.860625487523
$GNGGA,180124.50,3501.35682739,N,12208.42487365,W,2,11,0.9,7.354,M,-39.443,M,4.4,0131*69
$PYRTM,2024,125.750978077384,16.860625487523
$GNHDT,172.367,T*2D
$PYRTM,2024,125.750983906586,16.860631316725
$GNGGA,180125.00,3501.35543662,N,12208.42476846,W,2,11,0.9,7.420,M,-39.444,M,5.0,0131*6E
$PYRTM,2024,125.750983906586,16.860631316725
$GNHDT,172.901,T*27
$PYRTM,2024,125.750989646227,16.860637056366
$GNGGA,180125.50,3501.35404063,N,12208.42473036,W,2,11,0.9,7.444,M,-39.444,M,5.4,0131*62
$PYRTM,2024,125.750989646227,16.860637056366
$GNHDT,173.433,T*2A
$PYRTM,2024,125.750995487697,16.860642897836
$GNGGA,180126.00,3501.35263810,N,12208.42471644,W,2,11,0.9,7.441,M,-39.444,M,6.0,0131*6C
$PYRTM,2024,125.750995487697,16.860642897836
$GNHDT,173.672,T*2D
$PYRTM,2024,125.751001233113,16.860648643252
$GNGGA,180126.50,3501.35124057,N,12208.42463820,W,2,11,0.9,7.504,M,-39.444,M,6.4,0131*69
$PYRTM,2024,125.751001233113,16.860648643252
$GNHDT,173.462,T*2E
$PYRTM,2024,125.751007059028,16.860654469167
$GNGGA,180127.00,3501.34986076,N,12208.42445739,W,2,11,0.9,7.646,M,-39.444,M,7.0,0131*6C
$PYRTM,2024,125.751007059028,16.860654469167
$GNHDT,173.453,T*2C
$PYRTM,2024,125.751012798715,16.860660208854
$GNGGA,180127.50,3501.34850933,N,12208.42416839,W,2,11,0.9,7.833,M,-39.444,M,7.4,0131*6A
$PYRTM,2024,125.751012798715,16.860660208854
$GNHDT,172.995,T*2A
$PYRTM,2024,125.751018631933,16.860666042072
$GNGGA,180128.00,3501.34717875,N,12208.42380975,W,2,11,0.9,7.997,M,-39.444,M,7.0,0131*65
$PYRTM,2024,125.751018631933,16.860666042072
$GNHDT,172.460,T*2D
$PYRTM,2024,125.751024375856,16.860671785995
$GNGGA,180128.50,3501.34586175,N,12208.42346488,W,2,11,0.9,8.033,M,-39.444,M,7.4,0131*6A
$PYRTM,2024,125.751024375856,16.860671785995
$GNHDT,171.997,T*2B
$PYRTM,2024,125.751030205625,16.860677615764
$GNGGA,180129.00,3501.34454612,N,12208.42322315,W,2,11,0.9,7.789,M,-39.444,M,7.0,0131*6A
$PYRTM,2024,125.751030205625,16.860677615764
$GNHDT,171.576,T*28
$PYRTM,2024,125.751035951852,16.860683362002
$GNGGA,180129.50,3501.34323068,N,12208.42309551,W,2,11,0.9,7.406,M,-39.444,M,7.4,0131*6C
$PYRTM,2024,125.751035951852,16.860683362002
$GNHDT,170.612,T*28
$PYRTM,2024,125.751041783356,16.860689193495
$GNGGA,180130.00,3501.34193358,N,12208.42306131,W,2,11,0.9,6.966,M,-39.444,M,4.0,0131*68
$PYRTM,2024,125.751041783356,16.860689193495
$GNHDT,170.275,T*2D
$PYRTM,2024,125.751047520706,16.860694930845
$GNGGA,180130.50,3501.34066538,N,12208.42305672,W,2,11,0.9,6.654,M,-39.444,M,4.4,0131*6F
$PYRTM,2024,125.751047520706,16.860694930845
$GNHDT,169.763,T*27
$PYRTM,2024,125.751053359329,16.860700769468
$GNGGA,180131.00,3501.33943126,N,12208.42302558,W,2,11,0.9,6.559,M,-39.444,M,5.0,0131*6E
$PYRTM,2024,125.751053359329,16.860700769468
$GNHDT,169.396,T*29
$PYRTM,2024,125.751059092720,16.860706502859
$GNGGA,180131.50,3501.33820304,N,12208.42292806,W,2,11,0.9,6.678,M,-39.444,M,5.4,0131*67
$PYRTM,2024,125.751059092720,16.860706502859
$GNHDT,169.489,T*20
$PYRTM,2024,125.751064934317,16.860712344456
$GNGGA,180132.00,3501.33694985,N,12208.42277452,W,2,11,0.9,6.911,M,-39.444,M,6.0,0131*62
$PYRTM,2024,125.751064934317,16.860712344456
$GNHDT,169.708,T*2A
$PYRTM,2024,125.751070668553,16.860718078692
$GNGGA,180132.50,3501.33564702,N,12208.42259133,W,2,11,0.9,7.139,M,-39.444,M,6.4,0131*63
$PYRTM,2024,125.751070668553,16.860718078692
$GNHDT,169.917,T*2A
$PYRTM,2024,125.751076505926,16.860723916076
$GNGGA,180133.00,3501.33431327,N,12208.42239056,W,2,11,0.9,7.329,M,-39.444,M,7.0,0131*67
$PYRTM,2024,125.751076505926,16.860723916076
$GNHDT,170.397,T*20
$PYRTM,2024,125.751082243542,16.860729653681
$GNGGA,180133.50,3501.33297772,N,12208.42217639,W,2,11,0.9,7.546,M,-39.444,M,7.4,0131*64
$PYRTM,2024,125.751082243542,16.860729653681
$GNHDT,171.189,T*2C
$PYRTM,2024,125.751088080081,16.860735490220
$GNGGA,180134.00,3501.33164644,N,12208.42192415,W,2,11,0.9,7.849,M,-39.444,M,7.0,0131*69
$PYRTM,2024,125.751088080081,16.860735490220
$GNHDT,171.500,T*29
$PYRTM,2024,125.751093817002,16.860741227141
$GNGGA,180134.50,3501.33031893,N,12208.42163091,W,2,11,0.9,8.215,M,-39.444,M,7.4,0131*67
$PYRTM,2024,125.751093817002,16.860741227141
$GNHDT,171.590,T*20
$PYRTM,2024,125.751099654109,16.860747064248
$GNGGA,180135.00,3501.32896059,N,12208.42130711,W,2,11,0.9,8.520,M,-39.444,M,7.0,0131*65
$PYRTM,2024,125.751099654109,16.860747064248
$GNHDT,171.734,T*2C
$PYRTM,2024,125.751105399144,16.860752809282
$GNGGA,180135.50,3501.32755770,N,12208.42099629,W,2,11,0.9,8.664,M,-39.444,M,7.4,0131*63
$PYRTM,2024,125.751105399144,16.860752809282
$GNHDT,171.652,T*2D
$PYRTM,2024,125.751111226146,16.860758636285
$GNGGA,180136.00,3501.32609100,N,12208.42073392,W,2,11,0.9,8.486,M,-39.444,M,4.0,0131*64
$PYRTM,2024,125.751111226146,16.860758636285
$GNHDT,171.877,T*24
$PYRTM,2024,125.751116964734,16.860764374873
$GNGGA,180136.50,3501.32460390,N,12208.42052156,W,2,11,0.9,8.119,M,-39.444,M,4.4,0131*69
$PYRTM,2024,125.751116964734,16.860764374873
$GNHDT,172.024,T*29
$PYRTM,2024,125.751122803623,16.860770213762
$GNGGA,180137.00,3501.32311556,N,12208.42034499,W,2,11,0.9,7.680,M,-39.444,M,5.0,0131*6B
$PYRTM,2024,125.751122803623,16.860770213762
$GNHDT,172.136,T*2B
$PYRTM,2024,125.751128542083,16.860775952222
$GNGGA,180137.50,3501.32166393,N,12208.42017245,W,2,11,0.9,7.340,M,-39.444,M,5.4,0131*68
$PYRTM,2024,125.751128542083,16.860775952222
$GNHDT,172.186,T*20
$PYRTM,2024,125.751134375313,16.860781785463
$GNGGA,180138.00,3501.32026948,N,12208.41996148,W,2,11,0.9,7.271,M,-39.444,M,6.0,0131*62
$PYRTM,2024,125.751134375313,16.860781785463
$GNHDT,172.150,T*2B
$PYRTM,2024,125.751140112222,16.860787522361
$GNGGA,180138.50,3501.31891011,N,12208.41969567,W,2,11,0.9,7.420,M,-39.444,M,6.4,0131*6A
$PYRTM,2024,125.751140112222,16.860787522361
$GNHDT,171.638,T*21
$PYRTM,2024,125.751145948588,16.860793358727
$GNGGA,180139.00,3501.31756572,N,12208.41938873,W,2,11,0.9,7.708,M,-39.444,M,7.0,0131*6A
$PYRTM,2024,125.751145948588,16.860793358727
$GNHDT,171.387,T*20
$PYRTM,2024,125.751151686921,16.860799097060
$GNGGA,180139.50,3501.31621757,N,12208.41906365,W,2,11,0.9,7.957,M,-39.444,M,7.4,0131*6A
$PYRTM,2024,125.751151686921,16.860799097060
$GNHDT,171.509,T*20
$PYRTM,2024,125.751157524687,16.860804934838
$GNGGA,180140.00,3501.31485481,N,12208.41877708,W,2,11,0.9,8.025,M,-39.444,M,7.0,0131*6A
$PYRTM,2024,125.751157524687,16.860804934838
$GNHDT,171.238,T*25
$PYRTM,2024,125.751163262326,16.860810672477
$GNGGA,180140.50,3501.31348546,N,12208.41855513,W,2,11,0.9,7.905,M,-39.444,M,7.4,0131*6B
$PYRTM,2024,125.751163262326,16.860810672477
$GNHDT,171.039,T*26
$PYRTM,2024,125.751169096238,16.860816506377
$GNGGA,180141.00,3501.31213196,N,12208.41840985,W,2,11,0.9,7.610,M,-39.444,M,7.0,0131*61
$PYRTM,2024,125.751169096238,16.860816506377
$GNHDT,171.033,T*2C
$PYRTM,2024,125.751174834433,16.860822244572
$GNGGA,180141.50,3501.31080487,N,12208.41831053,W,2,11,0.9,7.288,M,-39.444,M,7.4,0131*6C
$PYRTM,2024,125.751174834433,16.860822244572
$GNHDT,170.784,T*26
$PYRTM,2024,125.751180674850,16.860828084988
$GNGGA,180142.00,3501.30950720,N,12208.41823662,W,2,11,0.9,6.992,M,-39.444,M,4.0,0131*60
$PYRTM,2024,125.751180674850,16.860828084988
$GNHDT,170.782,T*20
$PYRTM,2024,125.751186406042,16.860833816181
$GNGGA,180142.50,3501.30822872,N,12208.41815724,W,2,11,0.9,6.806,M,-39.444,M,4.4,0131*67
$PYRTM,2024,125.751186406042,16.860833816181
$GNHDT,170.518,T*21
$PYRTM,2024,125.751192247801,16.860839657940
$GNGGA,180143.00,3501.30696652,N,12208.41805497,W,2,11,0.9,6.740,M,-39.444,M,5.0,0131*6C
$PYRTM,2024,125.751192247801,16.860839657940
$GNHDT,170.455,T*29
$PYRTM,2024,125.751197980093,16.860845390231
$GNGGA,180143.50,3501.30571325,N,12208.41791565,W,2,11,0.9,6.776,M,-39.444,M,5.4,0131*69
$PYRTM,2024,125.751197980093,16.860845390231
$GNHDT,170.460,T*2F
$PYRTM,2024,125.751203815995,16.860851226134
$GNGGA,180144.00,3501.30446494,N,12208.41774103,W,2,11,0.9,6.872,M,-39.444,M,6.0,0131*60
$PYRTM,2024,125.751203815995,16.860851226134
$GNHDT,170.570,T*2F
$PYRTM,2024,125.751209558391,16.860856968530
$GNGGA,180144.50,3501.30321271,N,12208.41753287,W,2,11,0.9,6.994,M,-39.444,M,6.4,0131*69
$PYRTM,2024,125.751209558391,16.860856968530
$GNHDT,170.536,T*2D
$PYRTM,2024,125.751215392986,16.860862803137
$GNGGA,180145.00,3501.30195270,N,12208.41732691,W,2,11,0.9,7.105,M,-39.444,M,7.0,0131*61
$PYRTM,2024,125.751215392986,16.860862803137
$GNHDT,170.796,T*25
$PYRTM,2024,125.751221133056,16.860868543194
$GNGGA,180145.50,3501.30067079,N,12208.41714786,W,2,11,0.9,7.141,M,-39.444,M,7.4,0131*64
$PYRTM,2024,125.751221133056,16.860868543194
$GNHDT,171.249,T*23
$PYRTM,2024,125.751226964942,16.860874375081
$GNGGA,180146.00,3501.29936434,N,12208.41700750,W,2,11,0.9,7.132,M,-39.444,M,7.0,0131*64
$PYRTM,2024,125.751226964942,16.860874375081
$GNHDT,171.559,T*25
$PYRTM,2024,125.751232707280,16.860880117431
$GNGGA,180146.50,3501.29803477,N,12208.41691177,W,2,11,0.9,7.071,M,-39.444,M,7.4,0131*69
$PYRTM,2024,125.751232707280,16.860880117431
$GNHDT,172.116,T*29
$PYRTM,2024,125.751238542187,16.860885952326
$GNGGA,180147.00,3501.29669692,N,12208.41683718,W,2,11,0.9,7.062,M,-39.444,M,7.0,0131*6C
$PYRTM,2024,125.751238542187,16.860885952326
$GNHDT,172.340,T*28
$PYRTM,2024,125.751244276586,16.860891686736
$GNGGA,180147.50,3501.29535935,N,12208.41675372,W,2,11,0.9,7.142,M,-39.444,M,7.4,0131*67
$PYRTM,2024,125.751244276586,16.860891686736
$GNHDT,172.758,T*25
$PYRTM,2024,125.751250119803,16.860897529942
$GNGGA,180148.00,3501.29402395,N,12208.41662311,W,2,11,0.9,7.360,M,-39.444,M,4.0,0131*6E
$PYRTM,2024,125.751250119803,16.860897529942
$GNHDT,172.689,T*28
$PYRTM,2024,125.751255854109,16.860903264248
$GNGGA,180148.50,3501.29267939,N,12208.41643688,W,2,11,0.9,7.640,M,-39.444,M,4.4,0131*67
$PYRTM,2024,125.751255854109,16.860903264248
$GNHDT,172.585,T*27
$PYRTM,2024,125.751261691030,16.860909101169
$GNGGA,180149.00,3501.29131141,N,12208.41621770,W,2,11,0.9,7.921,M,-39.444,M,5.0,0131*6B
$PYRTM,2024,125.751261691030,16.860909101169
$GNHDT,172.554,T*2B
$PYRTM,2024,125.751267428912,16.860914839051
$GNGGA,180149.50,3501.28991549,N,12208.41597915,W,2,11,0.9,8.111,M,-39.444,M,5.4,0131*62
$PYRTM,2024,125.751267428912,16.860914839051
$GNHDT,172.701,T*29
$PYRTM,2024,125.751273263021,16.860920673160
$GNGGA,180150.00,3501.28849873,N,12208.41572924,W,2,11,0.9,8.188,M,-39.444,M,6.0,0131*61
$PYRTM,2024,125.751273263021,16.860920673160
$GNHDT,172.585,T*27
$PYRTM,2024,125.751278997870,16.860926408009
$GNGGA,180150.50,3501.28707417,N,12208.41546310,W,2,11,0.9,8.174,M,-39.444,M,6.4,0131*62
$PYRTM,2024,125.751278997870,16.860926408009
$GNHDT,172.548,T*26
$PYRTM,2024,125.751284839618,16.860932249757
$GNGGA,180151.00,3501.28565592,N,12208.41517962,W,2,11,0.9,8.104,M,-39.444,M,7.0,0131*65
$PYRTM,2024,125.751284839618,16.860932249757
$GNHDT,172.451,T*2F
$PYRTM,2024,125.751290577280,16.860937987419
$GNGGA,180151.50,3501.28425414,N,12208.41490780,W,2,11,0.9,8.009,M,-39.444,M,7.4,0131*6E
$PYRTM,2024,125.751290577280,16.860937987419
$GNHDT,172.672,T*2C
$PYRTM,2024,125.751296414711,16.860943824850
$GNGGA,180152.00,3501.28286689,N,12208.41468800,W,2,11,0.9,7.870,M,-39.444,M,7.0,0131*6C
$PYRTM,2024,125.751296414711,16.860943824850
$GNHDT,172.525,T*2D
$PYRTM,2024,125.751302153715,16.860949563854
$GNGGA,180152.50,3501.28148541,N,12208.41455139,W,2,11,0.9,7.676,M,-39.445,M,7.4,0131*6F
$PYRTM,2024,125.751302153715,16.860949563854
$GNHDT,172.707,T*2F
$PYRTM,2024,125.751307986505,16.860955396644
$GNGGA,180153.00,3501.28010561,N,12208.41448073,W,2,11,0.9,7.448,M,-39.445,M,7.0,0131*6D
$PYRTM,2024,125.751307986505,16.860955396644
$GNHDT,172.843,T*20
$PYRTM,2024,125.751313725486,16.860961135625
$GNGGA,180153.50,3501.27872784,N,12208.41441860,W,2,11,0.9,7.210,M,-39.445,M,7.4,0131*6E
$PYRTM,2024,125.751313725486,16.860961135625
$GNHDT,172.305,T*29
$PYRTM,2024,125.751319560231,16.860966970382
$GNGGA,180154.00,3501.27736852,N,12208.41434182,W,2,11,0.9,7.084,M,-39.445,M,4.0,0131*68
$PYRTM,2024,125.751319560231,16.860966970382
$GNHDT,172.248,T*21
$PYRTM,2024,125.751325297199,16.860972707338
$GNGGA,180154.50,3501.27601698,N,12208.41417825,W,2,11,0.9,7.085,M,-39.445,M,4.4,0131*60
$PYRTM,2024,125.751325297199,16.860972707338
$GNHDT,172.165,T*2D
$PYRTM,2024,125.751331131887,16.860978542037
$GNGGA,180155.00,3501.27468722,N,12208.41392500,W,2,11,0.9,7.225,M,-39.445,M,5.0,0131*64
$PYRTM,2024,125.751331131887,16.860978542037
$GNHDT,172.023,T*2E
$PYRTM,2024,125.751336869271,16.860984279410
$GNGGA,180155.50,3501.27337197,N,12208.41362188,W,2,11,0.9,7.451,M,-39.445,M,5.4,0131*6E
$PYRTM,2024,125.751336869271,16.860984279410
$GNHDT,171.993,T*2F
$PYRTM,2024,125.751342706227,16.860990116366
$GNGGA,180156.00,3501.27207168,N,12208.41332592,W,2,11,0.9,7.688,M,-39.445,M,6.0,0131*61
$PYRTM,2024,125.751342706227,16.860990116366
$GNHDT,172.109,T*27
$PYRTM,2024,125.751348448137,16.860995858287
$GNGGA,180156.50,3501.27076537,N,12208.41310163,W,2,11,0.9,7.809,M,-39.445,M,6.4,0131*67
$PYRTM,2024,125.751348448137,16.860995858287
$GNHDT,172.004,T*2B
$PYRTM,2024,125.751354285035,16.861001695185
$GNGGA,180157.00,3501.26945214,N,12208.41300604,W,2,11,0.9,7.752,M,-39.445,M,7.0,0131*6E
$PYRTM,2024,125.751354285035,16.861001695185
$GNHDT,172.099,T*2F
$PYRTM,2024,125.751360021678,16.861007431817
$GNGGA,180157.50,3501.26813381,N,12208.41298496,W,2,11,0.9,7.601,M,-39.445,M,7.4,0131*6E
$PYRTM,2024,125.751360021678,16.861007431817
$GNHDT,171.862,T*20
$PYRTM,2024,125.751365855023,16.861013265162
$GNGGA,180158.00,3501.26681797,N,12208.41301265,W,2,11,0.9,7.374,M,-39.445,M,7.0,0131*6A
$PYRTM,2024,125.751365855023,16.861013265162
$GNHDT,171.507,T*2E
$PYRTM,2024,125.751371595463,16.861019005602
$GNGGA,180158.50,3501.26550063,N,12208.41301933,W,2,11,0.9,7.226,M,-39.445,M,7.4,0131*66
$PYRTM,2024,125.751371595463,16.861019005602
$GNHDT,171.410,T*29
$PYRTM,2024,125.751377429977,16.861024840127
$GNGGA,180159.00,3501.26418135,N,12208.41295057,W,2,11,0.9,7.171,M,-39.445,M,7.0,0131*6F
$PYRTM,2024,125.751377429977,16.861024840127
$GNHDT,171.402,T*2A
$PYRTM,2024,125.751383172616,16.861030582755
$GNGGA,180159.50,3501.26286123,N,12208.41280102,W,2,11,0.9,7.217,M,-39.445,M,7.4,0131*6E
$PYRTM,2024,125.751383172616,16.861030582755
$GNHDT,171.472,T*2D
$PYRTM,2024,125.751389004491,16.861036414630
$GNGGA,180200.00,3501.26152454,N,12208.41258077,W,2,11,0.9,7.320,M,-39.445,M,4.0,0131*6F
$PYRTM,2024,125.751389004491,16.861036414630
$GNHDT,171.749,T*26
$PYRTM,2024,125.751394744144,16.861042154282
$GNGGA,180200.50,3501.26017712,N,12208.41230894,W,2,11,0.9,7.496,M,-39.445,M,4.4,0131*6E
$PYRTM,2024,125.751394744144,16.861042154282
$GNHDT,171.637,T*2E
$PYRTM,2024,125.751400575764,16.861047985903
$GNGGA,180201.00,3501.25882862,N,12208.41201342,W,2,11,0.9,7.676,M,-39.445,M,5.0,0131*6E
$PYRTM,2024,125.751400575764,16.861047985903
$GNHDT,171.759,T*27
$PYRTM,2024,125.751406314850,16.861053724988
$GNGGA,180201.50,3501.25747951,N,12208.41172379,W,2,11,0.9,7.886,M,-39.445,M,5.4,0131*66
$PYRTM,2024,125.751406314850,16.861053724988
$GNHDT,171.814,T*21
$PYRTM,2024,125.751412152824,16.861059562963
$GNGGA,180202.00,3501.25612085,N,12208.41147601,W,2,11,0.9,8.048,M,-39.445,M,6.0,0131*6F
$PYRTM,2024,125.751412152824,16.861059562963
$GNHDT,172.142,T*28
$PYRTM,2024,125.751417887905,16.861065298044
$GNGGA,180202.50,3501.25474847,N,12208.41128678,W,2,11,0.9,8.140,M,-39.445,M,6.4,0131*64
$PYRTM,2024,125.751417887905,16.861065298044
$GNHDT,172.003,T*2C
$PYRTM,2024,125.751423727083,16.861071137222
$GNGGA,180203.00,3501.25336314,N,12208.41115060,W,2,11,0.9,8.093,M,-39.445,M,7.0,0131*67
$PYRTM,2024,125.751423727083,16.861071137222
$GNHDT,172.063,T*2A
$PYRTM,2024,125.751429465451,16.861076875590
$GNGGA,180203.50,3501.25196620,N,12208.41105583,W,2,11,0.9,7.947,M,-39.445,M,7.4,0131*6A
$PYRTM,2024,125.751429465451,16.861076875590
$GNHDT,171.815,T*20
$PYRTM,2024,125.751435300370,16.861082710509
$GNGGA,180204.00,3501.25055182,N,12208.41096265,W,2,11,0.9,7.725,M,-39.445,M,7.0,0131*63
$PYRTM,2024,125.751435300370,16.861082710509
$GNHDT,172.466,T*2B
$PYRTM,2024,125.751441037535,16.861088447674
$GNGGA,180204.50,3501.24913225,N,12208.41083451,W,2,11,0.9,7.501,M,-39.445,M,7.4,0131*67
$PYRTM,2024,125.751441037535,16.861088447674
$GNHDT,172.273,T*29
$PYRTM,2024,125.751446872639,16.861094282789
$GNGGA,180205.00,3501.24772395,N,12208.41065207,W,2,11,0.9,7.367,M,-39.445,M,7.0,0131*6F
$PYRTM,2024,125.751446872639,16.861094282789
$GNHDT,172.622,T*29
$PYRTM,2024,125.751452617604,16.861100027755
$GNGGA,180205.50,3501.24634174,N,12208.41037961,W,2,11,0.9,7.376,M,-39.445,M,7.4,0131*6C
$PYRTM,2024,125.751452617604,16.861100027755
$GNHDT,172.848,T*2B
$PYRTM,2024,125.751458451979,16.861105862118
$GNGGA,180206.00,3501.24500204,N,12208.41003542,W,2,11,0.9,7.561,M,-39.445,M,4.0,0131*67
$PYRTM,2024,125.751458451979,16.861105862118
$GNHDT,172.759,T*24
$PYRTM,2024,125.751464187731,16.861111597870
$GNGGA,180206.50,3501.24369982,N,12208.40967147,W,2,11,0.9,7.870,M,-39.445,M,4.4,0131*6C
$PYRTM,2024,125.751464187731,16.861111597870
$GNHDT,172.550,T*2F
$PYRTM,2024,125.751470024653,16.861117434803
$GNGGA,180207.00,3501.24241256,N,12208.40934141,W,2,11,0.9,8.124,M,-39.445,M,5.0,0131*63
$PYRTM,2024,125.751470024653,16.861117434803
$GNHDT,172.129,T*25
$PYRTM,2024,125.751475764954,16.861123175093
$GNGGA,180207.50,3501.24109731,N,12208.40913685,W,2,11,0.9,8.110,M,-39.445,M,5.4,0131*64
$PYRTM,2024,125.751475764954,16.861123175093
$GNHDT,172.020,T*2D
$PYRTM,2024,125.751481598229,16.861129008368
$GNGGA,180208.00,3501.23975444,N,12208.40906024,W,2,11,0.9,7.853,M,-39.445,M,6.0,0131*64
$PYRTM,2024,125.751481598229,16.861129008368
$GNHDT,171.763,T*2E
$PYRTM,2024,125.751487336157,16.861134746296
$GNGGA,180208.50,3501.23840671,N,12208.40906907,W,2,11,0.9,7.420,M,-39.445,M,6.4,0131*66
$PYRTM,2024,125.751487336157,16.861134746296
$GNHDT,171.629,T*21
$PYRTM,2024,125.751493174363,16.861140584502
$GNGGA,180209.00,3501.23708550,N,12208.40909846,W,2,11,0.9,6.984,M,-39.445,M,7.0,0131*6D
$PYRTM,2024,125.751493174363,16.861140584502
$GNHDT,171.429,T*23
$PYRTM,2024,125.751498910961,16.861146321100
$GNGGA,180209.50,3501.23580187,N,12208.40909687,W,2,11,0.9,6.648,M,-39.445,M,7.4,0131*6C
$PYRTM,2024,125.751498910961,16.861146321100
$GNHDT,170.820,T*27
$PYRTM,2024,125.751504743785,16.861152153924
$GNGGA,180210.00,3501.23455847,N,12208.40903446,W,2,11,0.9,6.590,M,-39.445,M,7.0,0131*6A
$PYRTM,2024,125.751504743785,16.861152153924
$GNHDT,170.619,T*23
$PYRTM,2024,125.751510485729,16.861157895880
$GNGGA,180210.50,3501.23332174,N,12208.40890228,W,2,11,0.9,6.698,M,-39.445,M,7.4,0131*6A
$PYRTM,2024,125.751510485729,16.861157895880
$GNHDT,170.843,T*22
$PYRTM,2024,125.751516317766,16.861163727905
$GNGGA,180211.00,3501.23207399,N,12208.40868313,W,2,11,0.9,6.981,M,-39.445,M,7.0,0131*65
$PYRTM,2024,125.751516317766,16.861163727905
$GNHDT,170.955,T*24
$PYRTM,2024,125.751522068646,16.861169478796
$GNGGA,180211.50,3501.23078502,N,12208.40842651,W,2,11,0.9,7.287,M,-39.445,M,7.4,0131*6D
$PYRTM,2024,125.751522068646,16.861169478796
$GNHDT,171.519,T*21
$PYRTM,2024,125.751527891736,16.861175301875
$GNGGA,180212.00,3501.22946269,N,12208.40815892,W,2,11,0.9,7.579,M,-39.445,M,4.0,0131*66
$PYRTM,2024,125.751527891736,16.861175301875
$GNHDT,172.232,T*2C
$PYRTM,2024,125.751533631609,16.861181041759
$GNGGA,180212.50,3501.22812359,N,12208.40793269,W,2,11,0.9,7.822,M,-39.445,M,4.4,0131*69
$PYRTM,2024,125.751533631609,16.861181041759
$GNHDT,172.310,T*2D
$PYRTM,2024,125.751539469271,16.861186879410
$GNGGA,180213.00,3501.22677807,N,12208.40776848,W,2,11,0.9,8.040,M,-39.445,M,5.0,0131*64
$PYRTM,2024,125.751539469271,16.861186879410
$GNHDT,172.929,T*2D
$PYRTM,2024,125.751545207986,16.861192618137
$GNGGA,180213.50,3501.22542342,N,12208.40765646,W,2,11,0.9,8.235,M,-39.445,M,5.4,0131*68
$PYRTM,2024,125.751545207986,16.861192618137
$GNHDT,173.466,T*2A
$PYRTM,2024,125.751551046887,16.861198457037
$GNGGA,180214.00,3501.22403731,N,12208.40756477,W,2,11,0.9,8.352,M,-39.445,M,6.0,0131*69
$PYRTM,2024,125.751551046887,16.861198457037
$GNHDT,173.858,T*2B
$PYRTM,2024,125.751556780613,16.861204190752
$GNGGA,180214.50,3501.22261998,N,12208.40745951,W,2,11,0.9,8.360,M,-39.445,M,6.4,0131*6D
$PYRTM,2024,125.751556780613,16.861204190752
$GNHDT,174.080,T*21
$PYRTM,2024,125.751562615729,16.861210025868
$GNGGA,180215.00,3501.22115702,N,12208.40728390,W,2,11,0.9,8.282,M,-39.445,M,7.0,0131*60
$PYRTM,2024,125.751562615729,16.861210025868
$GNHDT,173.951,T*23
$PYRTM,2024,125.751568354005,16.861215764144
$GNGGA,180215.50,3501.21967355,N,12208.40707269,W,2,11,0.9,8.081,M,-39.445,M,7.4,0131*62
$PYRTM,2024,125.751568354005,16.861215764144
$GNHDT,173.942,T*21
$PYRTM,2024,125.751574190914,16.861221601053
$GNGGA,180216.00,3501.21818109,N,12208.40682916,W,2,11,0.9,7.840,M,-39.445,M,7.0,0131*67
$PYRTM,2024,125.751574190914,16.861221601053
$GNHDT,174.239,T*21
$PYRTM,2024,125.751579927789,16.861227337928
$GNGGA,180216.50,3501.21671973,N,12208.40655625,W,2,11,0.9,7.646,M,-39.445,M,7.4,0131*6F
$PYRTM,2024,125.751579927789,16.861227337928
$GNHDT,174.181,T*21
$PYRTM,2024,125.751585761493,16.861233171632
$GNGGA,180217.00,3501.21530135,N,12208.40624346,W,2,11,0.9,7.581,M,-39.445,M,7.0,0131*6D
$PYRTM,2024,125.751585761493,16.861233171632
$GNHDT,173.891,T*2E
$PYRTM,2024,125.751591507813,16.861238917951
$GNGGA,180217.50,3501.21393220,N,12208.40590784,W,2,11,0.9,7.677,M,-39.445,M,7.4,0131*68
$PYRTM,2024,125.751591507813,16.861238917951
$GNHDT,173.370,T*2A
$PYRTM,2024,125.751597336748,16.861244746887
$GNGGA,180218.00,3501.21259514,N,12208.40558054,W,2,11,0.9,7.856,M,-39.445,M,4.0,0131*61
$PYRTM,2024,125.751597336748,16.861244746887
$GNHDT,172.832,T*26
$PYRTM,2024,125.751603073171,16.861250483310
$GNGGA,180218.50,3501.21126070,N,12208.40532206,W,2,11,0.9,7.997,M,-39.445,M,4.4,0131*69
$PYRTM,2024,125.751603073171,16.861250483310
$GNHDT,172.696,T*26
$PYRTM,2024,125.751608910139,16.861256320289
$GNGGA,180219.00,3501.20991655,N,12208.40516006,W,2,11,0.9,7.975,M,-39.445,M,5.0,0131*64
$PYRTM,2024,125.751608910139,16.861256320289
$GNHDT,172.001,T*2E
$PYRTM,2024,125.751614655914,16.861262066053
$GNGGA,180219.50,3501.20856107,N,12208.40509446,W,2,11,0.9,7.755,M,-39.445,M,5.4,0131*6D
$PYRTM,2024,125.751614655914,16.861262066053
$GNHDT,171.243,T*29
$PYRTM,2024,125.751620489514,16.861267899664
$GNGGA,180220.00,3501.20720646,N,12208.40509087,W,2,11,0.9,7.371,M,-39.446,M,6.0,0131*61
$PYRTM,2024,125.751620489514,16.861267899664
$GNHDT,170.609,T*22
$PYRTM,2024,125.751626226007,16.861273636146
$GNGGA,180220.50,3501.20587097,N,12208.40508923,W,2,11,0.9,6.943,M,-39.446,M,6.4,0131*69
$PYRTM,2024,125.751626226007,16.861273636146
$GNHDT,170.021,T*2E
$PYRTM,2024,125.751632060787,16.861279470926
$GNGGA,180221.00,3501.20457838,N,12208.40505807,W,2,11,0.9,6.581,M,-39.446,M,7.0,0131*61
$PYRTM,2024,125.751632060787,16.861279470926
$GNHDT,169.713,T*20
$PYRTM,2024,125.751637796759,16.861285206898
$GNGGA,180221.50,3501.20333281,N,12208.40497566,W,2,11,0.9,6.446,M,-39.446,M,7.4,0131*67
$PYRTM,2024,125.751637796759,16.861285206898
$GNHDT,169.458,T*2C
$PYRTM,2024,125.751643636528,16.861291046667
$GNGGA,180222.00,3501.20211617,N,12208.40484095,W,2,11,0.9,6.514,M,-39.446,M,7.0,0131*62
$PYRTM,2024,125.751643636528,16.861291046667
$GNHDT,169.567,T*21
$PYRTM,2024,125.751649370984,16.861296781123
$GNGGA,180222.50,3501.20089865,N,12208.40464911,W,2,11,0.9,6.746,M,-39.446,M,7.4,0131*65
$PYRTM,2024,125.751649370984,16.861296781123
$GNHDT,169.434,T*26
$PYRTM,2024,125.751655210208,16.861302620347
$GNGGA,180223.00,3501.19965738,N,12208.40441123,W,2,11,0.9,7.041,M,-39.446,M,7.0,0131*6C
$PYRTM,2024,125.751655210208,16.861302620347
$GNHDT,169.768,T*2C
$PYRTM,2024,125.751660948206,16.861308358345
$GNGGA,180223.50,3501.19838253,N,12208.40416259,W,2,11,0.9,7.320,M,-39.446,M,7.4,0131*64
$PYRTM,2024,125.751660948206,16.861308358345
$GNHDT,170.148,T*20
$PYRTM,2024,125.751666781586,16.861314191725
$GNGGA,180224.00,3501.19708358,N,12208.40394908,W,2,11,0.9,7.513,M,-39.446,M,4.0,0131*63
$PYRTM,2024,125.751666781586,16.861314191725
$GNHDT,170.325,T*29
$PYRTM,2024,125.751672523125,16.861319933264
$GNGGA,180224.50,3501.19577293,N,12208.40379690,W,2,11,0.9,7.618,M,-39.446,M,4.4,0131*6B
$PYRTM,2024,125.751672523125,16.861319933264
$GNHDT,170.888,T*25
$PYRTM,2024,125.751678356794,16.861325766933
$GNGGA,180225.00,3501.19445690,N,12208.40369057,W,2,11,0.9,7.656,M,-39.446,M,5.0,0131*6B
$PYRTM,2024,125.751678356794,16.861325766933
$GNHDT,171.233,T*2E
$PYRTM,2024,125.751684095845,16.861331505984
$GNGGA,180225.50,3501.19313104,N,12208.40357858,W,2,11,0.9,7.676,M,-39.446,M,5.4,0131*6C
$PYRTM,2024,125.751684095845,16.861331505984
$GNHDT,171.343,T*28
$PYRTM,2024,125.751689930023,16.861337340162
$GNGGA,180226.00,3501.19178662,N,12208.40341991,W,2,11,0.9,7.676,M,-39.446,M,6.0,0131*66
$PYRTM,2024,125.751689930023,16.861337340162
$GNHDT,171.318,T*26
$PYRTM,2024,125.751695674444,16.861343084583
$GNGGA,180226.50,3501.19042526,N,12208.40318989,W,2,11,0.9,7.694,M,-39.446,M,6.4,0131*65
$PYRTM,2024,125.751695674444,16.861343084583
$GNHDT,171.697,T*24
$PYRTM,2024,125.751701502164,16.861348912303
$GNGGA,180227.00,3501.18904338,N,12208.40289409,W,2,11,0.9,7.680,M,-39.446,M,7.0,0131*6E
$PYRTM,2024,125.751701502164,16.861348912303
$GNHDT,171.870,T*23
$PYRTM,2024,125.751707238912,16.861354649051
$GNGGA,180227.50,3501.18764945,N,12208.40256656,W,2,11,0.9,7.651,M,-39.446,M,7.4,0131*61
$PYRTM,2024,125.751707238912,16.861354649051
$GNHDT,172.007,T*28
$PYRTM,2024,125.751713082801,16.861360492940
$GNGGA,180228.00,3501.18624995,N,12208.40225640,W,2,11,0.9,7.569,M,-39.446,M,7.0,0131*6C
$PYRTM,2024,125.751713082801,16.861360492940
$GNHDT,171.868,T*2A
$PYRTM,2024,125.751718818299,16.861366228438
$GNGGA,180228.50,3501.18485189,N,12208.40201575,W,2,11,0.9,7.449,M,-39.446,M,7.4,0131*61
$PYRTM,2024,125.751718818299,16.861366228438
$GNHDT,171.759,T*27
$PYRTM,2024,125.751724652801,16.861372062951
