$PYRTM,2024,126.166666757801,17.276314167951
$GNGGA,040000.00,3425.79290690,N,12108.02018178,W,2,12,0.8,6.694,M,-38.206,M,4.0,0131*6F
$PYRTM,2024,126.166666757801,17.276314167951
$GNHDT,127.075,T*2D
$PYRTM,2024,126.166672490012,17.276319900150
$GNGGA,040000.50,3425.79204564,N,12108.01916731,W,2,12,0.8,6.704,M,-38.206,M,4.4,0131*6C
$PYRTM,2024,126.166672490012,17.276319900150
$GNHDT,126.891,T*2E
$PYRTM,2024,126.166678330069,17.276325740208
$GNGGA,040001.00,3425.79115279,N,12108.01811255,W,2,12,0.8,6.730,M,-38.206,M,5.0,0131*63
$PYRTM,2024,126.166678330069,17.276325740208
$GNHDT,126.530,T*28
$PYRTM,2024,126.166684066192,17.276331476331
$GNGGA,040001.50,3425.79026109,N,12108.01704499,W,2,12,0.8,6.775,M,-38.206,M,5.4,0131*6B
$PYRTM,2024,126.166684066192,17.276331476331
$GNHDT,125.812,T*26
$PYRTM,2024,126.166689910556,17.276337320694
$GNGGA,040002.00,3425.78937278,N,12108.01595431,W,2,12,0.8,6.886,M,-38.206,M,6.0,0131*6C
$PYRTM,2024,126.166689910556,17.276337320694
$GNHDT,125.011,T*2D
$PYRTM,2024,126.166695638125,17.276343048264
$GNGGA,040002.50,3425.78849591,N,12108.01484726,W,2,12,0.8,7.070,M,-38.206,M,6.4,0131*61
$PYRTM,2024,126.166695638125,17.276343048264
$GNHDT,124.508,T*21
$PYRTM,2024,126.166701479861,17.276348890012
$GNGGA,040003.00,3425.78763289,N,12108.01375789,W,2,12,0.8,7.343,M,-38.206,M,7.0,0131*66
$PYRTM,2024,126.166701479861,17.276348890012
$GNHDT,123.867,T*22
$PYRTM,2024,126.166707214410,17.276354624549
$GNGGA,040003.50,3425.78679623,N,12108.01267181,W,2,12,0.8,7.613,M,-38.206,M,7.4,0131*65
$PYRTM,2024,126.166707214410,17.276354624549
$GNHDT,123.845,T*22
$PYRTM,2024,126.166713054028,17.276360464167
$GNGGA,040004.00,3425.78597141,N,12108.01159852,W,2,12,0.8,7.865,M,-38.206,M,7.0,0131*65
$PYRTM,2024,126.166713054028,17.276360464167
$GNHDT,123.897,T*2D
$PYRTM,2024,126.166718789514,17.276366199664
$GNGGA,040004.50,3425.78513957,N,12108.01054034,W,2,12,0.8,8.008,M,-38.206,M,7.4,0131*6F
$PYRTM,2024,126.166718789514,17.276366199664
$GNHDT,124.116,T*2A
$PYRTM,2024,126.166724629421,17.276372039560
$GNGGA,040005.00,3425.78427641,N,12108.00950716,W,2,12,0.8,8.016,M,-38.206,M,7.0,0131*65
$PYRTM,2024,126.166724629421,17.276372039560
$GNHDT,124.540,T*2D
$PYRTM,2024,126.166730362836,17.276377772975
$GNGGA,040005.50,3425.78338630,N,12108.00850068,W,2,12,0.8,7.912,M,-38.206,M,7.4,0131*66
$PYRTM,2024,126.166730362836,17.276377772975
$GNHDT,125.069,T*22
$PYRTM,2024,126.166736204433,17.276383614583
$GNGGA,040006.00,3425.78247462,N,12108.00752395,W,2,12,0.8,7.734,M,-38.206,M,4.0,0131*6D
$PYRTM,2024,126.166736204433,17.276383614583
$GNHDT,125.944,T*24
$PYRTM,2024,126.166741936563,17.276389346713
$GNGGA,040006.50,3425.78157056,N,12108.00655896,W,2,12,0.8,7.542,M,-38.206,M,4.4,0131*60
$PYRTM,2024,126.166741936563,17.276389346713
$GNHDT,126.632,T*29
$PYRTM,2024,126.166747780475,17.276395190613
$GNGGA,040007.00,3425.78069839,N,12108.00555712,W,2,12,0.8,7.414,M,-38.206,M,5.0,0131*6E
$PYRTM,2024,126.166747780475,17.276395190613
$GNHDT,127.274,T*2E
$PYRTM,2024,126.166753508981,17.276400919120
$GNGGA,040007.50,3425.77985842,N,12108.00450799,W,2,12,0.8,7.379,M,-38.206,M,5.4,0131*6C
$PYRTM,2024,126.166753508981,17.276400919120
$GNHDT,127.414,T*2E
$PYRTM,2024,126.166759353009,17.276406763148
$GNGGA,040008.00,3425.77903081,N,12108.00341356,W,2,12,0.8,7.454,M,-38.206,M,6.0,0131*60
$PYRTM,2024,126.166759353009,17.276406763148
$GNHDT,127.606,T*2F
$PYRTM,2024,126.166765087986,17.276412498125
$GNGGA,040008.50,3425.77819582,N,12108.00228430,W,2,12,0.8,7.587,M,-38.206,M,6.4,0131*6B
$PYRTM,2024,126.166765087986,17.276412498125
$GNHDT,127.671,T*2F
$PYRTM,2024,126.166770923565,17.276418333704
$GNGGA,040009.00,3425.77734320,N,12108.00113468,W,2,12,0.8,7.782,M,-38.206,M,7.0,0131*65
$PYRTM,2024,126.166770923565,17.276418333704
$GNHDT,127.472,T*2E
$PYRTM,2024,126.166776657153,17.276424067292
$GNGGA,040009.50,3425.77647179,N,12107.99996975,W,2,12,0.8,7.959,M,-38.206,M,7.4,0131*6C
$PYRTM,2024,126.166776657153,17.276424067292
$GNHDT,127.077,T*2F
$PYRTM,2024,126.166782498646,17.276429908785
$GNGGA,040010.00,3425.77557178,N,12107.99879429,W,2,12,0.8,8.114,M,-38.206,M,7.0,0131*6C
$PYRTM,2024,126.166782498646,17.276429908785
$GNHDT,126.603,T*2B
$PYRTM,2024,126.166788234907,17.276435645046
$GNGGA,040010.50,3425.77464279,N,12107.99761483,W,2,12,0.8,8.183,M,-38.206,M,7.4,0131*66
$PYRTM,2024,126.166788234907,17.276435645046
$GNHDT,126.051,T*2A
$PYRTM,2024,126.166794069838,17.276441479977
$GNGGA,040011.00,3425.77368847,N,12107.99644133,W,2,12,0.8,8.172,M,-38.206,M,7.0,0131*6C
$PYRTM,2024,126.166794069838,17.276441479977
$GNHDT,125.392,T*25
$PYRTM,2024,126.166799806181,17.276447216319
$GNGGA,040011.50,3425.77272944,N,12107.99529074,W,2,12,0.8,8.101,M,-38.206,M,7.4,0131*6B
$PYRTM,2024,126.166799806181,17.276447216319
$GNHDT,125.117,T*2A
$PYRTM,2024,126.166805647338,17.276453057477
$GNGGA,040012.00,3425.77177109,N,12107.99415546,W,2,12,0.8,7.997,M,-38.206,M,4.0,0131*6F
$PYRTM,2024,126.166805647338,17.276453057477
$GNHDT,124.576,T*28
$PYRTM,2024,126.166811382593,17.276458792731
$GNGGA,040012.50,3425.77082996,N,12107.99303982,W,2,12,0.8,7.903,M,-38.206,M,4.4,0131*62
$PYRTM,2024,126.166811382593,17.276458792731
$GNHDT,124.312,T*2C
$PYRTM,2024,126.166817222685,17.276464632824
$GNGGA,040013.00,3425.76990551,N,12107.99194537,W,2,12,0.8,7.825,M,-38.206,M,5.0,0131*64
$PYRTM,2024,126.166817222685,17.276464632824
$GNHDT,124.245,T*2F
$PYRTM,2024,126.166822953565,17.276470363715
$GNGGA,040013.50,3425.76900192,N,12107.99087533,W,2,12,0.8,7.798,M,-38.206,M,5.4,0131*69
$PYRTM,2024,126.166822953565,17.276470363715
$GNHDT,124.480,T*20
$PYRTM,2024,126.166828798808,17.276476208947
$GNGGA,040014.00,3425.76812644,N,12107.98982291,W,2,12,0.8,7.819,M,-38.206,M,6.0,0131*66
$PYRTM,2024,126.166828798808,17.276476208947
$GNHDT,124.701,T*2A
$PYRTM,2024,126.166834531505,17.276481941644
$GNGGA,040014.50,3425.76727751,N,12107.98879481,W,2,12,0.8,7.899,M,-38.206,M,6.4,0131*61
$PYRTM,2024,126.166834531505,17.276481941644
$GNHDT,125.278,T*20
$PYRTM,2024,126.166840368171,17.276487778310
$GNGGA,040015.00,3425.76644567,N,12107.98779176,W,2,12,0.8,7.969,M,-38.206,M,7.0,0131*6F
$PYRTM,2024,126.166840368171,17.276487778310
$GNHDT,126.233,T*2C
$PYRTM,2024,126.166846100880,17.276493511019
$GNGGA,040015.50,3425.76562320,N,12107.98680874,W,2,12,0.8,8.001,M,-38.206,M,7.4,0131*68
$PYRTM,2024,126.166846100880,17.276493511019
$GNHDT,126.948,T*2B
$PYRTM,2024,126.166851945023,17.276499355162
$GNGGA,040016.00,3425.76481006,N,12107.98583267,W,2,12,0.8,8.000,M,-38.206,M,7.0,0131*68
$PYRTM,2024,126.166851945023,17.276499355162
$GNHDT,127.686,T*27
$PYRTM,2024,126.166857675324,17.276505085475
$GNGGA,040016.50,3425.76399511,N,12107.98484146,W,2,12,0.8,7.945,M,-38.206,M,7.4,0131*65
$PYRTM,2024,126.166857675324,17.276505085475
$GNHDT,128.234,T*25
$PYRTM,2024,126.166863516690,17.276510926829
$GNGGA,040017.00,3425.76318213,N,12107.98382833,W,2,12,0.8,7.837,M,-38.206,M,7.0,0131*67
$PYRTM,2024,126.166863516690,17.276510926829
$GNHDT,128.528,T*2F
$PYRTM,2024,126.166869252292,17.276516662431
$GNGGA,040017.50,3425.76237060,N,12107.98278984,W,2,12,0.8,7.721,M,-38.206,M,7.4,0131*6D
$PYRTM,2024,126.166869252292,17.276516662431
$GNHDT,128.886,T*26
$PYRTM,2024,126.166875091620,17.276522501759
$GNGGA,040018.00,3425.76156193,N,12107.98172116,W,2,12,0.8,7.592,M,-38.206,M,4.0,0131*69
$PYRTM,2024,126.166875091620,17.276522501759
$GNHDT,128.724,T*21
$PYRTM,2024,126.166880830116,17.276528240255
$GNGGA,040018.50,3425.76074432,N,12107.98062707,W,2,12,0.8,7.467,M,-38.206,M,4.4,0131*6A
$PYRTM,2024,126.166880830116,17.276528240255
$GNHDT,128.458,T*29
$PYRTM,2024,126.166886669919,17.276534080058
$GNGGA,040019.00,3425.75990365,N,12107.97949856,W,2,12,0.8,7.337,M,-38.206,M,5.0,0131*68
$PYRTM,2024,126.166886669919,17.276534080058
$GNHDT,127.923,T*27
$PYRTM,2024,126.166892399826,17.276539809965
$GNGGA,040019.50,3425.75903407,N,12107.97835378,W,2,12,0.8,7.250,M,-38.206,M,5.4,0131*6D
$PYRTM,2024,126.166892399826,17.276539809965
$GNHDT,126.928,T*2D
$PYRTM,2024,126.166898239896,17.276545650035
$GNGGA,040020.00,3425.75813781,N,12107.97720353,W,2,12,0.8,7.200,M,-38.206,M,6.0,0131*6F
$PYRTM,2024,126.166898239896,17.276545650035
$GNHDT,126.225,T*2B
$PYRTM,2024,126.166903976678,17.276551386817
$GNGGA,040020.50,3425.75722595,N,12107.97606137,W,2,12,0.8,7.221,M,-38.206,M,6.4,0131*62
$PYRTM,2024,126.166903976678,17.276551386817
$GNHDT,125.532,T*29
$PYRTM,2024,126.166909817535,17.276557227685
$GNGGA,040021.00,3425.75630227,N,12107.97493109,W,2,12,0.8,7.326,M,-38.206,M,7.0,0131*6A
$PYRTM,2024,126.166909817535,17.276557227685
$GNHDT,124.876,T*25
$PYRTM,2024,126.166915551273,17.276562961412
$GNGGA,040021.50,3425.75536809,N,12107.97382718,W,2,12,0.8,7.501,M,-38.206,M,7.4,0131*6A
$PYRTM,2024,126.166915551273,17.276562961412
$GNHDT,124.676,T*2B
$PYRTM,2024,126.166921387755,17.276568797894
$GNGGA,040022.00,3425.75441485,N,12107.97276575,W,2,12,0.8,7.685,M,-38.206,M,7.0,0131*6D
$PYRTM,2024,126.166921387755,17.276568797894
$GNHDT,124.684,T*26
$PYRTM,2024,126.166927124641,17.276574534780
$GNGGA,040022.50,3425.75344782,N,12107.97172638,W,2,12,0.8,7.782,M,-38.206,M,7.4,0131*61
$PYRTM,2024,126.166927124641,17.276574534780
$GNHDT,124.810,T*25
$PYRTM,2024,126.166932962199,17.276580372338
$GNGGA,040023.00,3425.75247807,N,12107.97071533,W,2,12,0.8,7.808,M,-38.206,M,7.0,0131*66
$PYRTM,2024,126.166932962199,17.276580372338
$GNHDT,125.212,T*2C
$PYRTM,2024,126.166938695058,17.276586105197
$GNGGA,040023.50,3425.75151863,N,12107.96971057,W,2,12,0.8,7.736,M,-38.206,M,7.4,0131*6C
$PYRTM,2024,126.166938695058,17.276586105197
$GNHDT,126.060,T*28
$PYRTM,2024,126.166944535706,17.276591945845
$GNGGA,040024.00,3425.75057834,N,12107.96870262,W,2,12,0.8,7.608,M,-38.206,M,4.0,0131*64
$PYRTM,2024,126.166944535706,17.276591945845
$GNHDT,126.764,T*2B
$PYRTM,2024,126.166950269398,17.276597679537
$GNGGA,040024.50,3425.74967051,N,12107.96768334,W,2,12,0.8,7.471,M,-38.206,M,4.4,0131*6D
$PYRTM,2024,126.166950269398,17.276597679537
$GNHDT,127.211,T*2D
$PYRTM,2024,126.166956108206,17.276603518356
$GNGGA,040025.00,3425.74879048,N,12107.96665096,W,2,12,0.8,7.413,M,-38.206,M,5.0,0131*69
$PYRTM,2024,126.166956108206,17.276603518356
$GNHDT,127.600,T*29
$PYRTM,2024,126.166961844838,17.276609254977
$GNGGA,040025.50,3425.74792701,N,12107.96560539,W,2,12,0.8,7.448,M,-38.206,M,5.4,0131*60
$PYRTM,2024,126.166961844838,17.276609254977
$GNHDT,127.789,T*29
$PYRTM,2024,126.166967687025,17.276615097164
$GNGGA,040026.00,3425.74706292,N,12107.96455601,W,2,12,0.8,7.560,M,-38.206,M,6.0,0131*67
$PYRTM,2024,126.166967687025,17.276615097164
$GNHDT,127.923,T*27
$PYRTM,2024,126.166973420995,17.276620831146
$GNGGA,040026.50,3425.74618789,N,12107.96350627,W,2,12,0.8,7.724,M,-38.206,M,6.4,0131*63
$PYRTM,2024,126.166973420995,17.276620831146
$GNHDT,127.970,T*21
$PYRTM,2024,126.166979261088,17.276626671227
$GNGGA,040027.00,3425.74531992,N,12107.96243496,W,2,12,0.8,7.892,M,-38.206,M,7.0,0131*67
$PYRTM,2024,126.166979261088,17.276626671227
$GNHDT,127.836,T*22
$PYRTM,2024,126.166984993044,17.276632403183
$GNGGA,040027.50,3425.74446441,N,12107.96133863,W,2,12,0.8,8.063,M,-38.205,M,7.4,0131*6C
$PYRTM,2024,126.166984993044,17.276632403183
$GNHDT,127.363,T*29
$PYRTM,2024,126.166990843148,17.276638253287
$GNGGA,040028.00,3425.74362810,N,12107.96022944,W,2,12,0.8,8.207,M,-38.205,M,7.0,0131*6E
$PYRTM,2024,126.166990843148,17.276638253287
$GNHDT,127.070,T*28
$PYRTM,2024,126.166996567234,17.276643977384
$GNGGA,040028.50,3425.74280582,N,12107.95912364,W,2,12,0.8,8.358,M,-38.205,M,7.4,0131*6E
$PYRTM,2024,126.166996567234,17.276643977384
$GNHDT,127.170,T*29
$PYRTM,2024,126.167002406331,17.276649816470
$GNGGA,040029.00,3425.74196163,N,12107.95803574,W,2,12,0.8,8.430,M,-38.205,M,7.0,0131*6E
$PYRTM,2024,126.167002406331,17.276649816470
$GNHDT,127.146,T*2C
$PYRTM,2024,126.167008139977,17.276655550127
$GNGGA,040029.50,3425.74108931,N,12107.95696411,W,2,12,0.8,8.399,M,-38.205,M,7.4,0131*63
$PYRTM,2024,126.167008139977,17.276655550127
$GNHDT,127.205,T*28
$PYRTM,2024,126.167013982963,17.276661393113
$GNGGA,040030.00,3425.74019908,N,12107.95590423,W,2,12,0.8,8.227,M,-38.205,M,4.0,0131*62
$PYRTM,2024,126.167013982963,17.276661393113
$GNHDT,127.111,T*2E
$PYRTM,2024,126.167019716574,17.276667126713
$GNGGA,040030.50,3425.73929690,N,12107.95485245,W,2,12,0.8,7.996,M,-38.205,M,4.4,0131*6D
$PYRTM,2024,126.167019716574,17.276667126713
$GNHDT,127.009,T*26
$PYRTM,2024,126.167025555451,17.276672965590
$GNGGA,040031.00,3425.73840417,N,12107.95380413,W,2,12,0.8,7.753,M,-38.205,M,5.0,0131*6F
$PYRTM,2024,126.167025555451,17.276672965590
$GNHDT,127.006,T*29
$PYRTM,2024,126.167031287431,17.276678697569
$GNGGA,040031.50,3425.73752960,N,12107.95273912,W,2,12,0.8,7.565,M,-38.205,M,5.4,0131*69
$PYRTM,2024,126.167031287431,17.276678697569
$GNHDT,127.081,T*26
$PYRTM,2024,126.167037135417,17.276684545556
$GNGGA,040032.00,3425.73667537,N,12107.95164539,W,2,12,0.8,7.468,M,-38.205,M,6.0,0131*6D
$PYRTM,2024,126.167037135417,17.276684545556
$GNHDT,126.854,T*27
$PYRTM,2024,126.167042866331,17.276690276481
$GNGGA,040032.50,3425.73582314,N,12107.95052077,W,2,12,0.8,7.440,M,-38.205,M,6.4,0131*62
$PYRTM,2024,126.167042866331,17.276690276481
$GNHDT,126.657,T*2A
$PYRTM,2024,126.167048705336,17.276696115475
$GNGGA,040033.00,3425.73495888,N,12107.94937616,W,2,12,0.8,7.484,M,-38.205,M,7.0,0131*68
$PYRTM,2024,126.167048705336,17.276696115475
$GNHDT,126.387,T*22
$PYRTM,2024,126.167054436169,17.276701846308
$GNGGA,040033.50,3425.73407536,N,12107.94824447,W,2,12,0.8,7.563,M,-38.205,M,7.4,0131*67
$PYRTM,2024,126.167054436169,17.276701846308
$GNHDT,126.241,T*29
$PYRTM,2024,126.167060280926,17.276707691065
$GNGGA,040034.00,3425.73317669,N,12107.94713112,W,2,12,0.8,7.679,M,-38.205,M,7.0,0131*68
$PYRTM,2024,126.167060280926,17.276707691065
$GNHDT,126.199,T*2F
$PYRTM,2024,126.167066009641,17.276713419780
$GNGGA,040034.50,3425.73224506,N,12107.94605373,W,2,12,0.8,7.774,M,-38.205,M,7.4,0131*6D
$PYRTM,2024,126.167066009641,17.276713419780
$GNHDT,126.242,T*2A
$PYRTM,2024,126.167071854676,17.276719264815
$GNGGA,040035.00,3425.73130132,N,12107.94498135,W,2,12,0.8,7.850,M,-38.205,M,7.0,0131*67
$PYRTM,2024,126.167071854676,17.276719264815
$GNHDT,126.154,T*2E
$PYRTM,2024,126.167077588345,17.276724998484
$GNGGA,040035.50,3425.73037530,N,12107.94387630,W,2,12,0.8,7.806,M,-38.205,M,7.4,0131*6E
$PYRTM,2024,126.167077588345,17.276724998484
$GNHDT,125.984,T*28
$PYRTM,2024,126.167083425347,17.276730835486
$GNGGA,040036.00,3425.72945928,N,12107.94278131,W,2,12,0.8,7.761,M,-38.205,M,4.0,0131*6E
$PYRTM,2024,126.167083425347,17.276730835486
$GNHDT,125.644,T*2B
$PYRTM,2024,126.167089157407,17.276736567546
$GNGGA,040036.50,3425.72856679,N,12107.94166202,W,2,12,0.8,7.621,M,-38.205,M,4.4,0131*6D
$PYRTM,2024,126.167089157407,17.276736567546
$GNHDT,125.366,T*2E
$PYRTM,2024,126.167095000058,17.276742410197
$GNGGA,040037.00,3425.72767759,N,12107.94056492,W,2,12,0.8,7.467,M,-38.205,M,5.0,0131*6F
$PYRTM,2024,126.167095000058,17.276742410197
$GNHDT,125.065,T*2E
$PYRTM,2024,126.167100736991,17.276748147141
$GNGGA,040037.50,3425.72677861,N,12107.93950936,W,2,12,0.8,7.282,M,-38.205,M,5.4,0131*6C
$PYRTM,2024,126.167100736991,17.276748147141
$GNHDT,124.764,T*29
$PYRTM,2024,126.167106577199,17.276753987338
$GNGGA,040038.00,3425.72586409,N,12107.93850605,W,2,12,0.8,7.114,M,-38.205,M,6.0,0131*6C
$PYRTM,2024,126.167106577199,17.276753987338
$GNHDT,124.696,T*25
$PYRTM,2024,126.167112313241,17.276759723391
$GNGGA,040038.50,3425.72493858,N,12107.93753962,W,2,12,0.8,7.017,M,-38.205,M,6.4,0131*60
$PYRTM,2024,126.167112313241,17.276759723391
$GNHDT,125.036,T*28
$PYRTM,2024,126.167118146944,17.276765557083
$GNGGA,040039.00,3425.72402245,N,12107.93659056,W,2,12,0.8,7.005,M,-38.205,M,7.0,0131*69
$PYRTM,2024,126.167118146944,17.276765557083
$GNHDT,125.205,T*2A
$PYRTM,2024,126.167123883866,17.276771294005
$GNGGA,040039.50,3425.72313398,N,12107.93562367,W,2,12,0.8,7.085,M,-38.205,M,7.4,0131*6C
$PYRTM,2024,126.167123883866,17.276771294005
$GNHDT,125.832,T*24
$PYRTM,2024,126.167129721574,17.276777131713
$GNGGA,040040.00,3425.72228559,N,12107.93460281,W,2,12,0.8,7.250,M,-38.205,M,7.0,0131*61
$PYRTM,2024,126.167129721574,17.276777131713
$GNHDT,126.306,T*2B
$PYRTM,2024,126.167135454502,17.276782864641
$GNGGA,040040.50,3425.72147783,N,12107.93351147,W,2,12,0.8,7.410,M,-38.205,M,7.4,0131*61
$PYRTM,2024,126.167135454502,17.276782864641
$GNHDT,126.354,T*2C
$PYRTM,2024,126.167141296655,17.276788706794
$GNGGA,040041.00,3425.72068644,N,12107.93236764,W,2,12,0.8,7.605,M,-38.205,M,7.0,0131*66
$PYRTM,2024,126.167141296655,17.276788706794
$GNHDT,126.529,T*20
$PYRTM,2024,126.167147028310,17.276794438449
$GNGGA,040041.50,3425.71988486,N,12107.93120687,W,2,12,0.8,7.787,M,-38.205,M,7.4,0131*6C
$PYRTM,2024,126.167147028310,17.276794438449
$GNHDT,126.817,T*20
$PYRTM,2024,126.167152876065,17.276800286204
$GNGGA,040042.00,3425.71905994,N,12107.93005125,W,2,12,0.8,7.980,M,-38.205,M,4.0,0131*66
$PYRTM,2024,126.167152876065,17.276800286204
$GNHDT,126.802,T*24
$PYRTM,2024,126.167158604549,17.276806014699
$GNGGA,040042.50,3425.71819957,N,12107.92890296,W,2,12,0.8,8.128,M,-38.205,M,4.4,0131*6F
$PYRTM,2024,126.167158604549,17.276806014699
$GNHDT,126.736,T*2C
$PYRTM,2024,126.167164442998,17.276811853137
$GNGGA,040043.00,3425.71730898,N,12107.92776058,W,2,12,0.8,8.242,M,-38.205,M,5.0,0131*60
$PYRTM,2024,126.167164442998,17.276811853137
$GNHDT,126.720,T*2B
$PYRTM,2024,126.167170175637,17.276817585775
$GNGGA,040043.50,3425.71639947,N,12107.92662132,W,2,12,0.8,8.298,M,-38.205,M,5.4,0131*64
$PYRTM,2024,126.167170175637,17.276817585775
$GNHDT,126.551,T*2F
$PYRTM,2024,126.167176018588,17.276823428738
$GNGGA,040044.00,3425.71547948,N,12107.92549964,W,2,11,0.9,8.302,M,-38.205,M,6.0,0131*65
$PYRTM,2024,126.167176018588,17.276823428738
$GNHDT,126.316,T*2A
$PYRTM,2024,126.167181750937,17.276829161076
$GNGGA,040044.50,3425.71456649,N,12107.92437965,W,2,12,0.9,8.221,M,-38.205,M,6.4,0131*61
$PYRTM,2024,126.167181750937,17.276829161076
$GNHDT,126.378,T*22
$PYRTM,2024,126.167187589919,17.276835000069
$GNGGA,040045.00,3425.71367474,N,12107.92326231,W,2,12,0.8,8.126,M,-38.205,M,7.0,0131*61
$PYRTM,2024,126.167187589919,17.276835000069
$GNHDT,126.247,T*2F
$PYRTM,2024,126.167193326817,17.276840736956
$GNGGA,040045.50,3425.71280545,N,12107.92214679,W,2,12,0.8,8.013,M,-38.205,M,7.4,0131*64
$PYRTM,2024,126.167193326817,17.276840736956
$GNHDT,126.259,T*20
$PYRTM,2024,126.167199170613,17.276846580752
$GNGGA,040046.00,3425.71195264,N,12107.92103527,W,2,12,0.8,7.886,M,-38.205,M,7.0,0131*63
$PYRTM,2024,126.167199170613,17.276846580752
$GNHDT,126.212,T*2F
$PYRTM,2024,126.167204899016,17.276852309155
$GNGGA,040046.50,3425.71111727,N,12107.91991570,W,2,12,0.8,7.734,M,-38.205,M,7.4,0131*68
$PYRTM,2024,126.167204899016,17.276852309155
$GNHDT,126.064,T*2C
$PYRTM,2024,126.167210747766,17.276858157905
$GNGGA,040047.00,3425.71028088,N,12107.91880154,W,2,12,0.8,7.619,M,-38.205,M,7.0,0131*6C
$PYRTM,2024,126.167210747766,17.276858157905
$GNHDT,126.239,T*26
$PYRTM,2024,126.167216476933,17.276863887072
$GNGGA,040047.50,3425.70942454,N,12107.91770484,W,2,12,0.8,7.478,M,-38.205,M,7.4,0131*61
$PYRTM,2024,126.167216476933,17.276863887072
$GNHDT,126.172,T*2A
$PYRTM,2024,126.167222312731,17.276869722870
$GNGGA,040048.00,3425.70853200,N,12107.91662969,W,2,12,0.8,7.347,M,-38.205,M,4.0,0131*6D
$PYRTM,2024,126.167222312731,17.276869722870
$GNHDT,125.978,T*2B
$PYRTM,2024,126.167228050394,17.276875460532
$GNGGA,040048.50,3425.70758520,N,12107.91555766,W,2,12,0.8,7.168,M,-38.205,M,4.4,0131*64
$PYRTM,2024,126.167228050394,17.276875460532
$GNHDT,125.750,T*2F
$PYRTM,2024,126.167233887824,17.276881297963
$GNGGA,040049.00,3425.70661442,N,12107.91451196,W,2,12,0.8,7.093,M,-38.205,M,5.0,0131*62
$PYRTM,2024,126.167233887824,17.276881297963
$GNHDT,125.568,T*26
$PYRTM,2024,126.167239623900,17.276887034039
$GNGGA,040049.50,3425.70564847,N,12107.91345997,W,2,12,0.8,7.137,M,-38.205,M,5.4,0131*68
$PYRTM,2024,126.167239623900,17.276887034039
$GNHDT,125.306,T*28
$PYRTM,2024,126.167245467280,17.276892877419
$GNGGA,040050.00,3425.70472274,N,12107.91237401,W,2,12,0.8,7.270,M,-38.205,M,6.0,0131*68
$PYRTM,2024,126.167245467280,17.276892877419
$GNHDT,125.023,T*2C
$PYRTM,2024,126.167251201343,17.276898611481
$GNGGA,040050.50,3425.70383213,N,12107.91130769,W,2,12,0.8,7.512,M,-38.205,M,6.4,0131*6B
$PYRTM,2024,126.167251201343,17.276898611481
$GNHDT,125.433,T*29
$PYRTM,2024,126.167257033970,17.276904444109
$GNGGA,040051.00,3425.70297012,N,12107.91023521,W,2,12,0.8,7.751,M,-38.205,M,7.0,0131*65
$PYRTM,2024,126.167257033970,17.276904444109
$GNHDT,125.716,T*2D
$PYRTM,2024,126.167262770706,17.276910180856
$GNGGA,040051.50,3425.70212394,N,12107.90917243,W,2,12,0.8,7.927,M,-38.205,M,7.4,0131*67
$PYRTM,2024,126.167262770706,17.276910180856
$GNHDT,126.146,T*2D
$PYRTM,2024,126.167268611528,17.276916021678
$GNGGA,040052.00,3425.70129082,N,12107.90811259,W,2,12,0.8,7.941,M,-38.205,M,7.0,0131*66
$PYRTM,2024,126.167268611528,17.276916021678
$GNHDT,126.659,T*24
$PYRTM,2024,126.167274346134,17.276921756273
$GNGGA,040052.50,3425.70044697,N,12107.90707243,W,2,12,0.8,7.823,M,-38.205,M,7.4,0131*69
$PYRTM,2024,126.167274346134,17.276921756273
$GNHDT,127.119,T*26
$PYRTM,2024,126.167280185868,17.276927596007
$GNGGA,040053.00,3425.69959274,N,12107.90606716,W,2,12,0.8,7.572,M,-38.205,M,7.0,0131*61
$PYRTM,2024,126.167280185868,17.276927596007
$GNHDT,127.640,T*2D
$PYRTM,2024,126.167285916562,17.276933326701
$GNGGA,040053.50,3425.69873369,N,12107.90508519,W,2,12,0.8,7.273,M,-38.205,M,7.4,0131*62
$PYRTM,2024,126.167285916562,17.276933326701
$GNHDT,127.802,T*25
$PYRTM,2024,126.167291757604,17.276939167743
$GNGGA,040054.00,3425.69788056,N,12107.90412403,W,2,12,0.8,7.026,M,-38.205,M,4.0,0131*61
$PYRTM,2024,126.167291757604,17.276939167743
$GNHDT,128.108,T*29
$PYRTM,2024,126.167297499294,17.276944909433
$GNGGA,040054.50,3425.69703835,N,12107.90316896,W,2,12,0.8,6.875,M,-38.205,M,4.4,0131*62
$PYRTM,2024,126.167297499294,17.276944909433
$GNHDT,128.102,T*23
$PYRTM,2024,126.167303334965,17.276950745104
$GNGGA,040055.00,3425.69620190,N,12107.90219194,W,2,12,0.8,6.865,M,-38.205,M,5.0,0131*61
$PYRTM,2024,126.167303334965,17.276950745104
$GNHDT,127.932,T*27
$PYRTM,2024,126.167309067488,17.276956477627
$GNGGA,040055.50,3425.69536219,N,12107.90114960,W,2,12,0.8,6.931,M,-38.205,M,5.4,0131*6B
$PYRTM,2024,126.167309067488,17.276956477627
$GNHDT,127.958,T*2B
$PYRTM,2024,126.167314905741,17.276962315880
$GNGGA,040056.00,3425.69451937,N,12107.90003951,W,2,12,0.8,7.056,M,-38.205,M,6.0,0131*61
$PYRTM,2024,126.167314905741,17.276962315880
$GNHDT,127.836,T*22
$PYRTM,2024,126.167320640799,17.276968050949
$GNGGA,040056.50,3425.69366783,N,12107.89889211,W,2,12,0.8,7.219,M,-38.205,M,6.4,0131*66
$PYRTM,2024,126.167320640799,17.276968050949
$GNHDT,127.635,T*2F
$PYRTM,2024,126.167326478611,17.276973888762
$GNGGA,040057.00,3425.69279090,N,12107.89774338,W,2,12,0.8,7.428,M,-38.205,M,7.0,0131*6E
$PYRTM,2024,126.167326478611,17.276973888762
$GNHDT,127.341,T*29
$PYRTM,2024,126.167332215579,17.276979625729
$GNGGA,040057.50,3425.69189702,N,12107.89660004,W,2,12,0.8,7.640,M,-38.205,M,7.4,0131*6B
$PYRTM,2024,126.167332215579,17.276979625729
$GNHDT,126.857,T*24
$PYRTM,2024,126.167338061748,17.276985471887
$GNGGA,040058.00,3425.69096536,N,12107.89546793,W,2,12,0.8,7.766,M,-38.205,M,7.0,0131*64
$PYRTM,2024,126.167338061748,17.276985471887
$GNHDT,126.582,T*21
$PYRTM,2024,126.167343795058,17.276991205208
$GNGGA,040058.50,3425.68998874,N,12107.89435945,W,2,12,0.8,7.788,M,-38.205,M,7.4,0131*68
$PYRTM,2024,126.167343795058,17.276991205208
$GNHDT,126.476,T*2B
$PYRTM,2024,126.167349628044,17.276997038183
$GNGGA,040059.00,3425.68895921,N,12107.89329398,W,2,12,0.8,7.719,M,-38.205,M,7.0,0131*6D
$PYRTM,2024,126.167349628044,17.276997038183
$GNHDT,126.640,T*2C
$PYRTM,2024,126.167355364653,17.277002774792
$GNGGA,040059.50,3425.68791615,N,12107.89225758,W,2,12,0.8,7.598,M,-38.205,M,7.4,0131*61
$PYRTM,2024,126.167355364653,17.277002774792
$GNHDT,126.737,T*2D
$PYRTM,2024,126.167361202454,17.277008612593
$GNGGA,040100.00,3425.68689577,N,12107.89123816,W,2,12,0.8,7.486,M,-38.205,M,4.0,0131*6F
$PYRTM,2024,126.167361202454,17.277008612593
$GNHDT,126.755,T*29
$PYRTM,2024,126.167366936759,17.277014346910
$GNGGA,040100.50,3425.68593765,N,12107.89022625,W,2,12,0.8,7.480,M,-38.205,M,4.4,0131*6F
$PYRTM,2024,126.167366936759,17.277014346910
$GNHDT,126.751,T*2D
$PYRTM,2024,126.167372776331,17.277020186470
$GNGGA,040101.00,3425.68505496,N,12107.88920026,W,2,12,0.8,7.582,M,-38.205,M,5.0,0131*62
$PYRTM,2024,126.167372776331,17.277020186470
$GNHDT,126.902,T*25
$PYRTM,2024,126.167378509722,17.277025919873
$GNGGA,040101.50,3425.68423505,N,12107.88814848,W,2,12,0.8,7.678,M,-38.205,M,5.4,0131*6D
$PYRTM,2024,126.167378509722,17.277025919873
$GNHDT,127.158,T*23
$PYRTM,2024,126.167384348461,17.277031758600
$GNGGA,040102.00,3425.68344164,N,12107.88708951,W,2,12,0.8,7.777,M,-38.205,M,6.0,0131*6C
$PYRTM,2024,126.167384348461,17.277031758600
$GNHDT,127.364,T*2E
$PYRTM,2024,126.167390090266,17.277037500417
$GNGGA,040102.50,3425.68263303,N,12107.88604338,W,2,12,0.8,7.768,M,-38.205,M,6.4,0131*6C
$PYRTM,2024,126.167390090266,17.277037500417
$GNHDT,127.401,T*2A
$PYRTM,2024,126.167395927176,17.277043337315
$GNGGA,040103.00,3425.68178441,N,12107.88502681,W,2,12,0.8,7.667,M,-38.205,M,7.0,0131*69
$PYRTM,2024,126.167395927176,17.277043337315
$GNHDT,127.368,T*22
$PYRTM,2024,126.167401660613,17.277049070752
$GNGGA,040103.50,3425.68090884,N,12107.88404017,W,2,12,0.8,7.512,M,-38.205,M,7.4,0131*65
$PYRTM,2024,126.167401660613,17.277049070752
$GNHDT,127.184,T*22
$PYRTM,2024,126.167407501146,17.277054911285
$GNGGA,040104.00,3425.68001935,N,12107.88308321,W,2,12,0.8,7.379,M,-38.205,M,7.0,0131*66
$PYRTM,2024,126.167407501146,17.277054911285
$GNHDT,126.847,T*25
$PYRTM,2024,126.167413233079,17.277060643229
$GNGGA,040104.50,3425.67913412,N,12107.88213361,W,2,12,0.8,7.327,M,-38.205,M,7.4,0131*6E
$PYRTM,2024,126.167413233079,17.277060643229
$GNHDT,126.387,T*22
$PYRTM,2024,126.167419077882,17.277066488032
$GNGGA,040105.00,3425.67827394,N,12107.88115216,W,2,12,0.8,7.347,M,-38.205,M,7.0,0131*63
$PYRTM,2024,126.167419077882,17.277066488032
$GNHDT,126.341,T*28
$PYRTM,2024,126.167424805556,17.277072215706
$GNGGA,040105.50,3425.67743509,N,12107.88014284,W,2,12,0.8,7.415,M,-38.205,M,7.4,0131*66
$PYRTM,2024,126.167424805556,17.277072215706
$GNHDT,126.021,T*2D
$PYRTM,2024,126.167430646620,17.277078056759
$GNGGA,040106.00,3425.67660969,N,12107.87907412,W,2,12,0.8,7.449,M,-38.205,M,4.0,0131*69
$PYRTM,2024,126.167430646620,17.277078056759
$GNHDT,125.966,T*24
$PYRTM,2024,126.167436381157,17.277083791308
$GNGGA,040106.50,3425.67578287,N,12107.87797962,W,2,12,0.8,7.467,M,-38.205,M,4.4,0131*68
$PYRTM,2024,126.167436381157,17.277083791308
$GNHDT,125.997,T*2A
$PYRTM,2024,126.167442222280,17.277089632419
$GNGGA,040107.00,3425.67494760,N,12107.87685775,W,2,12,0.8,7.438,M,-38.205,M,5.0,0131*66
$PYRTM,2024,126.167442222280,17.277089632419
$GNHDT,126.017,T*28
$PYRTM,2024,126.167447954745,17.277095364884
$GNGGA,040107.50,3425.67409398,N,12107.87571537,W,2,12,0.8,7.381,M,-38.205,M,5.4,0131*69
$PYRTM,2024,126.167447954745,17.277095364884
$GNHDT,126.143,T*28
$PYRTM,2024,126.167453795683,17.277101205822
$GNGGA,040108.00,3425.67321403,N,12107.87458833,W,2,12,0.8,7.341,M,-38.205,M,6.0,0131*63
$PYRTM,2024,126.167453795683,17.277101205822
$GNHDT,126.417,T*2C
$PYRTM,2024,126.167459528727,17.277106938877
$GNGGA,040108.50,3425.67230814,N,12107.87348123,W,2,12,0.8,7.356,M,-38.205,M,6.4,0131*61
$PYRTM,2024,126.167459528727,17.277106938877
$GNHDT,126.675,T*2A
$PYRTM,2024,126.167465371377,17.277112781516
$GNGGA,040109.00,3425.67138193,N,12107.87237748,W,2,12,0.8,7.412,M,-38.205,M,7.0,0131*68
$PYRTM,2024,126.167465371377,17.277112781516
$GNHDT,126.594,T*26
$PYRTM,2024,126.167471102384,17.277118512535
$GNGGA,040109.50,3425.67044744,N,12107.87125180,W,2,12,0.8,7.485,M,-38.205,M,7.4,0131*63
$PYRTM,2024,126.167471102384,17.277118512535
$GNHDT,125.902,T*26
$PYRTM,2024,126.167476947836,17.277124357986
$GNGGA,040110.00,3425.66952074,N,12107.87011294,W,2,12,0.8,7.578,M,-38.205,M,7.0,0131*62
$PYRTM,2024,126.167476947836,17.277124357986
$GNHDT,125.371,T*28
$PYRTM,2024,126.167482674491,17.277130084630
$GNGGA,040110.50,3425.66861327,N,12107.86893948,W,2,12,0.8,7.627,M,-38.205,M,7.4,0131*67
$PYRTM,2024,126.167482674491,17.277130084630
$GNHDT,124.895,T*28
$PYRTM,2024,126.167488518345,17.277135928484
$GNGGA,040111.00,3425.66774242,N,12107.86773238,W,2,12,0.8,7.644,M,-38.205,M,7.0,0131*66
$PYRTM,2024,126.167488518345,17.277135928484
$GNHDT,124.472,T*2D
$PYRTM,2024,126.167494253206,17.277141663345
$GNGGA,040111.50,3425.66689681,N,12107.86653242,W,2,12,0.8,7.617,M,-38.205,M,7.4,0131*67
$PYRTM,2024,126.167494253206,17.277141663345
$GNHDT,124.108,T*25
$PYRTM,2024,126.167500092986,17.277147503125
$GNGGA,040112.00,3425.66605828,N,12107.86537869,W,2,12,0.8,7.578,M,-38.205,M,4.0,0131*67
$PYRTM,2024,126.167500092986,17.277147503125
$GNHDT,123.886,T*2D
$PYRTM,2024,126.167505825880,17.277153236019
$GNGGA,040112.50,3425.66522377,N,12107.86428366,W,2,12,0.8,7.522,M,-38.205,M,4.4,0131*65
$PYRTM,2024,126.167505825880,17.277153236019
$GNHDT,123.739,T*26
$PYRTM,2024,126.167511665787,17.277159075926
$GNGGA,040113.00,3425.66436105,N,12107.86326417,W,2,12,0.8,7.426,M,-38.205,M,5.0,0131*6A
$PYRTM,2024,126.167511665787,17.277159075926
$GNHDT,123.676,T*2C
$PYRTM,2024,126.167517397708,17.277164807847
$GNGGA,040113.50,3425.66347596,N,12107.86230359,W,2,12,0.8,7.298,M,-38.205,M,5.4,0131*6C
$PYRTM,2024,126.167517397708,17.277164807847
$GNHDT,123.896,T*2C
$PYRTM,2024,126.167523240845,17.277170650984
$GNGGA,040114.00,3425.66257271,N,12107.86139148,W,2,12,0.8,7.138,M,-38.205,M,6.0,0131*66
$PYRTM,2024,126.167523240845,17.277170650984
$GNHDT,124.360,T*29
$PYRTM,2024,126.167528973576,17.277176383715
$GNGGA,040114.50,3425.66169137,N,12107.86048042,W,2,12,0.8,7.017,M,-38.205,M,6.4,0131*68
$PYRTM,2024,126.167528973576,17.277176383715
$GNHDT,124.545,T*28
$PYRTM,2024,126.167534813819,17.277182223958
$GNGGA,040115.00,3425.66084987,N,12107.85954402,W,2,12,0.8,6.925,M,-38.205,M,7.0,0131*66
$PYRTM,2024,126.167534813819,17.277182223958
$GNHDT,124.820,T*26
$PYRTM,2024,126.167540548438,17.277187958576
$GNGGA,040115.50,3425.66004389,N,12107.85858961,W,2,12,0.8,6.953,M,-38.205,M,7.4,0131*6F
$PYRTM,2024,126.167540548438,17.277187958576
$GNHDT,125.254,T*2E
$PYRTM,2024,126.167546390231,17.277193800370
$GNGGA,040116.00,3425.65927583,N,12107.85757482,W,2,12,0.8,7.024,M,-38.205,M,7.0,0131*62
$PYRTM,2024,126.167546390231,17.277193800370
$GNHDT,125.569,T*27
$PYRTM,2024,126.167552119757,17.277199529896
$GNGGA,040116.50,3425.65852640,N,12107.85650653,W,2,12,0.8,7.155,M,-38.205,M,7.4,0131*63
$PYRTM,2024,126.167552119757,17.277199529896
$GNHDT,125.885,T*28
$PYRTM,2024,126.167557962222,17.277205372361
$GNGGA,040117.00,3425.65777654,N,12107.85539790,W,2,12,0.8,7.288,M,-38.205,M,7.0,0131*6F
$PYRTM,2024,126.167557962222,17.277205372361
$GNHDT,125.900,T*24
$PYRTM,2024,126.167563695694,17.277211105845
$GNGGA,040117.50,3425.65699793,N,12107.85427438,W,2,12,0.8,7.418,M,-38.205,M,7.4,0131*65
$PYRTM,2024,126.167563695694,17.277211105845
$GNHDT,126.038,T*25
$PYRTM,2024,126.167569539086,17.277216949225
$GNGGA,040118.00,3425.65617616,N,12107.85313159,W,2,12,0.8,7.485,M,-38.205,M,4.0,0131*64
$PYRTM,2024,126.167569539086,17.277216949225
$GNHDT,125.648,T*27
$PYRTM,2024,126.167575273507,17.277222683646
$GNGGA,040118.50,3425.65530130,N,12107.85200423,W,2,12,0.8,7.519,M,-38.205,M,4.4,0131*6F
$PYRTM,2024,126.167575273507,17.277222683646
$GNHDT,125.069,T*22
$PYRTM,2024,126.167581109144,17.277228519282
$GNGGA,040119.00,3425.65436980,N,12107.85089220,W,2,12,0.8,7.517,M,-38.205,M,5.0,0131*62
$PYRTM,2024,126.167581109144,17.277228519282
$GNHDT,124.683,T*21
$PYRTM,2024,126.167586843056,17.277234253194
$GNGGA,040119.50,3425.65340509,N,12107.84978622,W,2,12,0.8,7.499,M,-38.205,M,5.4,0131*6F
$PYRTM,2024,126.167586843056,17.277234253194
$GNHDT,124.859,T*28
$PYRTM,2024,126.167592685903,17.277240096042
$GNGGA,040120.00,3425.65243729,N,12107.84867138,W,2,12,0.8,7.464,M,-38.205,M,6.0,0131*64
$PYRTM,2024,126.167592685903,17.277240096042
$GNHDT,124.738,T*20
$PYRTM,2024,126.167598416678,17.277245826829
$GNGGA,040120.50,3425.65150563,N,12107.84752374,W,2,12,0.8,7.467,M,-38.205,M,6.4,0131*68
$PYRTM,2024,126.167598416678,17.277245826829
$GNHDT,124.569,T*26
$PYRTM,2024,126.167604257905,17.277251668044
$GNGGA,040121.00,3425.65062403,N,12107.84634779,W,2,12,0.8,7.514,M,-38.205,M,7.0,0131*63
$PYRTM,2024,126.167604257905,17.277251668044
$GNHDT,124.630,T*29
$PYRTM,2024,126.167609995347,17.277257405486
$GNGGA,040121.50,3425.64978126,N,12107.84515260,W,2,12,0.8,7.601,M,-38.205,M,7.4,0131*69
$PYRTM,2024,126.167609995347,17.277257405486
$GNHDT,124.775,T*29
$PYRTM,2024,126.167615834109,17.277263244248
$GNGGA,040122.00,3425.64895614,N,12107.84395467,W,2,12,0.8,7.700,M,-38.205,M,7.0,0131*60
$PYRTM,2024,126.167615834109,17.277263244248
$GNHDT,125.002,T*2F
$PYRTM,2024,126.167621566481,17.277268976632
$GNGGA,040122.50,3425.64810356,N,12107.84276616,W,2,12,0.8,7.750,M,-38.205,M,7.4,0131*62
$PYRTM,2024,126.167621566481,17.277268976632
$GNHDT,125.396,T*21
$PYRTM,2024,126.167627411979,17.277274822130
$GNGGA,040123.00,3425.64721264,N,12107.84161420,W,2,12,0.8,7.735,M,-38.205,M,7.0,0131*6E
$PYRTM,2024,126.167627411979,17.277274822130
$GNHDT,125.663,T*2E
$PYRTM,2024,126.167633138576,17.277280548715
$GNGGA,040123.50,3425.64628432,N,12107.84050226,W,2,12,0.8,7.650,M,-38.205,M,7.4,0131*63
$PYRTM,2024,126.167633138576,17.277280548715
$GNHDT,126.041,T*2B
$PYRTM,2024,126.167638982280,17.277286392419
$GNGGA,040124.00,3425.64532994,N,12107.83942265,W,2,12,0.8,7.510,M,-38.205,M,4.0,0131*62
$PYRTM,2024,126.167638982280,17.277286392419
$GNHDT,126.204,T*28
$PYRTM,2024,126.167644715185,17.277292125324
$GNGGA,040124.50,3425.64438584,N,12107.83838197,W,2,12,0.8,7.377,M,-38.205,M,4.4,0131*60
$PYRTM,2024,126.167644715185,17.277292125324
$GNHDT,126.357,T*2F
$PYRTM,2024,126.167650555995,17.277297966146
$GNGGA,040125.00,3425.64347315,N,12107.83735558,W,2,12,0.8,7.292,M,-38.205,M,5.0,0131*6F
$PYRTM,2024,126.167650555995,17.277297966146
$GNHDT,126.447,T*29
$PYRTM,2024,126.167656287037,17.277303697176
$GNGGA,040125.50,3425.64260638,N,12107.83631196,W,2,12,0.8,7.256,M,-38.205,M,5.4,0131*6B
$PYRTM,2024,126.167656287037,17.277303697176
$GNHDT,126.236,T*29
$PYRTM,2024,126.167662134155,17.277309544294
$GNGGA,040126.00,3425.64177323,N,12107.83524771,W,2,12,0.8,7.274,M,-38.205,M,6.0,0131*68
$PYRTM,2024,126.167662134155,17.277309544294
$GNHDT,126.150,T*2A
$PYRTM,2024,126.167667868218,17.277315278356
$GNGGA,040126.50,3425.64094972,N,12107.83417535,W,2,12,0.8,7.301,M,-38.205,M,6.4,0131*6B
$PYRTM,2024,126.167667868218,17.277315278356
$GNHDT,125.918,T*2D
$PYRTM,2024,126.167673708819,17.277321118958
$GNGGA,040127.00,3425.64012240,N,12107.83310598,W,2,12,0.8,7.361,M,-38.205,M,7.0,0131*6F
$PYRTM,2024,126.167673708819,17.277321118958
$GNHDT,125.696,T*24
$PYRTM,2024,126.167679442639,17.277326852778
$GNGGA,040127.50,3425.63928814,N,12107.83205032,W,2,12,0.8,7.413,M,-38.205,M,7.4,0131*60
$PYRTM,2024,126.167679442639,17.277326852778
$GNHDT,125.814,T*20
$PYRTM,2024,126.167685279641,17.277332689780
$GNGGA,040128.00,3425.63844561,N,12107.83099749,W,2,12,0.8,7.497,M,-38.205,M,7.0,0131*6A
$PYRTM,2024,126.167685279641,17.277332689780
$GNHDT,125.823,T*24
$PYRTM,2024,126.167691011725,17.277338421863
$GNGGA,040128.50,3425.63760218,N,12107.82994353,W,2,12,0.8,7.555,M,-38.205,M,7.4,0131*6E
$PYRTM,2024,126.167691011725,17.277338421863
$GNHDT,125.684,T*27
$PYRTM,2024,126.167696852593,17.277344262731
$GNGGA,040129.00,3425.63676059,N,12107.82888963,W,2,12,0.8,7.617,M,-38.205,M,7.0,0131*6F
$PYRTM,2024,126.167696852593,17.277344262731
$GNHDT,125.815,T*21
$PYRTM,2024,126.167702582766,17.277349992905
$GNGGA,040129.50,3425.63591321,N,12107.82784632,W,2,12,0.8,7.651,M,-38.205,M,7.4,0131*62
$PYRTM,2024,126.167702582766,17.277349992905
$GNHDT,126.175,T*2D
$PYRTM,2024,126.167708424942,17.277355835081
$GNGGA,040130.00,3425.63505219,N,12107.82680723,W,2,12,0.8,7.630,M,-38.205,M,8.0,0131*60
$PYRTM,2024,126.167708424942,17.277355835081
$GNHDT,126.600,T*28
$PYRTM,2024,126.167714158970,17.277361569120
$GNGGA,040130.50,3425.63416860,N,12107.82576943,W,2,12,0.8,7.590,M,-38.205,M,8.4,0131*6D
$PYRTM,2024,126.167714158970,17.277361569120
$GNHDT,126.892,T*2D
$PYRTM,2024,126.167719999919,17.277367410058
$GNGGA,040131.00,3425.63326397,N,12107.82471848,W,2,12,0.8,7.504,M,-38.205,M,9.0,0131*6A
$PYRTM,2024,126.167719999919,17.277367410058
$GNHDT,127.189,T*2F
$PYRTM,2024,126.167725731840,17.277373141979
$GNGGA,040131.50,3425.63234972,N,12107.82363711,W,2,12,0.8,7.407,M,-38.205,M,9.4,0131*6D
$PYRTM,2024,126.167725731840,17.277373141979
$GNHDT,126.865,T*25
$PYRTM,2024,126.167731576042,17.277378986181
$GNGGA,040132.00,3425.63145863,N,12107.82250383,W,2,12,0.8,7.304,M,-38.205,M,10.0,0131*59
$PYRTM,2024,126.167731576042,17.277378986181
$GNHDT,126.731,T*2B
$PYRTM,2024,126.167737306921,17.277384717072
$GNGGA,040132.50,3425.63059222,N,12107.82134228,W,2,12,0.8,7.267,M,-38.205,M,10.4,0131*5E
$PYRTM,2024,126.167737306921,17.277384717072
$GNHDT,126.495,T*26
$PYRTM,2024,126.167743147616,17.277390557755
$GNGGA,040133.00,3425.62974813,N,12107.82014828,W,2,12,0.8,7.301,M,-38.205,M,11.0,0131*58
$PYRTM,2024,126.167743147616,17.277390557755
$GNHDT,126.429,T*21
$PYRTM,2024,126.167748880914,17.277396291053
$GNGGA,040133.50,3425.62891384,N,12107.81895143,W,2,12,0.8,7.402,M,-38.205,M,11.4,0131*54
$PYRTM,2024,126.167748880914,17.277396291053
$GNHDT,126.217,T*2A
$PYRTM,2024,126.167754729028,17.277402139178
$GNGGA,040134.00,3425.62808001,N,12107.81776644,W,2,12,0.8,7.547,M,-38.205,M,12.0,0131*5D
$PYRTM,2024,126.167754729028,17.277402139178
$GNHDT,126.069,T*21
$PYRTM,2024,126.167760453715,17.277407863854
$GNGGA,040134.50,3425.62721962,N,12107.81662359,W,2,12,0.8,7.680,M,-38.205,M,12.4,0131*51
$PYRTM,2024,126.167760453715,17.277407863854
$GNHDT,126.042,T*28
$PYRTM,2024,126.167766295903,17.277413706042
$GNGGA,040135.00,3425.62631836,N,12107.81551900,W,2,12,0.8,7.780,M,-38.205,M,13.0,0131*54
$PYRTM,2024,126.167766295903,17.277413706042
$GNHDT,125.996,T*2B
$PYRTM,2024,126.167772029468,17.277419439618
$GNGGA,040135.50,3425.62538139,N,12107.81443674,W,2,12,0.8,7.789,M,-38.205,M,13.4,0131*5E
$PYRTM,2024,126.167772029468,17.277419439618
$GNHDT,125.936,T*21
$PYRTM,2024,126.167777871713,17.277425281852
$GNGGA,040136.00,3425.62441314,N,12107.81336011,W,2,12,0.8,7.701,M,-38.205,M,14.0,0131*59
$PYRTM,2024,126.167777871713,17.277425281852
$GNHDT,125.774,T*29
$PYRTM,2024,126.167783610347,17.277431020486
$GNGGA,040136.50,3425.62342733,N,12107.81228506,W,2,12,0.8,7.542,M,-38.205,M,14.4,0131*55
$PYRTM,2024,126.167783610347,17.277431020486
$GNHDT,125.616,T*2C
$PYRTM,2024,126.167789445023,17.277436855162
$GNGGA,040137.00,3425.62245225,N,12107.81121463,W,2,12,0.8,7.410,M,-38.205,M,15.0,0131*5E
$PYRTM,2024,126.167789445023,17.277436855162
$GNHDT,125.416,T*2E
$PYRTM,2024,126.167795180197,17.277442590336
$GNGGA,040137.50,3425.62152509,N,12107.81014308,W,2,12,0.8,7.397,M,-38.205,M,15.4,0131*56
$PYRTM,2024,126.167795180197,17.277442590336
$GNHDT,125.287,T*20
$PYRTM,2024,126.167801018241,17.277448428380
$GNGGA,040138.00,3425.62065279,N,12107.80906845,W,2,12,0.8,7.518,M,-38.205,M,16.0,0131*56
$PYRTM,2024,126.167801018241,17.277448428380
$GNHDT,125.222,T*2F
$PYRTM,2024,126.167806757025,17.277454167164
$GNGGA,040138.50,3425.61981888,N,12107.80798623,W,2,12,0.8,7.716,M,-38.205,M,16.4,0131*58
$PYRTM,2024,126.167806757025,17.277454167164
$GNHDT,125.508,T*20
$PYRTM,2024,126.167812597778,17.277460007917
$GNGGA,040139.00,3425.61900682,N,12107.80689815,W,2,12,0.8,7.875,M,-38.205,M,17.0,0131*54
$PYRTM,2024,126.167812597778,17.277460007917
$GNHDT,125.609,T*22
$PYRTM,2024,126.167818327523,17.277465737662
$GNGGA,040139.50,3425.61818605,N,12107.80581711,W,2,12,0.8,7.913,M,-38.205,M,17.4,0131*53
$PYRTM,2024,126.167818327523,17.277465737662
$GNHDT,125.803,T*26
$PYRTM,2024,126.167824170787,17.277471580938
$GNGGA,040140.00,3425.61734614,N,12107.80474878,W,2,12,0.8,7.783,M,-38.205,M,18.0,0131*5E
$PYRTM,2024,126.167824170787,17.277471580938
$GNHDT,126.146,T*2D
$PYRTM,2024,126.167829900926,17.277477311065
$GNGGA,040140.50,3425.61647126,N,12107.80368402,W,2,12,0.8,7.508,M,-38.205,M,18.4,0131*56
$PYRTM,2024,126.167829900926,17.277477311065
$GNHDT,126.565,T*28
$PYRTM,2024,126.167835740231,17.277483150370
$GNGGA,040141.00,3425.61557450,N,12107.80262732,W,2,12,0.8,7.188,M,-38.205,M,19.0,0131*56
$PYRTM,2024,126.167835740231,17.277483150370
$GNHDT,126.894,T*2B
$PYRTM,2024,126.167841475046,17.277488885185
$GNGGA,040141.50,3425.61467166,N,12107.80157578,W,2,12,0.8,6.915,M,-38.205,M,19.4,0131*51
$PYRTM,2024,126.167841475046,17.277488885185
$GNHDT,126.765,T*2A
$PYRTM,2024,126.167847317350,17.277494727500
$GNGGA,040142.00,3425.61378139,N,12107.80050807,W,2,12,0.8,6.781,M,-38.205,M,20.0,0131*5A
$PYRTM,2024,126.167847317350,17.277494727500
$GNHDT,126.485,T*27
$PYRTM,2024,126.167853049641,17.277500459780
$GNGGA,040142.50,3425.61292261,N,12107.79941318,W,2,12,0.8,6.842,M,-38.205,M,20.4,0131*5A
$PYRTM,2024,126.167853049641,17.277500459780
$GNHDT,126.014,T*2B
$PYRTM,2024,126.167858894838,17.277506304977
$GNGGA,040143.00,3425.61209051,N,12107.79828862,W,2,12,0.8,7.119,M,-38.205,M,21.0,0131*56
$PYRTM,2024,126.167858894838,17.277506304977
$GNHDT,125.681,T*22
$PYRTM,2024,126.167864622535,17.277512032685
$GNGGA,040143.50,3425.61126012,N,12107.79712813,W,2,12,0.8,7.434,M,-38.205,M,21.4,0131*54
$PYRTM,2024,126.167864622535,17.277512032685
$GNHDT,125.078,T*22
$PYRTM,2024,126.167870463715,17.277517873866
$GNGGA,040144.00,3425.61040332,N,12107.79596048,W,2,12,0.8,7.746,M,-38.205,M,22.0,0131*5F
$PYRTM,2024,126.167870463715,17.277517873866
$GNHDT,124.621,T*29
$PYRTM,2024,126.167876197384,17.277523607523
$GNGGA,040144.50,3425.60951552,N,12107.79478461,W,2,12,0.8,7.972,M,-38.205,M,22.4,0131*51
$PYRTM,2024,126.167876197384,17.277523607523
$GNHDT,124.621,T*29
$PYRTM,2024,126.167882040741,17.277529450891
$GNGGA,040145.00,3425.60859455,N,12107.79362044,W,2,12,0.8,8.127,M,-38.205,M,23.0,0131*57
$PYRTM,2024,126.167882040741,17.277529450891
$GNHDT,124.658,T*27
$PYRTM,2024,126.167887774861,17.277535185000
$GNGGA,040145.50,3425.60767185,N,12107.79247434,W,2,12,0.8,8.203,M,-38.204,M,23.4,0131*5D
$PYRTM,2024,126.167887774861,17.277535185000
$GNHDT,124.880,T*2C
$PYRTM,2024,126.167893611377,17.277541021516
$GNGGA,040146.00,3425.60674863,N,12107.79137009,W,2,12,0.8,8.272,M,-38.204,M,24.0,0131*52
$PYRTM,2024,126.167893611377,17.277541021516
$GNHDT,125.186,T*22
$PYRTM,2024,126.167899344317,17.277546754456
$GNGGA,040146.50,3425.60583497,N,12107.79030558,W,2,12,0.8,8.311,M,-38.204,M,24.4,0131*5C
$PYRTM,2024,126.167899344317,17.277546754456
$GNHDT,125.522,T*28
$PYRTM,2024,126.167905188495,17.277552598634
$GNGGA,040147.00,3425.60491818,N,12107.78928365,W,2,12,0.8,8.346,M,-38.204,M,25.0,0131*5F
$PYRTM,2024,126.167905188495,17.277552598634
$GNHDT,125.913,T*26
$PYRTM,2024,126.167910917766,17.277558327905
$GNGGA,040147.50,3425.60401344,N,12107.78828576,W,2,12,0.8,8.298,M,-38.204,M,25.4,0131*52
$PYRTM,2024,126.167910917766,17.277558327905
$GNHDT,126.147,T*2C
$PYRTM,2024,126.167916765116,17.277564175255
$GNGGA,040148.00,3425.60311630,N,12107.78727580,W,2,12,0.8,8.175,M,-38.204,M,26.0,0131*56
$PYRTM,2024,126.167916765116,17.277564175255
$GNHDT,126.145,T*2E
$PYRTM,2024,126.167922496296,17.277569906435
$GNGGA,040148.50,3425.60223818,N,12107.78623271,W,2,12,0.8,7.957,M,-38.204,M,26.4,0131*58
$PYRTM,2024,126.167922496296,17.277569906435
$GNHDT,126.472,T*2F
$PYRTM,2024,126.167928334259,17.277575744398
$GNGGA,040149.00,3425.60138039,N,12107.78517236,W,2,12,0.8,7.716,M,-38.204,M,27.0,0131*57
$PYRTM,2024,126.167928334259,17.277575744398
$GNHDT,126.584,T*27
$PYRTM,2024,126.167934071227,17.277581481366
$GNGGA,040149.50,3425.60054176,N,12107.78409261,W,2,12,0.8,7.487,M,-38.204,M,27.4,0131*50
$PYRTM,2024,126.167934071227,17.277581481366
$GNHDT,126.563,T*2E
$PYRTM,2024,126.167939912743,17.277587322882
$GNGGA,040150.00,3425.59971766,N,12107.78299982,W,2,12,0.8,7.354,M,-38.204,M,28.0,0131*55
$PYRTM,2024,126.167939912743,17.277587322882
$GNHDT,126.542,T*2D
$PYRTM,2024,126.167945644213,17.277593054352
$GNGGA,040150.50,3425.59890783,N,12107.78190371,W,2,12,0.8,7.344,M,-38.204,M,28.4,0131*5C
$PYRTM,2024,126.167945644213,17.277593054352
$GNHDT,126.022,T*2E
$PYRTM,2024,126.167951490046,17.277598900185
$GNGGA,040151.00,3425.59808096,N,12107.78082654,W,2,12,0.8,7.483,M,-38.204,M,29.0,0131*53
$PYRTM,2024,126.167951490046,17.277598900185
$GNHDT,125.881,T*2C
$PYRTM,2024,126.167957217431,17.277604627569
$GNGGA,040151.50,3425.59722509,N,12107.77977036,W,2,12,0.8,7.709,M,-38.204,M,29.4,0131*59
$PYRTM,2024,126.167957217431,17.277604627569
$GNHDT,126.027,T*2B
$PYRTM,2024,126.167963056840,17.277610466979
$GNGGA,040152.00,3425.59633484,N,12107.77871754,W,2,12,0.8,7.934,M,-38.204,M,30.0,0131*52
$PYRTM,2024,126.167963056840,17.277610466979
$GNHDT,126.172,T*2A
$PYRTM,2024,126.167968797153,17.277616207292
$GNGGA,040152.50,3425.59541504,N,12107.77764657,W,2,12,0.8,8.083,M,-38.204,M,30.4,0131*5F
$PYRTM,2024,126.167968797153,17.277616207292
$GNHDT,125.763,T*2F
$PYRTM,2024,126.167974635613,17.277622045764
$GNGGA,040153.00,3425.59447530,N,12107.77654464,W,2,12,0.8,8.140,M,-38.204,M,31.0,0131*50
$PYRTM,2024,126.167974635613,17.277622045764
$GNHDT,125.444,T*29
$PYRTM,2024,126.167980364664,17.277627774815
$GNGGA,040153.50,3425.59353469,N,12107.77543776,W,2,12,0.8,8.132,M,-38.204,M,31.4,0131*5E
$PYRTM,2024,126.167980364664,17.277627774815
$GNHDT,125.527,T*2D
$PYRTM,2024,126.167986204896,17.277633615035
$GNGGA,040154.00,3425.59260558,N,12107.77431661,W,2,12,0.8,8.076,M,-38.204,M,32.0,0131*5B
$PYRTM,2024,126.167986204896,17.277633615035
$GNHDT,125.459,T*25
$PYRTM,2024,126.167991939294,17.277639349433
$GNGGA,040154.50,3425.59170980,N,12107.77320694,W,2,12,0.8,8.074,M,-38.204,M,32.4,0131*5E
$PYRTM,2024,126.167991939294,17.277639349433
$GNHDT,125.409,T*20
$PYRTM,2024,126.167997777037,17.277645187176
$GNGGA,040155.00,3425.59084807,N,12107.77210501,W,2,12,0.8,8.112,M,-38.204,M,33.0,0131*57
$PYRTM,2024,126.167997777037,17.277645187176
$GNHDT,125.747,T*29
$PYRTM,2024,126.168003514595,17.277650924734
$GNGGA,040155.50,3425.59000583,N,12107.77101940,W,2,12,0.8,8.201,M,-38.204,M,33.4,0131*50
$PYRTM,2024,126.168003514595,17.277650924734
$GNHDT,126.175,T*2D
$PYRTM,2024,126.168009354259,17.277656764398
$GNGGA,040156.00,3425.58917590,N,12107.76994525,W,2,12,0.8,8.289,M,-38.204,M,34.0,0131*53
$PYRTM,2024,126.168009354259,17.277656764398
$GNHDT,126.517,T*2D
$PYRTM,2024,126.168015089444,17.277662499583
$GNGGA,040156.50,3425.58834058,N,12107.76888422,W,2,12,0.8,8.368,M,-38.204,M,34.4,0131*57
$PYRTM,2024,126.168015089444,17.277662499583
$GNHDT,126.793,T*23
$PYRTM,2024,126.168020934410,17.277668344560
$GNGGA,040157.00,3425.58750021,N,12107.76782258,W,2,12,0.8,8.379,M,-38.204,M,35.0,0131*5B
$PYRTM,2024,126.168020934410,17.277668344560
$GNHDT,127.010,T*2E
$PYRTM,2024,126.168026661019,17.277674071157
$GNGGA,040157.50,3425.58664514,N,12107.76674588,W,2,12,0.8,8.314,M,-38.204,M,35.4,0131*56
$PYRTM,2024,126.168026661019,17.277674071157
$GNHDT,127.345,T*2D
$PYRTM,2024,126.168032499340,17.277679909479
$GNGGA,040158.00,3425.58578378,N,12107.76565872,W,2,12,0.8,8.157,M,-38.204,M,36.0,0131*57
$PYRTM,2024,126.168032499340,17.277679909479
$GNHDT,127.217,T*2B
$PYRTM,2024,126.168038232604,17.277685642755
$GNGGA,040158.50,3425.58491171,N,12107.76456322,W,2,12,0.8,7.989,M,-38.204,M,36.4,0131*50
$PYRTM,2024,126.168038232604,17.277685642755
$GNHDT,126.985,T*2A
$PYRTM,2024,126.168044077419,17.277691487558
$GNGGA,040159.00,3425.58403931,N,12107.76346059,W,2,12,0.8,7.859,M,-38.204,M,37.0,0131*53
$PYRTM,2024,126.168044077419,17.277691487558
$GNHDT,126.578,T*24
$PYRTM,2024,126.168049812488,17.277697222627
$GNGGA,040159.50,3425.58316532,N,12107.76235073,W,2,12,0.8,7.831,M,-38.204,M,37.4,0131*5D
$PYRTM,2024,126.168049812488,17.277697222627
$GNHDT,125.765,T*29
$PYRTM,2024,126.168055651238,17.277703061377
$GNGGA,040200.00,3425.58228792,N,12107.76121878,W,2,12,0.8,7.881,M,-38.204,M,38.0,0131*56
$PYRTM,2024,126.168055651238,17.277703061377
$GNHDT,125.308,T*26
$PYRTM,2024,126.168061382141,17.277708792280
$GNGGA,040200.50,3425.58140583,N,12107.76007701,W,2,12,0.8,8.012,M,-38.204,M,38.4,0131*51
$PYRTM,2024,126.168061382141,17.277708792280
$GNHDT,125.348,T*22
$PYRTM,2024,126.168067221319,17.277714631458
$GNGGA,040201.00,3425.58051366,N,12107.75891787,W,2,12,0.8,8.120,M,-38.204,M,39.0,0131*56
$PYRTM,2024,126.168067221319,17.277714631458
$GNHDT,125.257,T*2D
$PYRTM,2024,126.168072958715,17.277720368854
$GNGGA,040201.50,3425.57960903,N,12107.75774529,W,2,12,0.8,8.170,M,-38.204,M,39.4,0131*5D
$PYRTM,2024,126.168072958715,17.277720368854
$GNHDT,125.367,T*2F
$PYRTM,2024,126.168078801192,17.277726211331
$GNGGA,040202.00,3425.57868993,N,12107.75658642,W,2,12,0.8,8.174,M,-38.204,M,40.0,0131*54
$PYRTM,2024,126.168078801192,17.277726211331
$GNHDT,125.495,T*25
$PYRTM,2024,126.168084528738,17.277731938889
$GNGGA,040202.50,3425.57776529,N,12107.75545560,W,2,12,0.8,8.145,M,-38.204,M,40.4,0131*56
$PYRTM,2024,126.168084528738,17.277731938889
$GNHDT,125.450,T*2C
$PYRTM,2024,126.168090374687,17.277737784826
$GNGGA,040203.00,3425.57684186,N,12107.75436778,W,2,12,0.8,8.110,M,-38.204,M,41.0,0131*54
$PYRTM,2024,126.168090374687,17.277737784826
$GNHDT,125.912,T*27
$PYRTM,2024,126.168096105486,17.277743515637
$GNGGA,040203.50,3425.57592369,N,12107.75331441,W,2,12,0.8,8.048,M,-38.204,M,41.4,0131*57
$PYRTM,2024,126.168096105486,17.277743515637
$GNHDT,126.085,T*23
$PYRTM,2024,126.168101943912,17.277749354051
$GNGGA,040204.00,3425.57500181,N,12107.75229133,W,2,12,0.8,7.994,M,-38.204,M,42.0,0131*52
$PYRTM,2024,126.168101943912,17.277749354051
$GNHDT,126.419,T*22
$PYRTM,2024,126.168107676424,17.277755086563
$GNGGA,040204.50,3425.57407758,N,12107.75128457,W,2,12,0.8,7.898,M,-38.204,M,42.4,0131*5F
$PYRTM,2024,126.168107676424,17.277755086563
$GNHDT,126.518,T*22
$PYRTM,2024,126.168113520185,17.277760930324
$GNGGA,040205.00,3425.57315302,N,12107.75029164,W,2,12,0.8,7.748,M,-38.204,M,43.0,0131*56
$PYRTM,2024,126.168113520185,17.277760930324
$GNHDT,126.668,T*26
$PYRTM,2024,126.168119250856,17.277766660995
$GNGGA,040205.50,3425.57225493,N,12107.74930114,W,2,12,0.8,7.623,M,-38.204,M,43.4,0131*51
$PYRTM,2024,126.168119250856,17.277766660995
$GNHDT,126.493,T*20
$PYRTM,2024,126.168125095313,17.277772505451
$GNGGA,040206.00,3425.57140377,N,12107.74829708,W,2,12,0.8,7.564,M,-38.204,M,44.0,0131*5B
$PYRTM,2024,126.168125095313,17.277772505451
$GNHDT,126.261,T*2B
$PYRTM,2024,126.168130828125,17.277778238264
$GNGGA,040206.50,3425.57060052,N,12107.74731212,W,2,12,0.8,7.658,M,-38.204,M,44.4,0131*59
$PYRTM,2024,126.168130828125,17.277778238264
$GNHDT,126.165,T*2C
$PYRTM,2024,126.168136670255,17.277784080394
$GNGGA,040207.00,3425.56983358,N,12107.74629841,W,2,12,0.8,7.831,M,-38.204,M,45.0,0131*51
$PYRTM,2024,126.168136670255,17.277784080394
$GNHDT,126.020,T*2C
$PYRTM,2024,126.168142400266,17.277789810405
$GNGGA,040207.50,3425.56906808,N,12107.74525628,W,2,12,0.8,7.986,M,-38.204,M,45.4,0131*50
$PYRTM,2024,126.168142400266,17.277789810405
$GNHDT,125.788,T*2A
$PYRTM,2024,126.168148242535,17.277795652674
$GNGGA,040208.00,3425.56827218,N,12107.74422492,W,2,12,0.8,8.136,M,-38.204,M,46.0,0131*5D
$PYRTM,2024,126.168148242535,17.277795652674
$GNHDT,125.588,T*28
$PYRTM,2024,126.168153974630,17.277801384769
$GNGGA,040208.50,3425.56743498,N,12107.74318749,W,2,12,0.8,8.205,M,-38.204,M,46.4,0131*57
$PYRTM,2024,126.168153974630,17.277801384769
$GNHDT,125.173,T*28
$PYRTM,2024,126.168159814572,17.277807224711
$GNGGA,040209.00,3425.56654182,N,12107.74215323,W,2,12,0.8,8.259,M,-38.204,M,47.0,0131*52
$PYRTM,2024,126.168159814572,17.277807224711
$GNHDT,124.888,T*24
$PYRTM,2024,126.168165547384,17.277812957523
$GNGGA,040209.50,3425.56560051,N,12107.74112522,W,2,12,0.8,8.263,M,-38.204,M,47.4,0131*52
$PYRTM,2024,126.168165547384,17.277812957523
$GNHDT,124.909,T*2C
$PYRTM,2024,126.168171391377,17.277818801516
$GNGGA,040210.00,3425.56462903,N,12107.74008404,W,2,12,0.8,8.279,M,-38.204,M,48.0,0131*5D
$PYRTM,2024,126.168171391377,17.277818801516
$GNHDT,125.109,T*25
$PYRTM,2024,126.168177125637,17.277824535775
$GNGGA,040210.50,3425.56366221,N,12107.73899691,W,2,12,0.8,8.337,M,-38.204,M,48.4,0131*56
$PYRTM,2024,126.168177125637,17.277824535775
$GNHDT,125.524,T*2E
$PYRTM,2024,126.168182968229,17.277830378368
$GNGGA,040211.00,3425.56272921,N,12107.73783454,W,2,12,0.8,8.462,M,-38.204,M,49.0,0131*50
$PYRTM,2024,126.168182968229,17.277830378368
$GNHDT,125.870,T*22
$PYRTM,2024,126.168188698646,17.277836108785
$GNGGA,040211.50,3425.56184022,N,12107.73661500,W,2,12,0.8,8.692,M,-38.204,M,49.4,0131*51
$PYRTM,2024,126.168188698646,17.277836108785
$GNHDT,126.102,T*2D
$PYRTM,2024,126.168194542616,17.277841952755
$GNGGA,040212.00,3425.56099569,N,12107.73530746,W,2,12,0.8,8.984,M,-38.204,M,4.0,0131*62
$PYRTM,2024,126.168194542616,17.277841952755
$GNHDT,126.239,T*26
$PYRTM,2024,126.168200269653,17.277847679792
$GNGGA,040212.50,3425.56016437,N,12107.73401739,W,2,12,0.8,9.295,M,-38.204,M,4.4,0131*6F
$PYRTM,2024,126.168200269653,17.277847679792
$GNHDT,126.723,T*28
$PYRTM,2024,126.168206114815,17.277853524954
$GNGGA,040213.00,3425.55931786,N,12107.73273541,W,2,12,0.8,9.497,M,-38.204,M,5.0,0131*62
$PYRTM,2024,126.168206114815,17.277853524954
$GNHDT,126.754,T*28
$PYRTM,2024,126.168211845868,17.277859256007
$GNGGA,040213.50,3425.55843980,N,12107.73151246,W,2,12,0.8,9.539,M,-38.204,M,5.4,0131*69
$PYRTM,2024,126.168211845868,17.277859256007
$GNHDT,126.393,T*27
$PYRTM,2024,126.168217687778,17.277865097917
$GNGGA,040214.00,3425.55753486,N,12107.73033590,W,2,12,0.8,9.383,M,-38.204,M,6.0,0131*67
$PYRTM,2024,126.168217687778,17.277865097917
$GNHDT,126.222,T*2C
$PYRTM,2024,126.168223418843,17.277870828981
$GNGGA,040214.50,3425.55662283,N,12107.72921457,W,2,12,0.8,9.103,M,-38.204,M,6.4,0131*6D
$PYRTM,2024,126.168223418843,17.277870828981
$GNHDT,125.933,T*24
$PYRTM,2024,126.168229264572,17.277876674711
$GNGGA,040215.00,3425.55573154,N,12107.72813105,W,2,12,0.8,8.743,M,-38.204,M,7.0,0131*67
$PYRTM,2024,126.168229264572,17.277876674711
$GNHDT,125.378,T*21
$PYRTM,2024,126.168234994977,17.277882405116
$GNGGA,040215.50,3425.55488531,N,12107.72708383,W,2,12,0.8,8.422,M,-38.204,M,7.4,0131*69
$PYRTM,2024,126.168234994977,17.277882405116
$GNHDT,125.037,T*29
$PYRTM,2024,126.168240835625,17.277888245764
$GNGGA,040216.00,3425.55409693,N,12107.72605432,W,2,12,0.8,8.213,M,-38.204,M,7.0,0131*6C
$PYRTM,2024,126.168240835625,17.277888245764
$GNHDT,124.638,T*21
$PYRTM,2024,126.168246571620,17.277893981759
$GNGGA,040216.50,3425.55334738,N,12107.72503314,W,2,12,0.8,8.078,M,-38.204,M,7.4,0131*6D
$PYRTM,2024,126.168246571620,17.277893981759
$GNHDT,124.205,T*2B
$PYRTM,2024,126.168252409745,17.277899819884
$GNGGA,040217.00,3425.55260330,N,12107.72400686,W,2,12,0.8,8.004,M,-38.204,M,7.0,0131*66
$PYRTM,2024,126.168252409745,17.277899819884
$GNHDT,124.100,T*2D
$PYRTM,2024,126.168258139317,17.277905549456
$GNGGA,040217.50,3425.55182542,N,12107.72300749,W,2,12,0.8,7.989,M,-38.204,M,7.4,0131*6D
$PYRTM,2024,126.168258139317,17.277905549456
$GNHDT,124.364,T*2D
$PYRTM,2024,126.168263990509,17.277911400648
$GNGGA,040218.00,3425.55099773,N,12107.72201772,W,2,12,0.8,7.947,M,-38.204,M,4.0,0131*61
$PYRTM,2024,126.168263990509,17.277911400648
$GNHDT,125.031,T*2F
$PYRTM,2024,126.168269720324,17.277917130475
$GNGGA,040218.50,3425.55012771,N,12107.72104776,W,2,12,0.8,7.929,M,-38.204,M,4.4,0131*6B
$PYRTM,2024,126.168269720324,17.277917130475
$GNHDT,125.245,T*2E
$PYRTM,2024,126.168275557384,17.277922967523
$GNGGA,040219.00,3425.54922742,N,12107.72004168,W,2,12,0.8,7.926,M,-38.204,M,5.0,0131*66
$PYRTM,2024,126.168275557384,17.277922967523
$GNHDT,125.840,T*21
$PYRTM,2024,126.168281289005,17.277928699144
$GNGGA,040219.50,3425.54831737,N,12107.71898799,W,2,12,0.8,7.967,M,-38.204,M,5.4,0131*65
$PYRTM,2024,126.168281289005,17.277928699144
$GNHDT,126.249,T*21
$PYRTM,2024,126.168287130220,17.277934540359
$GNGGA,040220.00,3425.54740779,N,12107.71787613,W,2,12,0.8,8.103,M,-38.204,M,6.0,0131*69
$PYRTM,2024,126.168287130220,17.277934540359
$GNHDT,126.033,T*2E
$PYRTM,2024,126.168292867512,17.277940277650
$GNGGA,040220.50,3425.54650186,N,12107.71670309,W,2,12,0.8,8.316,M,-38.204,M,6.4,0131*6F
$PYRTM,2024,126.168292867512,17.277940277650
$GNHDT,125.988,T*24
$PYRTM,2024,126.168298705590,17.277946115729
$GNGGA,040221.00,3425.54560573,N,12107.71543486,W,2,12,0.8,8.494,M,-38.204,M,7.0,0131*6E
$PYRTM,2024,126.168298705590,17.277946115729
$GNHDT,125.619,T*23
$PYRTM,2024,126.168304437847,17.277951847986
$GNGGA,040221.50,3425.54471160,N,12107.71415275,W,2,12,0.8,8.646,M,-38.204,M,7.4,0131*6D
$PYRTM,2024,126.168304437847,17.277951847986
$GNHDT,125.124,T*2A
$PYRTM,2024,126.168310283148,17.277957693287
$GNGGA,040222.00,3425.54381171,N,12107.71289008,W,2,12,0.8,8.767,M,-38.204,M,7.0,0131*6E
$PYRTM,2024,126.168310283148,17.277957693287
$GNHDT,124.831,T*26
$PYRTM,2024,126.168316012280,17.277963422419
$GNGGA,040222.50,3425.54292752,N,12107.71164459,W,2,12,0.8,8.824,M,-38.204,M,7.4,0131*63
$PYRTM,2024,126.168316012280,17.277963422419
$GNHDT,124.757,T*29
$PYRTM,2024,126.168321852350,17.277969262488
$GNGGA,040223.00,3425.54203890,N,12107.71045719,W,2,12,0.8,8.732,M,-38.204,M,7.0,0131*67
$PYRTM,2024,126.168321852350,17.277969262488
$GNHDT,124.651,T*2E
$PYRTM,2024,126.168327589317,17.277974999456
$GNGGA,040223.50,3425.54114687,N,12107.70933579,W,2,12,0.8,8.572,M,-38.204,M,7.4,0131*60
$PYRTM,2024,126.168327589317,17.277974999456
$GNHDT,124.608,T*22
$PYRTM,2024,126.168333425683,17.277980835833
$GNGGA,040224.00,3425.54027075,N,12107.70827235,W,2,12,0.8,8.352,M,-38.204,M,4.0,0131*60
$PYRTM,2024,126.168333425683,17.277980835833
$GNHDT,124.673,T*2E
$PYRTM,2024,126.168339163507,17.277986573646
$GNGGA,040224.50,3425.53942202,N,12107.70724430,W,2,12,0.8,8.112,M,-38.204,M,4.4,0131*67
$PYRTM,2024,126.168339163507,17.277986573646
$GNHDT,124.927,T*20
$PYRTM,2024,126.168345004792,17.277992414942
$GNGGA,040225.00,3425.53860053,N,12107.70624075,W,2,12,0.8,7.905,M,-38.204,M,5.0,0131*64
$PYRTM,2024,126.168345004792,17.277992414942
$GNHDT,124.878,T*2B
$PYRTM,2024,126.168350735023,17.277998145162
$GNGGA,040225.50,3425.53779247,N,12107.70523683,W,2,12,0.8,7.721,M,-38.204,M,5.4,0131*66
$PYRTM,2024,126.168350735023,17.277998145162
$GNHDT,124.848,T*28
$PYRTM,2024,126.168356575938,17.278003986076
$GNGGA,040226.00,3425.53699403,N,12107.70422910,W,2,12,0.8,7.598,M,-38.204,M,6.0,0131*6B
$PYRTM,2024,126.168356575938,17.278003986076
$GNHDT,124.652,T*2D
$PYRTM,2024,126.168362310810,17.278009720949
$GNGGA,040226.50,3425.53620126,N,12107.70323075,W,2,12,0.8,7.510,M,-38.204,M,6.4,0131*66
$PYRTM,2024,126.168362310810,17.278009720949
$GNHDT,124.645,T*2B
$PYRTM,2024,126.168368154815,17.278015564965
$GNGGA,040227.00,3425.53542391,N,12107.70224164,W,2,12,0.8,7.518,M,-38.204,M,7.0,0131*61
$PYRTM,2024,126.168368154815,17.278015564965
$GNHDT,124.512,T*2A
$PYRTM,2024,126.168373886435,17.278021296574
$GNGGA,040227.50,3425.53466372,N,12107.70124277,W,2,12,0.8,7.624,M,-38.204,M,7.4,0131*64
$PYRTM,2024,126.168373886435,17.278021296574
$GNHDT,124.392,T*24
$PYRTM,2024,126.168379725984,17.278027136123
$GNGGA,040228.00,3425.53392092,N,12107.70022538,W,2,12,0.8,7.854,M,-38.204,M,7.0,0131*69
$PYRTM,2024,126.168379725984,17.278027136123
$GNHDT,124.210,T*2F
$PYRTM,2024,126.168385457535,17.278032867685
$GNGGA,040228.50,3425.53315863,N,12107.69919280,W,2,12,0.8,8.098,M,-38.204,M,7.4,0131*6B
$PYRTM,2024,126.168385457535,17.278032867685
$GNHDT,124.014,T*29
