$PYRTM,2024,127.916666827037,19.026314237176
$GNGGA,220000.00,3319.68059403,N,11833.91180488,W,2,13,0.8,6.102,M,-37.598,M,4.0,0131*68
$PYRTM,2024,127.916666827037,19.026314237176
$GNHDT,127.277,T*2D
$PYRTM,2024,127.916672549664,19.026319959803
$GNGGA,220000.50,3319.67987367,N,11833.91087227,W,2,13,0.8,5.997,M,-37.598,M,4.4,0131*6B
$PYRTM,2024,127.916672549664,19.026319959803
$GNHDT,127.076,T*2E
$PYRTM,2024,127.916678397523,19.026325807662
$GNGGA,220001.00,3319.67911826,N,11833.90998940,W,2,13,0.8,5.902,M,-37.598,M,5.0,0131*6B
$PYRTM,2024,127.916678397523,19.026325807662
$GNHDT,126.757,T*2B
$PYRTM,2024,127.916684126296,19.026331536435
$GNGGA,220001.50,3319.67834657,N,11833.90909363,W,2,13,0.8,5.788,M,-37.598,M,5.4,0131*6B
$PYRTM,2024,127.916684126296,19.026331536435
$GNHDT,126.463,T*2F
$PYRTM,2024,127.916689980243,19.026337390382
$GNGGA,220002.00,3319.67757264,N,11833.90817162,W,2,13,0.8,5.714,M,-37.598,M,6.0,0131*6C
$PYRTM,2024,127.916689980243,19.026337390382
$GNHDT,126.492,T*21
$PYRTM,2024,127.916695701794,19.026343111933
$GNGGA,220002.50,3319.67679496,N,11833.90722363,W,2,13,0.8,5.772,M,-37.598,M,6.4,0131*61
$PYRTM,2024,127.916695701794,19.026343111933
$GNHDT,126.468,T*24
$PYRTM,2024,127.916701546875,19.026348957014
$GNGGA,220003.00,3319.67607911,N,11833.90620145,W,2,13,0.8,5.918,M,-37.598,M,7.0,0131*6C
$PYRTM,2024,127.916701546875,19.026348957014
$GNHDT,126.904,T*23
$PYRTM,2024,127.916707277454,19.026354687593
$GNGGA,220003.50,3319.67537066,N,11833.90513164,W,2,13,0.8,6.145,M,-37.598,M,7.4,0131*67
$PYRTM,2024,127.916707277454,19.026354687593
$GNHDT,127.697,T*27
$PYRTM,2024,127.916713124734,19.026360534873
$GNGGA,220004.00,3319.67467994,N,11833.90400504,W,2,13,0.8,6.420,M,-37.598,M,7.0,0131*66
$PYRTM,2024,127.916713124734,19.026360534873
$GNHDT,128.294,T*2F
$PYRTM,2024,127.916718852373,19.026366262512
$GNGGA,220004.50,3319.67398491,N,11833.90284320,W,2,13,0.8,6.628,M,-37.598,M,7.4,0131*68
$PYRTM,2024,127.916718852373,19.026366262512
$GNHDT,129.005,T*24
$PYRTM,2024,127.916724694549,19.026372104687
$GNGGA,220005.00,3319.67323383,N,11833.90170074,W,2,13,0.8,6.857,M,-37.598,M,7.0,0131*60
$PYRTM,2024,127.916724694549,19.026372104687
$GNHDT,129.531,T*26
$PYRTM,2024,127.916730422280,19.026377832419
$GNGGA,220005.50,3319.67249126,N,11833.90054508,W,2,13,0.8,6.967,M,-37.598,M,7.4,0131*6A
$PYRTM,2024,127.916730422280,19.026377832419
$GNHDT,129.679,T*29
$PYRTM,2024,127.916736271667,19.026383681806
$GNGGA,220006.00,3319.67173548,N,11833.89940220,W,2,13,0.8,7.041,M,-37.598,M,4.0,0131*68
$PYRTM,2024,127.916736271667,19.026383681806
$GNHDT,129.629,T*2C
$PYRTM,2024,127.916741995417,19.026389405567
$GNGGA,220006.50,3319.67100399,N,11833.89825567,W,2,13,0.8,7.011,M,-37.598,M,4.4,0131*64
$PYRTM,2024,127.916741995417,19.026389405567
$GNHDT,129.154,T*21
$PYRTM,2024,127.916747844109,19.026395254248
$GNGGA,220007.00,3319.67027944,N,11833.89711567,W,2,13,0.8,6.905,M,-37.598,M,5.0,0131*6E
$PYRTM,2024,127.916747844109,19.026395254248
$GNHDT,128.661,T*21
$PYRTM,2024,127.916753569144,19.026400979282
$GNGGA,220007.50,3319.66953620,N,11833.89601009,W,2,13,0.8,6.733,M,-37.598,M,5.4,0131*6F
$PYRTM,2024,127.916753569144,19.026400979282
$GNHDT,128.245,T*23
$PYRTM,2024,127.916759419641,19.026406829792
$GNGGA,220008.00,3319.66878930,N,11833.89493148,W,2,13,0.8,6.542,M,-37.598,M,6.0,0131*6D
$PYRTM,2024,127.916759419641,19.026406829792
$GNHDT,127.638,T*22
$PYRTM,2024,127.916765143924,19.026412554062
$GNGGA,220008.50,3319.66806066,N,11833.89386710,W,2,13,0.8,6.336,M,-37.598,M,6.4,0131*62
$PYRTM,2024,127.916765143924,19.026412554062
$GNHDT,127.118,T*27
$PYRTM,2024,127.916770992396,19.026418402535
$GNGGA,220009.00,3319.66737579,N,11833.89280206,W,2,13,0.8,6.132,M,-37.598,M,7.0,0131*66
$PYRTM,2024,127.916770992396,19.026418402535
$GNHDT,126.694,T*25
$PYRTM,2024,127.916776723681,19.026424133819
$GNGGA,220009.50,3319.66669843,N,11833.89177286,W,2,13,0.8,6.018,M,-37.598,M,7.4,0131*63
$PYRTM,2024,127.916776723681,19.026424133819
$GNHDT,126.499,T*2A
$PYRTM,2024,127.916782568032,19.026429978171
$GNGGA,220010.00,3319.66603211,N,11833.89077300,W,2,13,0.8,5.994,M,-37.598,M,7.0,0131*6B
$PYRTM,2024,127.916782568032,19.026429978171
$GNHDT,126.586,T*25
$PYRTM,2024,127.916788291447,19.026435701586
$GNGGA,220010.50,3319.66534641,N,11833.88982217,W,2,13,0.8,6.082,M,-37.598,M,7.4,0131*64
$PYRTM,2024,127.916788291447,19.026435701586
$GNHDT,126.586,T*25
$PYRTM,2024,127.916794139444,19.026441549583
$GNGGA,220011.00,3319.66462516,N,11833.88890737,W,2,13,0.8,6.240,M,-37.598,M,7.0,0131*6E
$PYRTM,2024,127.916794139444,19.026441549583
$GNHDT,126.888,T*26
$PYRTM,2024,127.916799864861,19.026447275000
$GNGGA,220011.50,3319.66388597,N,11833.88797507,W,2,13,0.8,6.366,M,-37.598,M,7.4,0131*69
$PYRTM,2024,127.916799864861,19.026447275000
$GNHDT,126.945,T*26
$PYRTM,2024,127.916805715752,19.026453125891
$GNGGA,220012.00,3319.66313381,N,11833.88699068,W,2,13,0.8,6.402,M,-37.597,M,4.0,0131*62
$PYRTM,2024,127.916805715752,19.026453125891
$GNHDT,127.182,T*24
$PYRTM,2024,127.916811439630,19.026458849769
$GNGGA,220012.50,3319.66234491,N,11833.88602004,W,2,13,0.8,6.421,M,-37.597,M,4.4,0131*68
$PYRTM,2024,127.916811439630,19.026458849769
$GNHDT,127.576,T*2B
$PYRTM,2024,127.916817290394,19.026464700532
$GNGGA,220013.00,3319.66157276,N,11833.88501267,W,2,13,0.8,6.425,M,-37.597,M,5.0,0131*63
$PYRTM,2024,127.916817290394,19.026464700532
$GNHDT,127.855,T*27
$PYRTM,2024,127.916823016146,19.026470426285
$GNGGA,220013.50,3319.66083179,N,11833.88397643,W,2,13,0.8,6.452,M,-37.597,M,5.4,0131*6D
$PYRTM,2024,127.916823016146,19.026470426285
$GNHDT,128.261,T*25
$PYRTM,2024,127.916828862095,19.026476272245
$GNGGA,220014.00,3319.66012533,N,11833.88289941,W,2,13,0.8,6.551,M,-37.597,M,6.0,0131*6B
$PYRTM,2024,127.916828862095,19.026476272245
$GNHDT,128.540,T*21
$PYRTM,2024,127.916834587049,19.026481997187
$GNGGA,220014.50,3319.65944475,N,11833.88180294,W,2,13,0.8,6.730,M,-37.597,M,6.4,0131*6C
$PYRTM,2024,127.916834587049,19.026481997187
$GNHDT,128.755,T*27
$PYRTM,2024,127.916840437164,19.026487847303
$GNGGA,220015.00,3319.65876352,N,11833.88069768,W,2,13,0.8,6.958,M,-37.597,M,7.0,0131*6F
$PYRTM,2024,127.916840437164,19.026487847303
$GNHDT,128.992,T*22
$PYRTM,2024,127.916846162662,19.026493572801
$GNGGA,220015.50,3319.65807341,N,11833.87959082,W,2,13,0.8,7.125,M,-37.597,M,7.4,0131*6F
$PYRTM,2024,127.916846162662,19.026493572801
$GNHDT,129.318,T*2B
$PYRTM,2024,127.916852009433,19.026499419583
$GNGGA,220016.00,3319.65733991,N,11833.87850480,W,2,13,0.8,7.245,M,-37.597,M,7.0,0131*69
$PYRTM,2024,127.916852009433,19.026499419583
$GNHDT,129.532,T*25
$PYRTM,2024,127.916857736794,19.026505146933
$GNGGA,220016.50,3319.65659005,N,11833.87743524,W,2,13,0.8,7.249,M,-37.597,M,7.4,0131*6F
$PYRTM,2024,127.916857736794,19.026505146933
$GNHDT,129.633,T*27
$PYRTM,2024,127.916863584514,19.026510994664
$GNGGA,220017.00,3319.65583722,N,11833.87637916,W,2,13,0.8,7.155,M,-37.597,M,7.0,0131*68
$PYRTM,2024,127.916863584514,19.026510994664
$GNHDT,129.859,T*25
$PYRTM,2024,127.916869309340,19.026516719479
$GNGGA,220017.50,3319.65508996,N,11833.87533433,W,2,13,0.8,6.997,M,-37.597,M,7.4,0131*61
$PYRTM,2024,127.916869309340,19.026516719479
$GNHDT,130.008,T*21
$PYRTM,2024,127.916875159931,19.026522570069
$GNGGA,220018.00,3319.65434744,N,11833.87428621,W,2,13,0.8,6.852,M,-37.597,M,4.0,0131*61
$PYRTM,2024,127.916875159931,19.026522570069
$GNHDT,130.030,T*2A
$PYRTM,2024,127.916880883345,19.026528293484
$GNGGA,220018.50,3319.65360453,N,11833.87326453,W,2,13,0.8,6.757,M,-37.597,M,4.4,0131*67
$PYRTM,2024,127.916880883345,19.026528293484
$GNHDT,130.014,T*2C
$PYRTM,2024,127.916886732998,19.026534143137
$GNGGA,220019.00,3319.65286561,N,11833.87224962,W,2,13,0.8,6.722,M,-37.597,M,5.0,0131*61
$PYRTM,2024,127.916886732998,19.026534143137
$GNHDT,129.873,T*2D
$PYRTM,2024,127.916892462616,19.026539872755
$GNGGA,220019.50,3319.65216867,N,11833.87120658,W,2,13,0.8,6.680,M,-37.597,M,5.4,0131*6A
$PYRTM,2024,127.916892462616,19.026539872755
$GNHDT,129.905,T*2D
$PYRTM,2024,127.916898307442,19.026545717581
$GNGGA,220020.00,3319.65148614,N,11833.87015046,W,2,13,0.8,6.636,M,-37.597,M,6.0,0131*63
$PYRTM,2024,127.916898307442,19.026545717581
$GNHDT,129.819,T*21
$PYRTM,2024,127.916904034757,19.026551444896
$GNGGA,220020.50,3319.65079459,N,11833.86910211,W,2,13,0.8,6.586,M,-37.597,M,6.4,0131*6F
$PYRTM,2024,127.916904034757,19.026551444896
$GNHDT,129.733,T*26
$PYRTM,2024,127.916909885359,19.026557295509
$GNGGA,220021.00,3319.65008822,N,11833.86806723,W,2,13,0.8,6.493,M,-37.597,M,7.0,0131*6F
$PYRTM,2024,127.916909885359,19.026557295509
$GNHDT,129.569,T*2B
$PYRTM,2024,127.916915607025,19.026563017164
$GNGGA,220021.50,3319.64934703,N,11833.86707851,W,2,13,0.8,6.412,M,-37.597,M,7.4,0131*68
$PYRTM,2024,127.916915607025,19.026563017164
$GNHDT,129.507,T*23
$PYRTM,2024,127.916921456192,19.026568866331
$GNGGA,220022.00,3319.64858900,N,11833.86611567,W,2,13,0.8,6.297,M,-37.597,M,7.0,0131*69
$PYRTM,2024,127.916921456192,19.026568866331
$GNHDT,129.622,T*27
$PYRTM,2024,127.916927179410,19.026574589549
$GNGGA,220022.50,3319.64781805,N,11833.86517252,W,2,13,0.8,6.234,M,-37.597,M,7.4,0131*6A
$PYRTM,2024,127.916927179410,19.026574589549
$GNHDT,129.772,T*23
$PYRTM,2024,127.916933030937,19.026580441076
$GNGGA,220023.00,3319.64704481,N,11833.86423013,W,2,13,0.8,6.214,M,-37.597,M,7.0,0131*64
$PYRTM,2024,127.916933030937,19.026580441076
$GNHDT,129.925,T*2F
$PYRTM,2024,127.916938752870,19.026586163009
$GNGGA,220023.50,3319.64628706,N,11833.86326225,W,2,13,0.8,6.259,M,-37.597,M,7.4,0131*6A
$PYRTM,2024,127.916938752870,19.026586163009
$GNHDT,130.065,T*2A
$PYRTM,2024,127.916944602743,19.026592012882
$GNGGA,220024.00,3319.64553053,N,11833.86225542,W,2,13,0.8,6.293,M,-37.597,M,4.0,0131*65
$PYRTM,2024,127.916944602743,19.026592012882
$GNHDT,130.104,T*2C
$PYRTM,2024,127.916950330382,19.026597740521
$GNGGA,220024.50,3319.64477720,N,11833.86123047,W,2,13,0.8,6.330,M,-37.597,M,4.4,0131*6D
$PYRTM,2024,127.916950330382,19.026597740521
$GNHDT,130.082,T*23
$PYRTM,2024,127.916956180301,19.026603590451
$GNGGA,220025.00,3319.64402037,N,11833.86019527,W,2,13,0.8,6.301,M,-37.597,M,5.0,0131*66
$PYRTM,2024,127.916956180301,19.026603590451
$GNHDT,130.089,T*28
$PYRTM,2024,127.916961905556,19.026609315694
$GNGGA,220025.50,3319.64323530,N,11833.85916863,W,2,13,0.8,6.239,M,-37.597,M,5.4,0131*63
$PYRTM,2024,127.916961905556,19.026609315694
$GNHDT,130.107,T*2F
$PYRTM,2024,127.916967755278,19.026615165417
$GNGGA,220026.00,3319.64245395,N,11833.85814432,W,2,13,0.8,6.136,M,-37.597,M,6.0,0131*6D
$PYRTM,2024,127.916967755278,19.026615165417
$GNHDT,130.054,T*28
$PYRTM,2024,127.916973477396,19.026620887535
$GNGGA,220026.50,3319.64168012,N,11833.85712337,W,2,13,0.8,6.070,M,-37.597,M,6.4,0131*64
$PYRTM,2024,127.916973477396,19.026620887535
$GNHDT,129.813,T*2B
$PYRTM,2024,127.916979325775,19.026626735914
$GNGGA,220027.00,3319.64092338,N,11833.85608938,W,2,13,0.8,6.028,M,-37.597,M,7.0,0131*68
$PYRTM,2024,127.916979325775,19.026626735914
$GNHDT,129.736,T*23
$PYRTM,2024,127.916985050278,19.026632460417
$GNGGA,220027.50,3319.64019739,N,11833.85503467,W,2,13,0.8,6.049,M,-37.597,M,7.4,0131*67
$PYRTM,2024,127.916985050278,19.026632460417
$GNHDT,129.666,T*27
$PYRTM,2024,127.916990902616,19.026638312755
$GNGGA,220028.00,3319.63948777,N,11833.85396458,W,2,13,0.8,6.065,M,-37.597,M,7.0,0131*61
$PYRTM,2024,127.916990902616,19.026638312755
$GNHDT,129.528,T*2E
$PYRTM,2024,127.916996624051,19.026644034190
$GNGGA,220028.50,3319.63875571,N,11833.85289972,W,2,13,0.8,6.070,M,-37.597,M,7.4,0131*65
$PYRTM,2024,127.916996624051,19.026644034190
$GNHDT,129.339,T*28
$PYRTM,2024,127.917002476632,19.026649886782
$GNGGA,220029.00,3319.63800452,N,11833.85185398,W,2,13,0.8,6.040,M,-37.597,M,7.0,0131*65
$PYRTM,2024,127.917002476632,19.026649886782
$GNHDT,129.301,T*23
$PYRTM,2024,127.917008202523,19.026655612674
$GNGGA,220029.50,3319.63723101,N,11833.85083386,W,2,13,0.8,6.024,M,-37.597,M,7.4,0131*63
$PYRTM,2024,127.917008202523,19.026655612674
$GNHDT,129.512,T*27
$PYRTM,2024,127.917014050775,19.026661460914
$GNGGA,220030.00,3319.63645089,N,11833.84981488,W,2,13,0.8,6.008,M,-37.597,M,4.0,0131*64
$PYRTM,2024,127.917014050775,19.026661460914
$GNHDT,129.559,T*28
$PYRTM,2024,127.917019772836,19.026667182975
$GNGGA,220030.50,3319.63568137,N,11833.84878381,W,2,13,0.8,6.023,M,-37.597,M,4.4,0131*6D
$PYRTM,2024,127.917019772836,19.026667182975
$GNHDT,129.647,T*24
$PYRTM,2024,127.917025622813,19.026673032963
$GNGGA,220031.00,3319.63491941,N,11833.84775000,W,2,13,0.8,6.078,M,-37.597,M,5.0,0131*64
$PYRTM,2024,127.917025622813,19.026673032963
$GNHDT,129.798,T*27
$PYRTM,2024,127.917031348542,19.026678758681
$GNGGA,220031.50,3319.63416541,N,11833.84670157,W,2,13,0.8,6.141,M,-37.597,M,5.4,0131*6A
$PYRTM,2024,127.917031348542,19.026678758681
$GNHDT,129.840,T*2D
$PYRTM,2024,127.917037200174,19.026684610324
$GNGGA,220032.00,3319.63342641,N,11833.84564897,W,2,13,0.8,6.203,M,-37.597,M,6.0,0131*68
$PYRTM,2024,127.917037200174,19.026684610324
$GNHDT,129.896,T*26
$PYRTM,2024,127.917042922581,19.026690332720
$GNGGA,220032.50,3319.63268530,N,11833.84459019,W,2,13,0.8,6.219,M,-37.597,M,6.4,0131*6F
$PYRTM,2024,127.917042922581,19.026690332720
$GNHDT,129.807,T*2E
$PYRTM,2024,127.917048773750,19.026696183889
$GNGGA,220033.00,3319.63193843,N,11833.84352024,W,2,13,0.8,6.160,M,-37.597,M,7.0,0131*6F
$PYRTM,2024,127.917048773750,19.026696183889
$GNHDT,129.734,T*21
$PYRTM,2024,127.917054498495,19.026701908634
$GNGGA,220033.50,3319.63118498,N,11833.84244709,W,2,13,0.8,6.079,M,-37.597,M,7.4,0131*60
$PYRTM,2024,127.917054498495,19.026701908634
$GNHDT,129.708,T*2E
$PYRTM,2024,127.917060347847,19.026707757986
$GNGGA,220034.00,3319.63043981,N,11833.84137931,W,2,13,0.8,5.988,M,-37.597,M,7.0,0131*6A
$PYRTM,2024,127.917060347847,19.026707757986
$GNHDT,129.693,T*2D
$PYRTM,2024,127.917066069884,19.026713480023
$GNGGA,220034.50,3319.62970300,N,11833.84032942,W,2,13,0.8,5.920,M,-37.597,M,7.4,0131*62
$PYRTM,2024,127.917066069884,19.026713480023
$GNHDT,129.520,T*26
$PYRTM,2024,127.917071918715,19.026719328854
$GNGGA,220035.00,3319.62896714,N,11833.83930461,W,2,13,0.8,5.875,M,-37.597,M,7.0,0131*6B
$PYRTM,2024,127.917071918715,19.026719328854
$GNHDT,129.498,T*24
$PYRTM,2024,127.917077643912,19.026725054051
$GNGGA,220035.50,3319.62823575,N,11833.83828806,W,2,13,0.8,5.830,M,-37.597,M,7.4,0131*65
$PYRTM,2024,127.917077643912,19.026725054051
$GNHDT,129.386,T*2C
$PYRTM,2024,127.917083493507,19.026730903646
$GNGGA,220036.00,3319.62750330,N,11833.83727312,W,2,13,0.8,5.751,M,-37.597,M,4.0,0131*6E
$PYRTM,2024,127.917083493507,19.026730903646
$GNHDT,129.259,T*2F
$PYRTM,2024,127.917089219965,19.026736630104
$GNGGA,220036.50,3319.62676282,N,11833.83626233,W,2,13,0.8,5.635,M,-37.597,M,4.4,0131*63
$PYRTM,2024,127.917089219965,19.026736630104
$GNHDT,129.220,T*21
$PYRTM,2024,127.917095069491,19.026742479630
$GNGGA,220037.00,3319.62602666,N,11833.83526498,W,2,13,0.8,5.503,M,-37.597,M,5.0,0131*6D
$PYRTM,2024,127.917095069491,19.026742479630
$GNHDT,129.208,T*2B
$PYRTM,2024,127.917100795451,19.026748205602
$GNGGA,220037.50,3319.62529598,N,11833.83428346,W,2,13,0.8,5.424,M,-37.597,M,5.4,0131*6B
$PYRTM,2024,127.917100795451,19.026748205602
$GNHDT,129.383,T*29
$PYRTM,2024,127.917106640579,19.026754050718
$GNGGA,220038.00,3319.62456388,N,11833.83331457,W,2,13,0.8,5.408,M,-37.597,M,6.0,0131*6E
$PYRTM,2024,127.917106640579,19.026754050718
$GNHDT,129.595,T*28
$PYRTM,2024,127.917112367106,19.026759777257
$GNGGA,220038.50,3319.62382955,N,11833.83233504,W,2,13,0.8,5.416,M,-37.597,M,6.4,0131*60
$PYRTM,2024,127.917112367106,19.026759777257
$GNHDT,129.424,T*23
$PYRTM,2024,127.917118216782,19.026765626921
$GNGGA,220039.00,3319.62307917,N,11833.83135357,W,2,13,0.8,5.422,M,-37.597,M,7.0,0131*68
$PYRTM,2024,127.917118216782,19.026765626921
$GNHDT,129.442,T*23
$PYRTM,2024,127.917123940938,19.026771351076
$GNGGA,220039.50,3319.62231555,N,11833.83036302,W,2,13,0.8,5.431,M,-37.597,M,7.4,0131*67
$PYRTM,2024,127.917123940938,19.026771351076
$GNHDT,129.459,T*29
$PYRTM,2024,127.917129789988,19.026777200127
$GNGGA,220040.00,3319.62154165,N,11833.82936292,W,2,13,0.8,5.462,M,-37.597,M,7.0,0131*69
$PYRTM,2024,127.917129789988,19.026777200127
$GNHDT,129.443,T*22
$PYRTM,2024,127.917135518530,19.026782928669
$GNGGA,220040.50,3319.62078289,N,11833.82834519,W,2,13,0.8,5.499,M,-37.597,M,7.4,0131*65
$PYRTM,2024,127.917135518530,19.026782928669
$GNHDT,129.616,T*20
$PYRTM,2024,127.917141364062,19.026788774201
$GNGGA,220041.00,3319.62001200,N,11833.82732774,W,2,13,0.8,5.567,M,-37.597,M,7.0,0131*6A
$PYRTM,2024,127.917141364062,19.026788774201
$GNHDT,129.743,T*21
$PYRTM,2024,127.917147092130,19.026794502269
$GNGGA,220041.50,3319.61923906,N,11833.82630495,W,2,13,0.8,5.641,M,-37.597,M,7.4,0131*64
$PYRTM,2024,127.917147092130,19.026794502269
$GNHDT,129.740,T*22
$PYRTM,2024,127.917152938773,19.026800348912
$GNGGA,220042.00,3319.61845138,N,11833.82527946,W,2,13,0.8,5.721,M,-37.597,M,4.0,0131*60
$PYRTM,2024,127.917152938773,19.026800348912
$GNHDT,129.802,T*2B
$PYRTM,2024,127.917158660822,19.026806070961
$GNGGA,220042.50,3319.61766889,N,11833.82423620,W,2,13,0.8,5.798,M,-37.597,M,4.4,0131*64
$PYRTM,2024,127.917158660822,19.026806070961
$GNHDT,129.942,T*2E
$PYRTM,2024,127.917164511458,19.026811921609
$GNGGA,220043.00,3319.61688666,N,11833.82317184,W,2,13,0.8,5.880,M,-37.597,M,5.0,0131*64
$PYRTM,2024,127.917164511458,19.026811921609
$GNHDT,130.042,T*2F
$PYRTM,2024,127.917170237338,19.026817647477
$GNGGA,220043.50,3319.61611295,N,11833.82208627,W,2,13,0.8,5.962,M,-37.597,M,5.4,0131*61
$PYRTM,2024,127.917170237338,19.026817647477
$GNHDT,129.872,T*2C
$PYRTM,2024,127.917176088600,19.026823498738
$GNGGA,220044.00,3319.61533941,N,11833.82098477,W,2,13,0.8,6.022,M,-37.597,M,6.0,0131*67
$PYRTM,2024,127.917176088600,19.026823498738
$GNHDT,129.942,T*2E
$PYRTM,2024,127.917181810417,19.026829220567
$GNGGA,220044.50,3319.61456951,N,11833.81988252,W,2,13,0.8,6.086,M,-37.597,M,6.4,0131*61
$PYRTM,2024,127.917181810417,19.026829220567
$GNHDT,129.767,T*27
$PYRTM,2024,127.917187660787,19.026835070926
$GNGGA,220045.00,3319.61379496,N,11833.81877443,W,2,13,0.8,6.125,M,-37.597,M,7.0,0131*63
$PYRTM,2024,127.917187660787,19.026835070926
$GNHDT,129.579,T*2A
$PYRTM,2024,127.917193389282,19.026840799433
$GNGGA,220045.50,3319.61302973,N,11833.81767941,W,2,13,0.8,6.153,M,-37.597,M,7.4,0131*68
$PYRTM,2024,127.917193389282,19.026840799433
$GNHDT,129.583,T*2F
$PYRTM,2024,127.917199235718,19.026846645856
$GNGGA,220046.00,3319.61227536,N,11833.81659541,W,2,13,0.8,6.161,M,-37.597,M,7.0,0131*60
$PYRTM,2024,127.917199235718,19.026846645856
$GNHDT,129.510,T*25
$PYRTM,2024,127.917204961678,19.026852371817
$GNGGA,220046.50,3319.61151268,N,11833.81552570,W,2,13,0.8,6.145,M,-37.597,M,7.4,0131*63
$PYRTM,2024,127.917204961678,19.026852371817
$GNHDT,129.449,T*28
$PYRTM,2024,127.917210812894,19.026858223032
$GNGGA,220047.00,3319.61073602,N,11833.81447404,W,2,13,0.8,6.079,M,-37.597,M,7.0,0131*63
$PYRTM,2024,127.917210812894,19.026858223032
$GNHDT,129.241,T*26
$PYRTM,2024,127.917216535926,19.026863946065
$GNGGA,220047.50,3319.60996393,N,11833.81341537,W,2,13,0.8,5.954,M,-37.597,M,7.4,0131*69
$PYRTM,2024,127.917216535926,19.026863946065
$GNHDT,129.204,T*27
$PYRTM,2024,127.917222382824,19.026869792963
$GNGGA,220048.00,3319.60919768,N,11833.81235753,W,2,13,0.8,5.804,M,-37.597,M,4.0,0131*65
$PYRTM,2024,127.917222382824,19.026869792963
$GNHDT,129.126,T*24
$PYRTM,2024,127.917228105278,19.026875515417
$GNGGA,220048.50,3319.60843611,N,11833.81130173,W,2,13,0.8,5.672,M,-37.597,M,4.4,0131*68
$PYRTM,2024,127.917228105278,19.026875515417
$GNHDT,129.002,T*23
$PYRTM,2024,127.917233958032,19.026881368171
$GNGGA,220049.00,3319.60771246,N,11833.81024151,W,2,13,0.8,5.571,M,-37.596,M,5.0,0131*64
$PYRTM,2024,127.917233958032,19.026881368171
$GNHDT,129.222,T*23
$PYRTM,2024,127.917239680486,19.026887090625
$GNGGA,220049.50,3319.60697732,N,11833.80922006,W,2,13,0.8,5.533,M,-37.596,M,5.4,0131*61
$PYRTM,2024,127.917239680486,19.026887090625
$GNHDT,129.138,T*2B
$PYRTM,2024,127.917245531134,19.026892941262
$GNGGA,220050.00,3319.60623966,N,11833.80822960,W,2,13,0.8,5.537,M,-37.596,M,6.0,0131*67
$PYRTM,2024,127.917245531134,19.026892941262
$GNHDT,129.299,T*23
$PYRTM,2024,127.917251258808,19.026898668947
$GNGGA,220050.50,3319.60550086,N,11833.80726122,W,2,13,0.8,5.592,M,-37.596,M,6.4,0131*6C
$PYRTM,2024,127.917251258808,19.026898668947
$GNHDT,129.398,T*23
$PYRTM,2024,127.917257106921,19.026904517060
$GNGGA,220051.00,3319.60475568,N,11833.80629275,W,2,13,0.8,5.632,M,-37.596,M,7.0,0131*68
$PYRTM,2024,127.917257106921,19.026904517060
$GNHDT,129.348,T*2E
$PYRTM,2024,127.917262829306,19.026910239444
$GNGGA,220051.50,3319.60400958,N,11833.80531378,W,2,13,0.8,5.620,M,-37.596,M,7.4,0131*61
$PYRTM,2024,127.917262829306,19.026910239444
$GNHDT,129.491,T*2D
$PYRTM,2024,127.917268681771,19.026916091910
$GNGGA,220052.00,3319.60326502,N,11833.80432709,W,2,13,0.8,5.567,M,-37.596,M,7.0,0131*63
$PYRTM,2024,127.917268681771,19.026916091910
$GNHDT,129.500,T*24
$PYRTM,2024,127.917274406238,19.026921816377
$GNGGA,220052.50,3319.60252074,N,11833.80332781,W,2,13,0.8,5.474,M,-37.596,M,7.4,0131*60
$PYRTM,2024,127.917274406238,19.026921816377
$GNHDT,129.545,T*25
$PYRTM,2024,127.917280251863,19.026927662002
$GNGGA,220053.00,3319.60176959,N,11833.80232795,W,2,13,0.8,5.403,M,-37.596,M,7.0,0131*67
$PYRTM,2024,127.917280251863,19.026927662002
$GNHDT,129.494,T*28
$PYRTM,2024,127.917285977766,19.026933387905
$GNGGA,220053.50,3319.60102797,N,11833.80130401,W,2,13,0.8,5.375,M,-37.596,M,7.4,0131*60
$PYRTM,2024,127.917285977766,19.026933387905
$GNHDT,129.474,T*26
$PYRTM,2024,127.917291824387,19.026939234525
$GNGGA,220054.00,3319.60029462,N,11833.80025656,W,2,13,0.8,5.409,M,-37.596,M,4.0,0131*6D
$PYRTM,2024,127.917291824387,19.026939234525
$GNHDT,129.557,T*26
$PYRTM,2024,127.917297553935,19.026944964688
$GNGGA,220054.50,3319.59956855,N,11833.79919815,W,2,13,0.8,5.513,M,-37.596,M,4.4,0131*6C
$PYRTM,2024,127.917297553935,19.026944964688
$GNHDT,129.663,T*22
$PYRTM,2024,127.917303400891,19.026950811030
$GNGGA,220055.00,3319.59883025,N,11833.79814036,W,2,13,0.8,5.661,M,-37.596,M,5.0,0131*68
$PYRTM,2024,127.917303400891,19.026950811030
$GNHDT,129.808,T*21
$PYRTM,2024,127.917309125046,19.026956535185
$GNGGA,220055.50,3319.59806597,N,11833.79709825,W,2,13,0.8,5.804,M,-37.596,M,5.4,0131*6C
$PYRTM,2024,127.917309125046,19.026956535185
$GNHDT,129.896,T*26
$PYRTM,2024,127.917314977963,19.026962388102
$GNGGA,220056.00,3319.59727950,N,11833.79606361,W,2,13,0.8,5.922,M,-37.596,M,6.0,0131*66
$PYRTM,2024,127.917314977963,19.026962388102
$GNHDT,130.167,T*29
$PYRTM,2024,127.917320705162,19.026968115312
$GNGGA,220056.50,3319.59648298,N,11833.79501830,W,2,13,0.8,5.960,M,-37.596,M,6.4,0131*6D
$PYRTM,2024,127.917320705162,19.026968115312
$GNHDT,130.235,T*2D
$PYRTM,2024,127.917326547176,19.026973957326
$GNGGA,220057.00,3319.59567416,N,11833.79397764,W,2,13,0.8,5.930,M,-37.596,M,7.0,0131*60
$PYRTM,2024,127.917326547176,19.026973957326
$GNHDT,130.347,T*29
$PYRTM,2024,127.917332275532,19.026979685671
$GNGGA,220057.50,3319.59488018,N,11833.79292432,W,2,13,0.8,5.866,M,-37.596,M,7.4,0131*6D
$PYRTM,2024,127.917332275532,19.026979685671
$GNHDT,130.496,T*22
$PYRTM,2024,127.917338124699,19.026985534838
$GNGGA,220058.00,3319.59410570,N,11833.79185690,W,2,13,0.8,5.795,M,-37.596,M,7.0,0131*65
$PYRTM,2024,127.917338124699,19.026985534838
$GNHDT,130.519,T*24
$PYRTM,2024,127.917343848669,19.026991258808
$GNGGA,220058.50,3319.59334790,N,11833.79078165,W,2,13,0.8,5.749,M,-37.596,M,7.4,0131*66
$PYRTM,2024,127.917343848669,19.026991258808
$GNHDT,130.465,T*2E
$PYRTM,2024,127.917349697049,19.026997107188
$GNGGA,220059.00,3319.59260623,N,11833.78970425,W,2,13,0.8,5.759,M,-37.596,M,7.0,0131*6F
$PYRTM,2024,127.917349697049,19.026997107188
$GNHDT,130.252,T*2C
$PYRTM,2024,127.917355421111,19.027002831250
$GNGGA,220059.50,3319.59186472,N,11833.78862764,W,2,13,0.8,5.782,M,-37.596,M,7.4,0131*61
$PYRTM,2024,127.917355421111,19.027002831250
$GNHDT,130.130,T*2B
$PYRTM,2024,127.917361273750,19.027008683889
$GNGGA,220100.00,3319.59112190,N,11833.78755534,W,2,13,0.8,5.817,M,-37.596,M,4.0,0131*65
$PYRTM,2024,127.917361273750,19.027008683889
$GNHDT,129.608,T*2F
$PYRTM,2024,127.917366995278,19.027014405417
$GNGGA,220100.50,3319.59037408,N,11833.78649537,W,2,13,0.8,5.840,M,-37.596,M,4.4,0131*6B
$PYRTM,2024,127.917366995278,19.027014405417
$GNHDT,129.269,T*2C
$PYRTM,2024,127.917372849109,19.027020259248
$GNGGA,220101.00,3319.58961545,N,11833.78546033,W,2,13,0.8,5.858,M,-37.596,M,5.0,0131*6D
$PYRTM,2024,127.917372849109,19.027020259248
$GNHDT,129.175,T*22
$PYRTM,2024,127.917378571157,19.027025981296
$GNGGA,220101.50,3319.58885006,N,11833.78443955,W,2,13,0.8,5.870,M,-37.596,M,5.4,0131*62
$PYRTM,2024,127.917378571157,19.027025981296
$GNHDT,129.259,T*2F
$PYRTM,2024,127.917384417963,19.027031828113
$GNGGA,220102.00,3319.58807548,N,11833.78344214,W,2,13,0.8,5.903,M,-37.596,M,6.0,0131*6D
$PYRTM,2024,127.917384417963,19.027031828113
$GNHDT,129.409,T*2C
$PYRTM,2024,127.917390148218,19.027037558356
$GNGGA,220102.50,3319.58730397,N,11833.78244506,W,2,13,0.8,5.927,M,-37.596,M,6.4,0131*60
$PYRTM,2024,127.917390148218,19.027037558356
$GNHDT,129.565,T*27
$PYRTM,2024,127.917395992650,19.027043402789
$GNGGA,220103.00,3319.58652622,N,11833.78144168,W,2,13,0.8,5.944,M,-37.596,M,7.0,0131*65
$PYRTM,2024,127.917395992650,19.027043402789
$GNHDT,129.723,T*27
$PYRTM,2024,127.917401721157,19.027049131296
$GNGGA,220103.50,3319.58574832,N,11833.78042743,W,2,13,0.8,5.939,M,-37.596,M,7.4,0131*6E
$PYRTM,2024,127.917401721157,19.027049131296
$GNHDT,129.726,T*22
$PYRTM,2024,127.917407567396,19.027054977535
$GNGGA,220104.00,3319.58496284,N,11833.77940725,W,2,13,0.8,5.898,M,-37.596,M,7.0,0131*6C
$PYRTM,2024,127.917407567396,19.027054977535
$GNHDT,129.941,T*2D
$PYRTM,2024,127.917413293368,19.027060703507
$GNGGA,220104.50,3319.58418501,N,11833.77836531,W,2,13,0.8,5.836,M,-37.596,M,7.4,0131*62
$PYRTM,2024,127.917413293368,19.027060703507
$GNHDT,130.013,T*2B
$PYRTM,2024,127.917419143056,19.027066553194
$GNGGA,220105.00,3319.58342276,N,11833.77728845,W,2,13,0.8,5.789,M,-37.596,M,7.0,0131*68
$PYRTM,2024,127.917419143056,19.027066553194
$GNHDT,130.128,T*22
$PYRTM,2024,127.917424868032,19.027072278171
$GNGGA,220105.50,3319.58268515,N,11833.77618723,W,2,13,0.8,5.801,M,-37.596,M,7.4,0131*60
$PYRTM,2024,127.917424868032,19.027072278171
$GNHDT,130.072,T*2C
$PYRTM,2024,127.917430714294,19.027078124433
$GNGGA,220106.00,3319.58197125,N,11833.77507074,W,2,13,0.8,5.883,M,-37.596,M,4.0,0131*67
$PYRTM,2024,127.917430714294,19.027078124433
$GNHDT,129.953,T*2E
$PYRTM,2024,127.917436446285,19.027083856435
$GNGGA,220106.50,3319.58126190,N,11833.77396404,W,2,13,0.8,5.988,M,-37.596,M,4.4,0131*65
$PYRTM,2024,127.917436446285,19.027083856435
$GNHDT,129.865,T*2A
$PYRTM,2024,127.917442288773,19.027089698912
$GNGGA,220107.00,3319.58053893,N,11833.77288283,W,2,13,0.8,6.085,M,-37.596,M,5.0,0131*6D
$PYRTM,2024,127.917442288773,19.027089698912
$GNHDT,129.730,T*25
$PYRTM,2024,127.917448014132,19.027095424271
$GNGGA,220107.50,3319.57977648,N,11833.77184075,W,2,13,0.8,6.106,M,-37.596,M,5.4,0131*6A
$PYRTM,2024,127.917448014132,19.027095424271
$GNHDT,129.726,T*22
$PYRTM,2024,127.917453868380,19.027101278519
$GNGGA,220108.00,3319.57899299,N,11833.77081542,W,2,13,0.8,6.030,M,-37.596,M,6.0,0131*6F
$PYRTM,2024,127.917453868380,19.027101278519
$GNHDT,129.579,T*2A
$PYRTM,2024,127.917459589213,19.027106999352
$GNGGA,220108.50,3319.57819854,N,11833.76979267,W,2,13,0.8,5.905,M,-37.596,M,6.4,0131*6E
$PYRTM,2024,127.917459589213,19.027106999352
$GNHDT,129.156,T*23
$PYRTM,2024,127.917465437199,19.027112847350
$GNGGA,220109.00,3319.57742300,N,11833.76875676,W,2,13,0.8,5.759,M,-37.596,M,7.0,0131*6A
$PYRTM,2024,127.917465437199,19.027112847350
$GNHDT,128.955,T*29
$PYRTM,2024,127.917471165718,19.027118575856
$GNGGA,220109.50,3319.57667186,N,11833.76771985,W,2,13,0.8,5.661,M,-37.596,M,7.4,0131*63
$PYRTM,2024,127.917471165718,19.027118575856
$GNHDT,128.554,T*24
$PYRTM,2024,127.917477011076,19.027124421215
$GNGGA,220110.00,3319.57594435,N,11833.76668850,W,2,13,0.8,5.660,M,-37.596,M,7.0,0131*69
$PYRTM,2024,127.917477011076,19.027124421215
$GNHDT,128.196,T*2E
$PYRTM,2024,127.917482737072,19.027130147211
$GNGGA,220110.50,3319.57524128,N,11833.76565733,W,2,13,0.8,5.717,M,-37.596,M,7.4,0131*6F
$PYRTM,2024,127.917482737072,19.027130147211
$GNHDT,127.965,T*25
$PYRTM,2024,127.917488591516,19.027136001667
$GNGGA,220111.00,3319.57452573,N,11833.76463766,W,2,13,0.8,5.802,M,-37.596,M,7.0,0131*69
$PYRTM,2024,127.917488591516,19.027136001667
$GNHDT,127.842,T*21
$PYRTM,2024,127.917494311331,19.027141721470
$GNGGA,220111.50,3319.57379800,N,11833.76361443,W,2,13,0.8,5.830,M,-37.596,M,7.4,0131*6F
$PYRTM,2024,127.917494311331,19.027141721470
$GNHDT,127.831,T*25
$PYRTM,2024,127.917500160000,19.027147570139
$GNGGA,220112.00,3319.57302735,N,11833.76260086,W,2,13,0.8,5.809,M,-37.596,M,4.0,0131*6C
$PYRTM,2024,127.917500160000,19.027147570139
$GNHDT,127.879,T*29
$PYRTM,2024,127.917505885891,19.027153296030
$GNGGA,220112.50,3319.57224313,N,11833.76158424,W,2,13,0.8,5.725,M,-37.596,M,4.4,0131*6D
$PYRTM,2024,127.917505885891,19.027153296030
$GNHDT,128.095,T*2C
$PYRTM,2024,127.917511738206,19.027159148345
$GNGGA,220113.00,3319.57145675,N,11833.76057151,W,2,13,0.8,5.636,M,-37.596,M,5.0,0131*67
$PYRTM,2024,127.917511738206,19.027159148345
$GNHDT,128.444,T*24
$PYRTM,2024,127.917517458843,19.027164868981
$GNGGA,220113.50,3319.57067883,N,11833.75956109,W,2,13,0.8,5.620,M,-37.596,M,5.4,0131*61
$PYRTM,2024,127.917517458843,19.027164868981
$GNHDT,129.066,T*21
$PYRTM,2024,127.917523309144,19.027170719282
$GNGGA,220114.00,3319.56991136,N,11833.75854571,W,2,13,0.8,5.713,M,-37.596,M,6.0,0131*6B
$PYRTM,2024,127.917523309144,19.027170719282
$GNHDT,129.546,T*26
$PYRTM,2024,127.917529039190,19.027176449329
$GNGGA,220114.50,3319.56915804,N,11833.75750391,W,2,13,0.8,5.893,M,-37.596,M,6.4,0131*6A
$PYRTM,2024,127.917529039190,19.027176449329
$GNHDT,130.089,T*28
$PYRTM,2024,127.917534884792,19.027182294931
$GNGGA,220115.00,3319.56841160,N,11833.75642912,W,2,13,0.8,6.109,M,-37.596,M,7.0,0131*6A
$PYRTM,2024,127.917534884792,19.027182294931
$GNHDT,130.530,T*2F
$PYRTM,2024,127.917540608681,19.027188018819
$GNGGA,220115.50,3319.56765400,N,11833.75533731,W,2,13,0.8,6.305,M,-37.596,M,7.4,0131*65
$PYRTM,2024,127.917540608681,19.027188018819
$GNHDT,130.726,T*2A
$PYRTM,2024,127.917546460093,19.027193870231
$GNGGA,220116.00,3319.56689094,N,11833.75422855,W,2,13,0.8,6.413,M,-37.596,M,7.0,0131*61
$PYRTM,2024,127.917546460093,19.027193870231
$GNHDT,130.900,T*20
$PYRTM,2024,127.917552182280,19.027199592419
$GNGGA,220116.50,3319.56613158,N,11833.75310694,W,2,13,0.8,6.441,M,-37.596,M,7.4,0131*60
$PYRTM,2024,127.917552182280,19.027199592419
$GNHDT,130.883,T*2A
$PYRTM,2024,127.917558031956,19.027205442095
$GNGGA,220117.00,3319.56536577,N,11833.75199293,W,2,13,0.8,6.406,M,-37.596,M,7.0,0131*6E
$PYRTM,2024,127.917558031956,19.027205442095
$GNHDT,130.750,T*2B
$PYRTM,2024,127.917563759086,19.027211169225
$GNGGA,220117.50,3319.56459667,N,11833.75089504,W,2,13,0.8,6.325,M,-37.596,M,7.4,0131*6A
$PYRTM,2024,127.917563759086,19.027211169225
$GNHDT,130.499,T*2D
$PYRTM,2024,127.917569608079,19.027217018218
$GNGGA,220118.00,3319.56382231,N,11833.74981500,W,2,13,0.8,6.228,M,-37.596,M,4.0,0131*69
$PYRTM,2024,127.917569608079,19.027217018218
$GNHDT,130.068,T*27
$PYRTM,2024,127.917575330417,19.027222740567
$GNGGA,220118.50,3319.56306200,N,11833.74874304,W,2,13,0.8,6.144,M,-37.596,M,4.4,0131*66
$PYRTM,2024,127.917575330417,19.027222740567
$GNHDT,129.467,T*24
$PYRTM,2024,127.917581185012,19.027228595150
$GNGGA,220119.00,3319.56228882,N,11833.74770653,W,2,13,0.8,6.156,M,-37.596,M,5.0,0131*65
$PYRTM,2024,127.917581185012,19.027228595150
$GNHDT,128.874,T*2B
$PYRTM,2024,127.917586908148,19.027234318287
$GNGGA,220119.50,3319.56155290,N,11833.74666712,W,2,13,0.8,6.194,M,-37.596,M,5.4,0131*68
$PYRTM,2024,127.917586908148,19.027234318287
$GNHDT,128.521,T*26
$PYRTM,2024,127.917592756331,19.027240166470
$GNGGA,220120.00,3319.56084077,N,11833.74561649,W,2,13,0.8,6.255,M,-37.596,M,6.0,0131*63
$PYRTM,2024,127.917592756331,19.027240166470
$GNHDT,128.319,T*2B
$PYRTM,2024,127.917598481377,19.027245891528
$GNGGA,220120.50,3319.56011149,N,11833.74458161,W,2,13,0.8,6.256,M,-37.596,M,6.4,0131*67
$PYRTM,2024,127.917598481377,19.027245891528
$GNHDT,128.231,T*20
$PYRTM,2024,127.917604331331,19.027251741470
$GNGGA,220121.00,3319.55933803,N,11833.74356707,W,2,13,0.8,6.237,M,-37.596,M,7.0,0131*63
$PYRTM,2024,127.917604331331,19.027251741470
$GNHDT,128.271,T*24
$PYRTM,2024,127.917610052766,19.027257462905
$GNGGA,220121.50,3319.55855572,N,11833.74254044,W,2,13,0.8,6.160,M,-37.596,M,7.4,0131*6A
$PYRTM,2024,127.917610052766,19.027257462905
$GNHDT,128.665,T*25
$PYRTM,2024,127.917615905544,19.027263315683
$GNGGA,220122.00,3319.55777005,N,11833.74151407,W,2,13,0.8,6.072,M,-37.596,M,7.0,0131*65
$PYRTM,2024,127.917615905544,19.027263315683
$GNHDT,128.997,T*27
$PYRTM,2024,127.917621629144,19.027269039294
$GNGGA,220122.50,3319.55700363,N,11833.74046094,W,2,13,0.8,5.993,M,-37.596,M,7.4,0131*6B
$PYRTM,2024,127.917621629144,19.027269039294
$GNHDT,129.233,T*23
$PYRTM,2024,127.917627474838,19.027274884977
$GNGGA,220123.00,3319.55623840,N,11833.73940346,W,2,13,0.8,5.951,M,-37.596,M,7.0,0131*6B
$PYRTM,2024,127.917627474838,19.027274884977
$GNHDT,129.566,T*24
$PYRTM,2024,127.917633201690,19.027280611829
$GNGGA,220123.50,3319.55547435,N,11833.73834939,W,2,13,0.8,5.961,M,-37.596,M,7.4,0131*66
$PYRTM,2024,127.917633201690,19.027280611829
$GNHDT,129.958,T*25
$PYRTM,2024,127.917639050556,19.027286460694
$GNGGA,220124.00,3319.55471265,N,11833.73727991,W,2,13,0.8,5.938,M,-37.596,M,4.0,0131*67
$PYRTM,2024,127.917639050556,19.027286460694
$GNHDT,130.182,T*22
$PYRTM,2024,127.917644774641,19.027292184792
$GNGGA,220124.50,3319.55395775,N,11833.73620563,W,2,13,0.8,5.921,M,-37.596,M,4.4,0131*60
$PYRTM,2024,127.917644774641,19.027292184792
$GNHDT,130.182,T*22
$PYRTM,2024,127.917650626875,19.027298037014
$GNGGA,220125.00,3319.55321274,N,11833.73512060,W,2,13,0.8,5.868,M,-37.595,M,5.0,0131*61
$PYRTM,2024,127.917650626875,19.027298037014
$GNHDT,130.138,T*23
$PYRTM,2024,127.917656348275,19.027303758414
$GNGGA,220125.50,3319.55246190,N,11833.73404727,W,2,13,0.8,5.808,M,-37.595,M,5.4,0131*6D
$PYRTM,2024,127.917656348275,19.027303758414
$GNHDT,130.060,T*2F
$PYRTM,2024,127.917662197824,19.027309607963
$GNGGA,220126.00,3319.55171645,N,11833.73298460,W,2,13,0.8,5.753,M,-37.595,M,6.0,0131*66
$PYRTM,2024,127.917662197824,19.027309607963
$GNHDT,129.732,T*27
$PYRTM,2024,127.917667924722,19.027315334873
$GNGGA,220126.50,3319.55098585,N,11833.73194161,W,2,13,0.8,5.731,M,-37.595,M,6.4,0131*61
$PYRTM,2024,127.917667924722,19.027315334873
$GNHDT,129.294,T*2E
$PYRTM,2024,127.917673774549,19.027321184687
$GNGGA,220127.00,3319.55026545,N,11833.73091625,W,2,13,0.8,5.713,M,-37.595,M,7.0,0131*6A
$PYRTM,2024,127.917673774549,19.027321184687
$GNHDT,128.750,T*22
$PYRTM,2024,127.917679497940,19.027326908079
$GNGGA,220127.50,3319.54954607,N,11833.72989995,W,2,13,0.8,5.715,M,-37.595,M,7.4,0131*60
$PYRTM,2024,127.917679497940,19.027326908079
$GNHDT,128.361,T*24
$PYRTM,2024,127.917685345336,19.027332755475
$GNGGA,220128.00,3319.54883659,N,11833.72889147,W,2,13,0.8,5.699,M,-37.595,M,7.0,0131*6D
$PYRTM,2024,127.917685345336,19.027332755475
$GNHDT,128.022,T*20
$PYRTM,2024,127.917691072176,19.027338482315
$GNGGA,220128.50,3319.54810755,N,11833.72788692,W,2,13,0.8,5.703,M,-37.595,M,7.4,0131*68
$PYRTM,2024,127.917691072176,19.027338482315
$GNHDT,127.652,T*2E
$PYRTM,2024,127.917696921065,19.027344331204
$GNGGA,220129.00,3319.54735990,N,11833.72690804,W,2,13,0.8,5.764,M,-37.595,M,7.0,0131*6F
$PYRTM,2024,127.917696921065,19.027344331204
$GNHDT,127.673,T*2D
$PYRTM,2024,127.917702647917,19.027350058056
$GNGGA,220129.50,3319.54660672,N,11833.72590407,W,2,13,0.8,5.820,M,-37.595,M,7.4,0131*6F
$PYRTM,2024,127.917702647917,19.027350058056
$GNHDT,127.967,T*27
$PYRTM,2024,127.917708497257,19.027355907396
$GNGGA,220130.00,3319.54585147,N,11833.72488902,W,2,13,0.8,5.942,M,-37.595,M,4.0,0131*69
$PYRTM,2024,127.917708497257,19.027355907396
$GNHDT,128.158,T*2C
$PYRTM,2024,127.917714223657,19.027361633796
$GNGGA,220130.50,3319.54510084,N,11833.72383712,W,2,13,0.8,6.084,M,-37.595,M,4.4,0131*69
$PYRTM,2024,127.917714223657,19.027361633796
$GNHDT,128.161,T*26
$PYRTM,2024,127.917720066782,19.027367476921
$GNGGA,220131.00,3319.54434589,N,11833.72276999,W,2,13,0.8,6.290,M,-37.595,M,5.0,0131*66
$PYRTM,2024,127.917720066782,19.027367476921
$GNHDT,128.526,T*21
$PYRTM,2024,127.917725793403,19.027373203553
$GNGGA,220131.50,3319.54361071,N,11833.72164778,W,2,13,0.8,6.442,M,-37.595,M,5.4,0131*6A
$PYRTM,2024,127.917725793403,19.027373203553
$GNHDT,128.851,T*2C
$PYRTM,2024,127.917731644016,19.027379054155
$GNGGA,220132.00,3319.54287253,N,11833.72049439,W,2,13,0.8,6.575,M,-37.595,M,6.0,0131*6D
$PYRTM,2024,127.917731644016,19.027379054155
$GNHDT,129.332,T*23
$PYRTM,2024,127.917737366597,19.027384776736
$GNGGA,220132.50,3319.54211302,N,11833.71933010,W,2,13,0.8,6.640,M,-37.595,M,6.4,0131*6B
$PYRTM,2024,127.917737366597,19.027384776736
$GNHDT,129.896,T*26
$PYRTM,2024,127.917743219873,19.027390630012
$GNGGA,220133.00,3319.54134783,N,11833.71816412,W,2,13,0.8,6.657,M,-37.595,M,7.0,0131*65
$PYRTM,2024,127.917743219873,19.027390630012
$GNHDT,130.394,T*27
$PYRTM,2024,127.917748942350,19.027396352488
$GNGGA,220133.50,3319.54057091,N,11833.71701984,W,2,13,0.8,6.659,M,-37.595,M,7.4,0131*61
$PYRTM,2024,127.917748942350,19.027396352488
$GNHDT,130.902,T*22
$PYRTM,2024,127.917754790891,19.027402201030
$GNGGA,220134.00,3319.53980640,N,11833.71587942,W,2,13,0.8,6.668,M,-37.595,M,7.0,0131*6D
$PYRTM,2024,127.917754790891,19.027402201030
$GNHDT,131.171,T*2F
$PYRTM,2024,127.917760515197,19.027407925336
$GNGGA,220134.50,3319.53905681,N,11833.71474254,W,2,13,0.8,6.667,M,-37.595,M,7.4,0131*62
$PYRTM,2024,127.917760515197,19.027407925336
$GNHDT,131.252,T*2D
$PYRTM,2024,127.917766366227,19.027413776366
$GNGGA,220135.00,3319.53833281,N,11833.71360311,W,2,13,0.8,6.646,M,-37.595,M,7.0,0131*63
$PYRTM,2024,127.917766366227,19.027413776366
$GNHDT,131.207,T*2D
$PYRTM,2024,127.917772097257,19.027419507396
$GNGGA,220135.50,3319.53761827,N,11833.71247176,W,2,13,0.8,6.585,M,-37.595,M,7.4,0131*67
$PYRTM,2024,127.917772097257,19.027419507396
$GNHDT,130.777,T*2E
$PYRTM,2024,127.917777938380,19.027425348519
$GNGGA,220136.00,3319.53689970,N,11833.71135927,W,2,13,0.8,6.462,M,-37.595,M,4.0,0131*60
$PYRTM,2024,127.917777938380,19.027425348519
$GNHDT,130.344,T*2A
$PYRTM,2024,127.917783665764,19.027431075903
$GNGGA,220136.50,3319.53617022,N,11833.71027949,W,2,13,0.8,6.249,M,-37.595,M,4.4,0131*6D
$PYRTM,2024,127.917783665764,19.027431075903
$GNHDT,129.738,T*2D
$PYRTM,2024,127.917789514398,19.027436924537
$GNGGA,220137.00,3319.53541246,N,11833.70926377,W,2,13,0.8,6.009,M,-37.595,M,5.0,0131*64
$PYRTM,2024,127.917789514398,19.027436924537
$GNHDT,128.950,T*2C
$PYRTM,2024,127.917795240590,19.027442650729
$GNGGA,220137.50,3319.53465736,N,11833.70827764,W,2,13,0.8,5.758,M,-37.595,M,5.4,0131*66
$PYRTM,2024,127.917795240590,19.027442650729
$GNHDT,128.404,T*20
$PYRTM,2024,127.917801088229,19.027448498368
$GNGGA,220138.00,3319.53391188,N,11833.70731194,W,2,13,0.8,5.558,M,-37.595,M,6.0,0131*67
$PYRTM,2024,127.917801088229,19.027448498368
$GNHDT,127.929,T*2D
$PYRTM,2024,127.917806813009,19.027454223148
$GNGGA,220138.50,3319.53315948,N,11833.70636645,W,2,13,0.8,5.431,M,-37.595,M,6.4,0131*6D
$PYRTM,2024,127.917806813009,19.027454223148
$GNHDT,127.736,T*2D
$PYRTM,2024,127.917812665324,19.027460075463
$GNGGA,220139.00,3319.53240029,N,11833.70542521,W,2,13,0.8,5.388,M,-37.595,M,7.0,0131*67
$PYRTM,2024,127.917812665324,19.027460075463
$GNHDT,127.723,T*29
$PYRTM,2024,127.917818386308,19.027465796447
$GNGGA,220139.50,3319.53164706,N,11833.70447122,W,2,13,0.8,5.449,M,-37.595,M,7.4,0131*60
$PYRTM,2024,127.917818386308,19.027465796447
$GNHDT,127.870,T*20
$PYRTM,2024,127.917824239560,19.027471649711
$GNGGA,220140.00,3319.53090678,N,11833.70348746,W,2,13,0.8,5.580,M,-37.595,M,7.0,0131*65
$PYRTM,2024,127.917824239560,19.027471649711
$GNHDT,128.002,T*22
$PYRTM,2024,127.917829959109,19.027477369248
$GNGGA,220140.50,3319.53018028,N,11833.70246538,W,2,13,0.8,5.722,M,-37.595,M,7.4,0131*69
$PYRTM,2024,127.917829959109,19.027477369248
$GNHDT,128.045,T*21
$PYRTM,2024,127.917835808264,19.027483218403
$GNGGA,220141.00,3319.52946359,N,11833.70142582,W,2,13,0.8,5.883,M,-37.595,M,7.0,0131*6D
$PYRTM,2024,127.917835808264,19.027483218403
$GNHDT,128.278,T*2D
$PYRTM,2024,127.917841539109,19.027488949248
$GNGGA,220141.50,3319.52871704,N,11833.70038433,W,2,13,0.8,6.008,M,-37.595,M,7.4,0131*6A
$PYRTM,2024,127.917841539109,19.027488949248
$GNHDT,128.512,T*26
$PYRTM,2024,127.917847382419,19.027494792569
$GNGGA,220142.00,3319.52794296,N,11833.69933874,W,2,13,0.8,6.108,M,-37.595,M,4.0,0131*65
$PYRTM,2024,127.917847382419,19.027494792569
$GNHDT,128.934,T*2E
$PYRTM,2024,127.917853108924,19.027500519062
$GNGGA,220142.50,3319.52716107,N,11833.69827087,W,2,13,0.8,6.194,M,-37.595,M,4.4,0131*60
$PYRTM,2024,127.917853108924,19.027500519062
$GNHDT,129.188,T*20
$PYRTM,2024,127.917858960440,19.027506370579
$GNGGA,220143.00,3319.52638142,N,11833.69717116,W,2,13,0.8,6.269,M,-37.595,M,5.0,0131*69
$PYRTM,2024,127.917858960440,19.027506370579
$GNHDT,129.523,T*25
$PYRTM,2024,127.917864688299,19.027512098437
$GNGGA,220143.50,3319.52560896,N,11833.69604634,W,2,13,0.8,6.346,M,-37.595,M,5.4,0131*6E
$PYRTM,2024,127.917864688299,19.027512098437
$GNHDT,129.787,T*29
$PYRTM,2024,127.917870532859,19.027517942998
$GNGGA,220144.00,3319.52484518,N,11833.69490904,W,2,13,0.8,6.413,M,-37.595,M,6.0,0131*6F
$PYRTM,2024,127.917870532859,19.027517942998
$GNHDT,130.024,T*2F
$PYRTM,2024,127.917876257546,19.027523667685
$GNGGA,220144.50,3319.52409617,N,11833.69377068,W,2,13,0.8,6.480,M,-37.595,M,6.4,0131*60
$PYRTM,2024,127.917876257546,19.027523667685
$GNHDT,130.159,T*24
$PYRTM,2024,127.917882105891,19.027529516030
$GNGGA,220145.00,3319.52334727,N,11833.69265004,W,2,13,0.8,6.501,M,-37.595,M,7.0,0131*6A
$PYRTM,2024,127.917882105891,19.027529516030
$GNHDT,130.128,T*22
$PYRTM,2024,127.917887830856,19.027535240995
$GNGGA,220145.50,3319.52260165,N,11833.69153771,W,2,13,0.8,6.487,M,-37.595,M,7.4,0131*67
$PYRTM,2024,127.917887830856,19.027535240995
$GNHDT,130.144,T*28
$PYRTM,2024,127.917893680694,19.027541090833
$GNGGA,220146.00,3319.52185833,N,11833.69042597,W,2,13,0.8,6.414,M,-37.595,M,7.0,0131*66
$PYRTM,2024,127.917893680694,19.027541090833
$GNHDT,129.858,T*24
$PYRTM,2024,127.917899407025,19.027546817164
$GNGGA,220146.50,3319.52112317,N,11833.68931276,W,2,13,0.8,6.296,M,-37.595,M,7.4,0131*6C
$PYRTM,2024,127.917899407025,19.027546817164
$GNHDT,129.519,T*2C
$PYRTM,2024,127.917905252558,19.027552662697
$GNGGA,220147.00,3319.52039962,N,11833.68820672,W,2,13,0.8,6.148,M,-37.595,M,7.0,0131*6D
$PYRTM,2024,127.917905252558,19.027552662697
$GNHDT,129.200,T*23
$PYRTM,2024,127.917910983252,19.027558393391
$GNGGA,220147.50,3319.51968517,N,11833.68712662,W,2,13,0.8,6.009,M,-37.595,M,7.4,0131*67
$PYRTM,2024,127.917910983252,19.027558393391
$GNHDT,128.769,T*28
$PYRTM,2024,127.917916826817,19.027564236968
$GNGGA,220148.00,3319.51895094,N,11833.68608975,W,2,13,0.8,5.923,M,-37.595,M,4.0,0131*66
$PYRTM,2024,127.917916826817,19.027564236968
$GNHDT,128.400,T*24
$PYRTM,2024,127.917922552581,19.027569962720
$GNGGA,220148.50,3319.51823005,N,11833.68507014,W,2,13,0.8,5.819,M,-37.595,M,4.4,0131*68
$PYRTM,2024,127.917922552581,19.027569962720
$GNHDT,128.300,T*23
$PYRTM,2024,127.917928408299,19.027575818437
$GNGGA,220149.00,3319.51747426,N,11833.68408240,W,2,13,0.8,5.736,M,-37.595,M,5.0,0131*6E
$PYRTM,2024,127.917928408299,19.027575818437
$GNHDT,128.330,T*20
$PYRTM,2024,127.917934130139,19.027581540278
$GNGGA,220149.50,3319.51671401,N,11833.68310355,W,2,13,0.8,5.670,M,-37.595,M,5.4,0131*66
$PYRTM,2024,127.917934130139,19.027581540278
$GNHDT,128.524,T*23
$PYRTM,2024,127.917939975972,19.027587386111
$GNGGA,220150.00,3319.51592663,N,11833.68213557,W,2,13,0.8,5.661,M,-37.595,M,6.0,0131*62
$PYRTM,2024,127.917939975972,19.027587386111
$GNHDT,128.801,T*29
$PYRTM,2024,127.917945705231,19.027593115370
$GNGGA,220150.50,3319.51515586,N,11833.68114626,W,2,13,0.8,5.675,M,-37.595,M,6.4,0131*60
$PYRTM,2024,127.917945705231,19.027593115370
$GNHDT,129.066,T*21
$PYRTM,2024,127.917951549977,19.027598960116
$GNGGA,220151.00,3319.51439495,N,11833.68013643,W,2,13,0.8,5.740,M,-37.595,M,7.0,0131*6F
$PYRTM,2024,127.917951549977,19.027598960116
$GNHDT,129.445,T*24
$PYRTM,2024,127.917957275081,19.027604685220
$GNGGA,220151.50,3319.51367047,N,11833.67908550,W,2,13,0.8,5.820,M,-37.595,M,7.4,0131*6D
$PYRTM,2024,127.917957275081,19.027604685220
$GNHDT,129.809,T*20
$PYRTM,2024,127.917963123229,19.027610533368
$GNGGA,220152.00,3319.51295879,N,11833.67799770,W,2,13,0.8,5.919,M,-37.595,M,7.0,0131*6B
$PYRTM,2024,127.917963123229,19.027610533368
$GNHDT,130.082,T*23
$PYRTM,2024,127.917968849884,19.027616260023
$GNGGA,220152.50,3319.51223369,N,11833.67690644,W,2,13,0.8,6.027,M,-37.595,M,7.4,0131*64
$PYRTM,2024,127.917968849884,19.027616260023
$GNHDT,130.343,T*2D
$PYRTM,2024,127.917974699988,19.027622110127
$GNGGA,220153.00,3319.51149459,N,11833.67581076,W,2,13,0.8,6.103,M,-37.595,M,7.0,0131*6C
$PYRTM,2024,127.917974699988,19.027622110127
$GNHDT,130.477,T*2D
$PYRTM,2024,127.917980426377,19.027627836516
$GNGGA,220153.50,3319.51072610,N,11833.67473328,W,2,13,0.8,6.142,M,-37.595,M,7.4,0131*6A
$PYRTM,2024,127.917980426377,19.027627836516
$GNHDT,130.617,T*29
$PYRTM,2024,127.917986271921,19.027633682060
$GNGGA,220154.00,3319.50995600,N,11833.67364971,W,2,13,0.8,6.110,M,-37.595,M,4.0,0131*6F
$PYRTM,2024,127.917986271921,19.027633682060
$GNHDT,130.707,T*29
$PYRTM,2024,127.917992000174,19.027639410312
$GNGGA,220154.50,3319.50918016,N,11833.67257659,W,2,13,0.8,6.053,M,-37.595,M,4.4,0131*68
$PYRTM,2024,127.917992000174,19.027639410312
$GNHDT,130.723,T*2F
$PYRTM,2024,127.917997844792,19.027645254931
$GNGGA,220155.00,3319.50839812,N,11833.67150820,W,2,13,0.8,5.969,M,-37.595,M,5.0,0131*60
$PYRTM,2024,127.917997844792,19.027645254931
$GNHDT,130.528,T*26
$PYRTM,2024,127.918003573252,19.027650983391
$GNGGA,220155.50,3319.50764055,N,11833.67044889,W,2,13,0.8,5.893,M,-37.595,M,5.4,0131*6E
$PYRTM,2024,127.918003573252,19.027650983391
$GNHDT,130.447,T*2E
$PYRTM,2024,127.918009427546,19.027656837685
$GNGGA,220156.00,3319.50689657,N,11833.66940453,W,2,13,0.8,5.852,M,-37.595,M,6.0,0131*63
$PYRTM,2024,127.918009427546,19.027656837685
$GNHDT,130.241,T*2E
$PYRTM,2024,127.918015143623,19.027662553762
$GNGGA,220156.50,3319.50616068,N,11833.66836875,W,2,13,0.8,5.846,M,-37.595,M,6.4,0131*63
$PYRTM,2024,127.918015143623,19.027662553762
$GNHDT,129.867,T*28
$PYRTM,2024,127.918020994711,19.027668404850
$GNGGA,220157.00,3319.50542735,N,11833.66732727,W,2,13,0.8,5.826,M,-37.595,M,7.0,0131*6A
$PYRTM,2024,127.918020994711,19.027668404850
$GNHDT,129.678,T*28
$PYRTM,2024,127.918026720926,19.027674131065
$GNGGA,220157.50,3319.50470736,N,11833.66629136,W,2,13,0.8,5.824,M,-37.595,M,7.4,0131*67
$PYRTM,2024,127.918026720926,19.027674131065
$GNHDT,129.294,T*2E
$PYRTM,2024,127.918032567257,19.027679977396
$GNGGA,220158.00,3319.50399899,N,11833.66526328,W,2,13,0.8,5.829,M,-37.595,M,7.0,0131*6F
$PYRTM,2024,127.918032567257,19.027679977396
$GNHDT,129.049,T*2C
$PYRTM,2024,127.918038292928,19.027685703079
$GNGGA,220158.50,3319.50328008,N,11833.66423190,W,2,13,0.8,5.807,M,-37.594,M,7.4,0131*6C
$PYRTM,2024,127.918038292928,19.027685703079
$GNHDT,128.940,T*2D
$PYRTM,2024,127.918044140903,19.027691551042
$GNGGA,220159.00,3319.50255366,N,11833.66320674,W,2,13,0.8,5.739,M,-37.594,M,7.0,0131*67
$PYRTM,2024,127.918044140903,19.027691551042
$GNHDT,128.959,T*25
$PYRTM,2024,127.918049868600,19.027697278738
$GNGGA,220159.50,3319.50179938,N,11833.66219194,W,2,13,0.8,5.657,M,-37.594,M,7.4,0131*61
$PYRTM,2024,127.918049868600,19.027697278738
$GNHDT,128.946,T*2B
$PYRTM,2024,127.918055717419,19.027703127558
$GNGGA,220200.00,3319.50103756,N,11833.66118239,W,2,13,0.8,5.599,M,-37.594,M,4.0,0131*60
$PYRTM,2024,127.918055717419,19.027703127558
$GNHDT,129.073,T*25
$PYRTM,2024,127.918061441424,19.027708851563
$GNGGA,220200.50,3319.50028042,N,11833.66016879,W,2,13,0.8,5.593,M,-37.594,M,4.4,0131*60
$PYRTM,2024,127.918061441424,19.027708851563
$GNHDT,129.438,T*2E
$PYRTM,2024,127.918067291551,19.027714701690
$GNGGA,220201.00,3319.49953489,N,11833.65913883,W,2,13,0.8,5.643,M,-37.594,M,5.0,0131*6B
$PYRTM,2024,127.918067291551,19.027714701690
$GNHDT,129.642,T*21
$PYRTM,2024,127.918073021354,19.027720431493
$GNGGA,220201.50,3319.49879040,N,11833.65809114,W,2,13,0.8,5.737,M,-37.594,M,5.4,0131*6D
$PYRTM,2024,127.918073021354,19.027720431493
$GNHDT,129.807,T*2E
$PYRTM,2024,127.918078867766,19.027726277917
$GNGGA,220202.00,3319.49803935,N,11833.65702205,W,2,13,0.8,5.813,M,-37.594,M,6.0,0131*64
$PYRTM,2024,127.918078867766,19.027726277917
$GNHDT,130.104,T*2C
$PYRTM,2024,127.918084588692,19.027731998843
$GNGGA,220202.50,3319.49727120,N,11833.65593758,W,2,13,0.8,5.844,M,-37.594,M,6.4,0131*65
$PYRTM,2024,127.918084588692,19.027731998843
$GNHDT,130.057,T*2B
$PYRTM,2024,127.918090438796,19.027737848935
$GNGGA,220203.00,3319.49650411,N,11833.65483448,W,2,13,0.8,5.795,M,-37.594,M,7.0,0131*63
$PYRTM,2024,127.918090438796,19.027737848935
$GNHDT,130.219,T*23
$PYRTM,2024,127.918096165185,19.027743575336
$GNGGA,220203.50,3319.49574004,N,11833.65373836,W,2,13,0.8,5.704,M,-37.594,M,7.4,0131*62
$PYRTM,2024,127.918096165185,19.027743575336
$GNHDT,130.290,T*22
$PYRTM,2024,127.918102014074,19.027749424213
$GNGGA,220204.00,3319.49498046,N,11833.65266522,W,2,13,0.8,5.626,M,-37.594,M,7.0,0131*6D
$PYRTM,2024,127.918102014074,19.027749424213
$GNHDT,130.290,T*22
$PYRTM,2024,127.918107739144,19.027755149294
$GNGGA,220204.50,3319.49423421,N,11833.65161738,W,2,13,0.8,5.575,M,-37.594,M,7.4,0131*61
$PYRTM,2024,127.918107739144,19.027755149294
$GNHDT,130.219,T*23
$PYRTM,2024,127.918113587164,19.027760997303
$GNGGA,220205.00,3319.49348984,N,11833.65059939,W,2,13,0.8,5.543,M,-37.594,M,7.0,0131*69
$PYRTM,2024,127.918113587164,19.027760997303
$GNHDT,130.249,T*26
$PYRTM,2024,127.918119312951,19.027766723090
$GNGGA,220205.50,3319.49272521,N,11833.64961020,W,2,13,0.8,5.536,M,-37.594,M,7.4,0131*63
$PYRTM,2024,127.918119312951,19.027766723090
$GNHDT,130.128,T*22
$PYRTM,2024,127.918125163021,19.027772573160
$GNGGA,220206.00,3319.49194761,N,11833.64862556,W,2,13,0.8,5.506,M,-37.594,M,4.0,0131*6A
$PYRTM,2024,127.918125163021,19.027772573160
$GNHDT,130.004,T*2D
$PYRTM,2024,127.918130890556,19.027778300694
$GNGGA,220206.50,3319.49116574,N,11833.64762900,W,2,13,0.8,5.441,M,-37.594,M,4.4,0131*65
$PYRTM,2024,127.918130890556,19.027778300694
$GNHDT,129.831,T*2B
$PYRTM,2024,127.918136738657,19.027784148796
$GNGGA,220207.00,3319.49041273,N,11833.64660103,W,2,13,0.8,5.351,M,-37.594,M,5.0,0131*69
$PYRTM,2024,127.918136738657,19.027784148796
$GNHDT,129.660,T*21
$PYRTM,2024,127.918142460336,19.027789870475
$GNGGA,220207.50,3319.48969661,N,11833.64555161,W,2,13,0.8,5.284,M,-37.594,M,5.4,0131*65
$PYRTM,2024,127.918142460336,19.027789870475
$GNHDT,129.468,T*2B
$PYRTM,2024,127.918148314965,19.027795725104
$GNGGA,220208.00,3319.48899817,N,11833.64449830,W,2,13,0.8,5.258,M,-37.594,M,6.0,0131*69
$PYRTM,2024,127.918148314965,19.027795725104
$GNHDT,129.334,T*25
$PYRTM,2024,127.918154033854,19.027801443993
$GNGGA,220208.50,3319.48828980,N,11833.64346099,W,2,13,0.8,5.279,M,-37.594,M,6.4,0131*6D
$PYRTM,2024,127.918154033854,19.027801443993
$GNHDT,129.343,T*25
$PYRTM,2024,127.918159884306,19.027807294456
$GNGGA,220209.00,3319.48755334,N,11833.64244066,W,2,13,0.8,5.324,M,-37.594,M,7.0,0131*66
$PYRTM,2024,127.918159884306,19.027807294456
$GNHDT,129.373,T*26
$PYRTM,2024,127.918165616898,19.027813027037
$GNGGA,220209.50,3319.48679840,N,11833.64142028,W,2,13,0.8,5.343,M,-37.594,M,7.4,0131*6E
$PYRTM,2024,127.918165616898,19.027813027037
$GNHDT,129.585,T*29
$PYRTM,2024,127.918171458009,19.027818868148
$GNGGA,220210.00,3319.48601664,N,11833.64041366,W,2,13,0.8,5.356,M,-37.594,M,7.0,0131*6F
$PYRTM,2024,127.918171458009,19.027818868148
$GNHDT,129.899,T*29
$PYRTM,2024,127.918177182801,19.027824592940
$GNGGA,220210.50,3319.48522416,N,11833.63941376,W,2,13,0.8,5.363,M,-37.594,M,7.4,0131*62
$PYRTM,2024,127.918177182801,19.027824592940
$GNHDT,130.074,T*2A
$PYRTM,2024,127.918183036632,19.027830446771
$GNGGA,220211.00,3319.48442949,N,11833.63841726,W,2,13,0.8,5.374,M,-37.594,M,7.0,0131*64
$PYRTM,2024,127.918183036632,19.027830446771
$GNHDT,130.513,T*2E
$PYRTM,2024,127.918188756030,19.027836166181
$GNGGA,220211.50,3319.48363767,N,11833.63741073,W,2,13,0.8,5.400,M,-37.594,M,7.4,0131*6F
$PYRTM,2024,127.918188756030,19.027836166181
$GNHDT,130.474,T*2E
$PYRTM,2024,127.918194604664,19.027842014803
$GNGGA,220212.00,3319.48285386,N,11833.63638595,W,2,13,0.8,5.440,M,-37.594,M,4.0,0131*6A
$PYRTM,2024,127.918194604664,19.027842014803
$GNHDT,130.631,T*2D
$PYRTM,2024,127.918200333773,19.027847743924
$GNGGA,220212.50,3319.48208445,N,11833.63533557,W,2,13,0.8,5.484,M,-37.594,M,4.4,0131*68
$PYRTM,2024,127.918200333773,19.027847743924
$GNHDT,130.629,T*24
$PYRTM,2024,127.918206181296,19.027853591435
$GNGGA,220213.00,3319.48133267,N,11833.63425678,W,2,13,0.8,5.520,M,-37.594,M,5.0,0131*63
$PYRTM,2024,127.918206181296,19.027853591435
$GNHDT,130.373,T*2E
$PYRTM,2024,127.918211907836,19.027859317975
$GNGGA,220213.50,3319.48059918,N,11833.63315878,W,2,13,0.8,5.572,M,-37.594,M,5.4,0131*61
$PYRTM,2024,127.918211907836,19.027859317975
$GNHDT,130.137,T*2C
$PYRTM,2024,127.918217752535,19.027865162674
$GNGGA,220214.00,3319.47987647,N,11833.63205938,W,2,13,0.8,5.609,M,-37.594,M,6.0,0131*6E
$PYRTM,2024,127.918217752535,19.027865162674
$GNHDT,129.656,T*24
$PYRTM,2024,127.918223480417,19.027870890556
$GNGGA,220214.50,3319.47915255,N,11833.63096981,W,2,13,0.8,5.670,M,-37.594,M,6.4,0131*67
$PYRTM,2024,127.918223480417,19.027870890556
$GNHDT,129.217,T*25
$PYRTM,2024,127.918229327523,19.027876737662
$GNGGA,220215.00,3319.47841805,N,11833.62990776,W,2,13,0.8,5.736,M,-37.594,M,7.0,0131*62
$PYRTM,2024,127.918229327523,19.027876737662
$GNHDT,128.950,T*2C
$PYRTM,2024,127.918235054514,19.027882464653
$GNGGA,220215.50,3319.47766362,N,11833.62887351,W,2,13,0.8,5.797,M,-37.594,M,7.4,0131*6E
$PYRTM,2024,127.918235054514,19.027882464653
$GNHDT,128.947,T*2A
$PYRTM,2024,127.918240901979,19.027888312118
$GNGGA,220216.00,3319.47689319,N,11833.62786643,W,2,13,0.8,5.852,M,-37.594,M,7.0,0131*6E
$PYRTM,2024,127.918240901979,19.027888312118
$GNHDT,128.898,T*29
$PYRTM,2024,127.918246628970,19.027894039109
$GNGGA,220216.50,3319.47611863,N,11833.62686608,W,2,13,0.8,5.897,M,-37.594,M,7.4,0131*6F
$PYRTM,2024,127.918246628970,19.027894039109
$GNHDT,128.891,T*20
$PYRTM,2024,127.918252477685,19.027899887824
$GNGGA,220217.00,3319.47533242,N,11833.62587148,W,2,13,0.8,5.962,M,-37.594,M,7.0,0131*6F
$PYRTM,2024,127.918252477685,19.027899887824
$GNHDT,129.168,T*2E
$PYRTM,2024,127.918258200127,19.027905610266
$GNGGA,220217.50,3319.47456161,N,11833.62484773,W,2,13,0.8,5.980,M,-37.594,M,7.4,0131*6E
$PYRTM,2024,127.918258200127,19.027905610266
$GNHDT,129.134,T*27
$PYRTM,2024,127.918264054398,19.027911464537
$GNGGA,220218.00,3319.47380926,N,11833.62378833,W,2,13,0.8,5.910,M,-37.594,M,4.0,0131*62
$PYRTM,2024,127.918264054398,19.027911464537
$GNHDT,129.150,T*25
$PYRTM,2024,127.918269776968,19.027917187106
$GNGGA,220218.50,3319.47305463,N,11833.62271566,W,2,13,0.8,5.793,M,-37.594,M,4.4,0131*62
$PYRTM,2024,127.918269776968,19.027917187106
$GNHDT,129.467,T*24
$PYRTM,2024,127.918275624919,19.027923035058
$GNGGA,220219.00,3319.47230169,N,11833.62162121,W,2,13,0.8,5.627,M,-37.594,M,5.0,0131*63
$PYRTM,2024,127.918275624919,19.027923035058
$GNHDT,129.541,T*21
$PYRTM,2024,127.918281353819,19.027928763958
$GNGGA,220219.50,3319.47156301,N,11833.62050708,W,2,13,0.8,5.471,M,-37.594,M,5.4,0131*61
$PYRTM,2024,127.918281353819,19.027928763958
$GNHDT,129.598,T*25
$PYRTM,2024,127.918287199525,19.027934609664
$GNGGA,220220.00,3319.47084305,N,11833.61937916,W,2,13,0.8,5.362,M,-37.594,M,6.0,0131*6C
$PYRTM,2024,127.918287199525,19.027934609664
$GNHDT,129.631,T*25
$PYRTM,2024,127.918292932731,19.027940342882
$GNGGA,220220.50,3319.47012909,N,11833.61826350,W,2,13,0.8,5.325,M,-37.594,M,6.4,0131*6E
$PYRTM,2024,127.918292932731,19.027940342882
$GNHDT,129.627,T*22
$PYRTM,2024,127.918298784167,19.027946194306
$GNGGA,220221.00,3319.46939588,N,11833.61717255,W,2,13,0.8,5.357,M,-37.594,M,7.0,0131*67
$PYRTM,2024,127.918298784167,19.027946194306
$GNHDT,129.741,T*23
$PYRTM,2024,127.918304501910,19.027951912049
$GNGGA,220221.50,3319.46864278,N,11833.61610631,W,2,13,0.8,5.383,M,-37.594,M,7.4,0131*6E
$PYRTM,2024,127.918304501910,19.027951912049
$GNHDT,129.610,T*26
$PYRTM,2024,127.918310351215,19.027957761354
$GNGGA,220222.00,3319.46786234,N,11833.61506376,W,2,13,0.8,5.361,M,-37.594,M,7.0,0131*69
$PYRTM,2024,127.918310351215,19.027957761354
$GNHDT,129.314,T*27
$PYRTM,2024,127.918316076111,19.027963486250
$GNGGA,220222.50,3319.46704473,N,11833.61405664,W,2,13,0.8,5.309,M,-37.594,M,7.4,0131*6D
$PYRTM,2024,127.918316076111,19.027963486250
$GNHDT,129.104,T*24
$PYRTM,2024,127.918321925197,19.027969335336
$GNGGA,220223.00,3319.46620650,N,11833.61306996,W,2,13,0.8,5.252,M,-37.594,M,7.0,0131*60
$PYRTM,2024,127.918321925197,19.027969335336
$GNHDT,128.919,T*21
$PYRTM,2024,127.918327646111,19.027975056250
$GNGGA,220223.50,3319.46540580,N,11833.61207195,W,2,13,0.8,5.163,M,-37.594,M,7.4,0131*60
$PYRTM,2024,127.918327646111,19.027975056250
$GNHDT,128.824,T*2E
$PYRTM,2024,127.918333495937,19.027980906076
$GNGGA,220224.00,3319.46463192,N,11833.61107715,W,2,13,0.8,5.144,M,-37.594,M,4.0,0131*6A
$PYRTM,2024,127.918333495937,19.027980906076
$GNHDT,128.925,T*2E
$PYRTM,2024,127.918339224086,19.027986634225
$GNGGA,220224.50,3319.46387480,N,11833.61009306,W,2,13,0.8,5.248,M,-37.594,M,4.4,0131*66
$PYRTM,2024,127.918339224086,19.027986634225
$GNHDT,129.074,T*22
$PYRTM,2024,127.918345074109,19.027992484248
$GNGGA,220225.00,3319.46313588,N,11833.60910498,W,2,13,0.8,5.467,M,-37.594,M,5.0,0131*68
$PYRTM,2024,127.918345074109,19.027992484248
$GNHDT,129.277,T*23
$PYRTM,2024,127.918350795706,19.027998205845
$GNGGA,220225.50,3319.46242728,N,11833.60809467,W,2,13,0.8,5.682,M,-37.594,M,5.4,0131*64
$PYRTM,2024,127.918350795706,19.027998205845
$GNHDT,129.541,T*21
$PYRTM,2024,127.918356642836,19.028004052975
$GNGGA,220226.00,3319.46172712,N,11833.60706219,W,2,13,0.8,5.843,M,-37.594,M,6.0,0131*60
$PYRTM,2024,127.918356642836,19.028004052975
$GNHDT,129.476,T*24
$PYRTM,2024,127.918362373750,19.028009783889
$GNGGA,220226.50,3319.46101452,N,11833.60603285,W,2,13,0.8,5.916,M,-37.594,M,6.4,0131*62
$PYRTM,2024,127.918362373750,19.028009783889
$GNHDT,129.440,T*21
$PYRTM,2024,127.918368218218,19.028015628356
$GNGGA,220227.00,3319.46029460,N,11833.60500913,W,2,13,0.8,5.924,M,-37.594,M,7.0,0131*6C
$PYRTM,2024,127.918368218218,19.028015628356
$GNHDT,129.454,T*24
$PYRTM,2024,127.918373943843,19.028021353981
$GNGGA,220227.50,3319.45956426,N,11833.60398996,W,2,13,0.8,5.887,M,-37.594,M,7.4,0131*6F
$PYRTM,2024,127.918373943843,19.028021353981
$GNHDT,129.419,T*2D
$PYRTM,2024,127.918379792280,19.028027202419
$GNGGA,220228.00,3319.45883481,N,11833.60295820,W,2,13,0.8,5.838,M,-37.594,M,7.0,0131*61
$PYRTM,2024,127.918379792280,19.028027202419
$GNHDT,129.572,T*21
$PYRTM,2024,127.918385515532,19.028032925671
$GNGGA,220228.50,3319.45809609,N,11833.60191963,W,2,13,0.8,5.780,M,-37.594,M,7.4,0131*6D
$PYRTM,2024,127.918385515532,19.028032925671
$GNHDT,129.681,T*2E
$PYRTM,2024,127.918391365845,19.028038775984
