$PYRTM,2024,124.333333371319,15.442980781470
$GNGGA,080000.00,3519.78427211,N,12137.75422799,W,2,11,0.9,6.680,M,-37.627,M,5.0,0135*69
$PYRTM,2024,124.333333371319,15.442980781470
$GNHDT,337.746,T*29
$PYRTM,2024,124.333339099167,15.442986509317
$GNGGA,080000.50,3519.78470257,N,12137.75435088,W,2,11,0.9,6.715,M,-37.627,M,5.4,0135*64
$PYRTM,2024,124.333339099167,15.442986509317
$GNHDT,337.221,T*2D
$PYRTM,2024,124.333344942604,15.442992352743
$GNGGA,080001.00,3519.78514449,N,12137.75446152,W,2,11,0.9,6.814,M,-37.627,M,6.0,0135*61
$PYRTM,2024,124.333344942604,15.442992352743
$GNHDT,337.074,T*2F
$PYRTM,2024,124.333350671701,15.442998081829
$GNGGA,080001.50,3519.78559586,N,12137.75454974,W,2,11,0.9,6.928,M,-37.627,M,6.4,0135*6A
$PYRTM,2024,124.333350671701,15.442998081829
$GNHDT,337.304,T*2B
$PYRTM,2024,124.333356524005,15.443003934144
$GNGGA,080002.00,3519.78604891,N,12137.75461908,W,2,11,0.9,7.073,M,-37.627,M,7.0,0135*62
$PYRTM,2024,124.333356524005,15.443003934144
$GNHDT,337.384,T*23
$PYRTM,2024,124.333362248553,15.443009658692
$GNGGA,080002.50,3519.78650142,N,12137.75469948,W,2,11,0.9,7.226,M,-37.627,M,7.4,0135*6B
$PYRTM,2024,124.333362248553,15.443009658692
$GNHDT,337.953,T*23
$PYRTM,2024,124.333368088171,15.443015498310
$GNGGA,080003.00,3519.78696216,N,12137.75481073,W,2,11,0.9,7.351,M,-37.627,M,7.0,0135*65
$PYRTM,2024,124.333368088171,15.443015498310
$GNHDT,338.233,T*21
$PYRTM,2024,124.333373821030,15.443021231169
$GNGGA,080003.50,3519.78744318,N,12137.75495464,W,2,11,0.9,7.406,M,-37.627,M,7.4,0135*67
$PYRTM,2024,124.333373821030,15.443021231169
$GNHDT,338.360,T*26
$PYRTM,2024,124.333379662211,15.443027072350
$GNGGA,080004.00,3519.78793689,N,12137.75512697,W,2,11,0.9,7.349,M,-37.627,M,7.0,0135*6A
$PYRTM,2024,124.333379662211,15.443027072350
$GNHDT,338.119,T*2A
$PYRTM,2024,124.333385395729,15.443032805868
$GNGGA,080004.50,3519.78841866,N,12137.75530989,W,2,11,0.9,7.269,M,-37.627,M,7.4,0135*67
$PYRTM,2024,124.333385395729,15.443032805868
$GNHDT,337.686,T*24
$PYRTM,2024,124.333391235150,15.443038645289
$GNGGA,080005.00,3519.78886966,N,12137.75548376,W,2,11,0.9,7.230,M,-37.627,M,4.0,0135*67
$PYRTM,2024,124.333391235150,15.443038645289
$GNHDT,337.462,T*2C
$PYRTM,2024,124.333396968507,15.443044378646
$GNGGA,080005.50,3519.78928925,N,12137.75565673,W,2,11,0.9,7.254,M,-37.627,M,4.4,0135*69
$PYRTM,2024,124.333396968507,15.443044378646
$GNHDT,337.317,T*29
$PYRTM,2024,124.333402813171,15.443050223310
$GNGGA,080006.00,3519.78970441,N,12137.75582863,W,2,11,0.9,7.315,M,-37.627,M,5.0,0135*6A
$PYRTM,2024,124.333402813171,15.443050223310
$GNHDT,337.624,T*2C
$PYRTM,2024,124.333408545995,15.443055956134
$GNGGA,080006.50,3519.79015286,N,12137.75598768,W,2,11,0.9,7.317,M,-37.627,M,5.4,0135*60
$PYRTM,2024,124.333408545995,15.443055956134
$GNHDT,337.546,T*2B
$PYRTM,2024,124.333414384792,15.443061794931
$GNGGA,080007.00,3519.79065053,N,12137.75611985,W,2,11,0.9,7.204,M,-37.627,M,6.0,0135*62
$PYRTM,2024,124.333414384792,15.443061794931
$GNHDT,337.693,T*20
$PYRTM,2024,124.333420120347,15.443067530498
$GNGGA,080007.50,3519.79117899,N,12137.75622024,W,2,11,0.9,7.033,M,-37.627,M,6.4,0135*6D
$PYRTM,2024,124.333420120347,15.443067530498
$GNHDT,337.866,T*24
$PYRTM,2024,124.333425962060,15.443073372199
$GNGGA,080008.00,3519.79170509,N,12137.75628637,W,2,11,0.9,6.895,M,-37.627,M,7.0,0135*6C
$PYRTM,2024,124.333425962060,15.443073372199
$GNHDT,337.833,T*24
$PYRTM,2024,124.333431691377,15.443079101516
$GNGGA,080008.50,3519.79218986,N,12137.75634842,W,2,11,0.9,6.875,M,-37.627,M,7.4,0135*64
$PYRTM,2024,124.333431691377,15.443079101516
$GNHDT,337.742,T*2D
$PYRTM,2024,124.333437532303,15.443084942442
$GNGGA,080009.00,3519.79262435,N,12137.75643541,W,2,11,0.9,6.996,M,-37.627,M,7.0,0135*6E
$PYRTM,2024,124.333437532303,15.443084942442
$GNHDT,337.807,T*23
$PYRTM,2024,124.333443271215,15.443090681354
$GNGGA,080009.50,3519.79302733,N,12137.75657297,W,2,11,0.9,7.184,M,-37.627,M,7.4,0135*6E
$PYRTM,2024,124.333443271215,15.443090681354
$GNHDT,338.013,T*21
$PYRTM,2024,124.333449106169,15.443096516296
$GNGGA,080010.00,3519.79341997,N,12137.75675702,W,2,11,0.9,7.369,M,-37.627,M,7.0,0135*68
$PYRTM,2024,124.333449106169,15.443096516296
$GNHDT,338.075,T*21
$PYRTM,2024,124.333454844537,15.443102254676
$GNGGA,080010.50,3519.79383696,N,12137.75696877,W,2,11,0.9,7.436,M,-37.627,M,7.4,0135*64
$PYRTM,2024,124.333454844537,15.443102254676
$GNHDT,337.933,T*25
$PYRTM,2024,124.333460682766,15.443108092905
$GNGGA,080011.00,3519.79428142,N,12137.75718157,W,2,11,0.9,7.364,M,-37.627,M,4.0,0135*63
$PYRTM,2024,124.333460682766,15.443108092905
$GNHDT,337.872,T*21
$PYRTM,2024,124.333466418866,15.443113829005
$GNGGA,080011.50,3519.79474233,N,12137.75735948,W,2,11,0.9,7.196,M,-37.627,M,4.4,0135*68
$PYRTM,2024,124.333466418866,15.443113829005
$GNHDT,337.885,T*29
$PYRTM,2024,124.333472260139,15.443119670278
$GNGGA,080012.00,3519.79523494,N,12137.75746351,W,2,11,0.9,7.005,M,-37.627,M,5.0,0135*6E
$PYRTM,2024,124.333472260139,15.443119670278
$GNHDT,337.829,T*2F
$PYRTM,2024,124.333477988113,15.443125398264
$GNGGA,080012.50,3519.79573355,N,12137.75751072,W,2,11,0.9,6.866,M,-37.627,M,5.4,0135*68
$PYRTM,2024,124.333477988113,15.443125398264
$GNHDT,338.155,T*22
$PYRTM,2024,124.333483830625,15.443131240764
$GNGGA,080013.00,3519.79624798,N,12137.75754426,W,2,11,0.9,6.823,M,-37.627,M,6.0,0135*6E
$PYRTM,2024,124.333483830625,15.443131240764
$GNHDT,337.956,T*26
$PYRTM,2024,124.333489562743,15.443136972882
$GNGGA,080013.50,3519.79676499,N,12137.75763559,W,2,11,0.9,6.874,M,-37.627,M,6.4,0135*65
$PYRTM,2024,124.333489562743,15.443136972882
$GNHDT,337.619,T*22
$PYRTM,2024,124.333495410069,15.443142820208
$GNGGA,080014.00,3519.79727195,N,12137.75780837,W,2,11,0.9,6.999,M,-37.627,M,7.0,0135*64
$PYRTM,2024,124.333495410069,15.443142820208
$GNHDT,337.024,T*2A
$PYRTM,2024,124.333501137488,15.443148547627
$GNGGA,080014.50,3519.79774515,N,12137.75801916,W,2,11,0.9,7.179,M,-37.627,M,7.4,0135*6C
$PYRTM,2024,124.333501137488,15.443148547627
$GNHDT,336.564,T*2A
$PYRTM,2024,124.333506976794,15.443154386933
$GNGGA,080015.00,3519.79819238,N,12137.75821458,W,2,11,0.9,7.439,M,-37.627,M,7.0,0135*64
$PYRTM,2024,124.333506976794,15.443154386933
$GNHDT,336.804,T*21
$PYRTM,2024,124.333512712859,15.443160122998
$GNGGA,080015.50,3519.79862682,N,12137.75836490,W,2,11,0.9,7.666,M,-37.627,M,7.4,0135*66
$PYRTM,2024,124.333512712859,15.443160122998
$GNHDT,337.268,T*20
$PYRTM,2024,124.333518551007,15.443165961146
$GNGGA,080016.00,3519.79906989,N,12137.75848344,W,2,11,0.9,7.771,M,-37.627,M,7.0,0135*63
$PYRTM,2024,124.333518551007,15.443165961146
$GNHDT,337.925,T*22
$PYRTM,2024,124.333524286690,15.443171696829
$GNGGA,080016.50,3519.79955702,N,12137.75861485,W,2,11,0.9,7.642,M,-37.627,M,7.4,0135*69
$PYRTM,2024,124.333524286690,15.443171696829
$GNHDT,338.336,T*25
$PYRTM,2024,124.333530124734,15.443177534873
$GNGGA,080017.00,3519.80011307,N,12137.75874199,W,2,11,0.9,7.269,M,-37.627,M,4.0,0135*65
$PYRTM,2024,124.333530124734,15.443177534873
$GNHDT,338.028,T*29
$PYRTM,2024,124.333535858009,15.443183268148
$GNGGA,080017.50,3519.80069545,N,12137.75886964,W,2,11,0.9,6.772,M,-37.627,M,4.4,0135*62
$PYRTM,2024,124.333535858009,15.443183268148
$GNHDT,337.756,T*28
$PYRTM,2024,124.333541702338,15.443189112477
$GNGGA,080018.00,3519.80120517,N,12137.75903915,W,2,11,0.9,6.380,M,-37.627,M,5.0,0135*65
$PYRTM,2024,124.333541702338,15.443189112477
$GNHDT,337.742,T*2D
$PYRTM,2024,124.333547437847,15.443194847986
$GNGGA,080018.50,3519.80161521,N,12137.75922949,W,2,11,0.9,6.298,M,-37.627,M,5.4,0135*66
$PYRTM,2024,124.333547437847,15.443194847986
$GNHDT,338.019,T*2B
$PYRTM,2024,124.333553276539,15.443200686678
$GNGGA,080019.00,3519.80194437,N,12137.75944306,W,2,11,0.9,6.589,M,-37.627,M,6.0,0135*6F
$PYRTM,2024,124.333553276539,15.443200686678
$GNHDT,338.047,T*20
$PYRTM,2024,124.333559009907,15.443206420046
$GNGGA,080019.50,3519.80227448,N,12137.75961962,W,2,11,0.9,7.084,M,-37.627,M,6.4,0135*6B
$PYRTM,2024,124.333559009907,15.443206420046
$GNHDT,337.878,T*2B
$PYRTM,2024,124.333564854572,15.443212264711
$GNGGA,080020.00,3519.80263457,N,12137.75977984,W,2,11,0.9,7.622,M,-37.627,M,7.0,0135*6A
$PYRTM,2024,124.333564854572,15.443212264711
$GNHDT,337.650,T*2F
$PYRTM,2024,124.333570583252,15.443217993391
$GNGGA,080020.50,3519.80307487,N,12137.75993839,W,2,11,0.9,7.944,M,-37.627,M,7.4,0135*67
$PYRTM,2024,124.333570583252,15.443217993391
$GNHDT,337.690,T*23
$PYRTM,2024,124.333576424815,15.443223834954
$GNGGA,080021.00,3519.80360625,N,12137.76008357,W,2,11,0.9,7.905,M,-37.627,M,7.0,0135*62
$PYRTM,2024,124.333576424815,15.443223834954
$GNHDT,337.731,T*29
$PYRTM,2024,124.333582158877,15.443229569016
$GNGGA,080021.50,3519.80416804,N,12137.76024662,W,2,11,0.9,7.613,M,-37.627,M,7.4,0135*6D
$PYRTM,2024,124.333582158877,15.443229569016
$GNHDT,337.360,T*29
$PYRTM,2024,124.333587997060,15.443235407199
$GNGGA,080022.00,3519.80473657,N,12137.76036304,W,2,11,0.9,7.220,M,-37.627,M,7.0,0135*66
$PYRTM,2024,124.333587997060,15.443235407199
$GNHDT,337.715,T*2F
$PYRTM,2024,124.333593728125,15.443241138275
$GNGGA,080022.50,3519.80526811,N,12137.76046396,W,2,11,0.9,6.859,M,-37.627,M,7.4,0135*63
$PYRTM,2024,124.333593728125,15.443241138275
$GNHDT,337.464,T*2A
$PYRTM,2024,124.333599573183,15.443246983322
$GNGGA,080023.00,3519.80574531,N,12137.76054084,W,2,11,0.9,6.696,M,-37.627,M,4.0,0135*66
$PYRTM,2024,124.333599573183,15.443246983322
$GNHDT,337.577,T*29
$PYRTM,2024,124.333605305486,15.443252715625
$GNGGA,080023.50,3519.80616243,N,12137.76063261,W,2,11,0.9,6.753,M,-37.627,M,4.4,0135*67
$PYRTM,2024,124.333605305486,15.443252715625
$GNHDT,337.512,T*2A
$PYRTM,2024,124.333611147431,15.443258557569
$GNGGA,080024.00,3519.80654551,N,12137.76074669,W,2,11,0.9,6.961,M,-37.627,M,5.0,0135*67
$PYRTM,2024,124.333611147431,15.443258557569
$GNHDT,337.377,T*2F
$PYRTM,2024,124.333616876968,15.443264287106
$GNGGA,080024.50,3519.80693106,N,12137.76088846,W,2,11,0.9,7.257,M,-37.627,M,5.4,0135*64
$PYRTM,2024,124.333616876968,15.443264287106
$GNHDT,337.367,T*2E
$PYRTM,2024,124.333622720359,15.443270130498
$GNGGA,080025.00,3519.80736467,N,12137.76103737,W,2,11,0.9,7.469,M,-37.627,M,6.0,0135*6B
$PYRTM,2024,124.333622720359,15.443270130498
$GNHDT,337.316,T*28
$PYRTM,2024,124.333628455243,15.443275865382
$GNGGA,080025.50,3519.80786278,N,12137.76120085,W,2,11,0.9,7.509,M,-37.627,M,6.4,0135*61
$PYRTM,2024,124.333628455243,15.443275865382
$GNHDT,337.080,T*24
$PYRTM,2024,124.333634296528,15.443281706667
$GNGGA,080026.00,3519.80840646,N,12137.76137187,W,2,11,0.9,7.385,M,-37.627,M,7.0,0135*69
$PYRTM,2024,124.333634296528,15.443281706667
$GNHDT,336.760,T*2C
$PYRTM,2024,124.333640030764,15.443287440903
$GNGGA,080026.50,3519.80892623,N,12137.76152114,W,2,11,0.9,7.249,M,-37.627,M,7.4,0135*6C
$PYRTM,2024,124.333640030764,15.443287440903
$GNHDT,336.565,T*2B
$PYRTM,2024,124.333645866829,15.443293276968
$GNGGA,080027.00,3519.80938884,N,12137.76161415,W,2,11,0.9,7.179,M,-37.627,M,7.0,0135*6A
$PYRTM,2024,124.333645866829,15.443293276968
$GNHDT,336.545,T*29
$PYRTM,2024,124.333651604792,15.443299014931
$GNGGA,080027.50,3519.80978670,N,12137.76166396,W,2,11,0.9,7.212,M,-37.627,M,7.4,0135*6F
$PYRTM,2024,124.333651604792,15.443299014931
$GNHDT,336.926,T*20
$PYRTM,2024,124.333657444699,15.443304854838
$GNGGA,080028.00,3519.81015314,N,12137.76169683,W,2,11,0.9,7.287,M,-37.627,M,7.0,0135*67
$PYRTM,2024,124.333657444699,15.443304854838
$GNHDT,337.609,T*23
$PYRTM,2024,124.333663171875,15.443310582014
$GNGGA,080028.50,3519.81054303,N,12137.76175045,W,2,11,0.9,7.310,M,-37.627,M,7.4,0135*6B
$PYRTM,2024,124.333663171875,15.443310582014
$GNHDT,337.628,T*20
$PYRTM,2024,124.333669012720,15.443316422859
$GNGGA,080029.00,3519.81098644,N,12137.76184063,W,2,11,0.9,7.216,M,-37.627,M,4.0,0135*63
$PYRTM,2024,124.333669012720,15.443316422859
$GNHDT,337.839,T*2E
$PYRTM,2024,124.333674749062,15.443322159201
$GNGGA,080029.50,3519.81147114,N,12137.76197872,W,2,11,0.9,6.999,M,-37.627,M,4.4,0135*64
$PYRTM,2024,124.333674749062,15.443322159201
$GNHDT,337.712,T*28
$PYRTM,2024,124.333680589039,15.443327999178
$GNGGA,080030.00,3519.81197451,N,12137.76216749,W,2,11,0.9,6.736,M,-37.627,M,5.0,0135*63
$PYRTM,2024,124.333680589039,15.443327999178
$GNHDT,337.503,T*2A
$PYRTM,2024,124.333686326806,15.443333736944
$GNGGA,080030.50,3519.81245026,N,12137.76240101,W,2,11,0.9,6.561,M,-37.627,M,5.4,0135*63
$PYRTM,2024,124.333686326806,15.443333736944
$GNHDT,337.235,T*28
$PYRTM,2024,124.333692167650,15.443339577789
$GNGGA,080031.00,3519.81286061,N,12137.76267169,W,2,11,0.9,6.547,M,-37.627,M,6.0,0135*63
$PYRTM,2024,124.333692167650,15.443339577789
$GNHDT,337.089,T*2D
$PYRTM,2024,124.333697895961,15.443345306111
$GNGGA,080031.50,3519.81324814,N,12137.76290852,W,2,11,0.9,6.704,M,-37.627,M,6.4,0135*6D
$PYRTM,2024,124.333697895961,15.443345306111
$GNHDT,337.086,T*22
$PYRTM,2024,124.333703740127,15.443351150266
$GNGGA,080032.00,3519.81362592,N,12137.76309677,W,2,11,0.9,7.000,M,-37.627,M,7.0,0135*65
$PYRTM,2024,124.333703740127,15.443351150266
$GNHDT,337.340,T*2B
$PYRTM,2024,124.333709470104,15.443356880243
$GNGGA,080032.50,3519.81404539,N,12137.76321354,W,2,11,0.9,7.298,M,-37.627,M,7.4,0135*6F
$PYRTM,2024,124.333709470104,15.443356880243
$GNHDT,337.237,T*2A
$PYRTM,2024,124.333715313808,15.443362723947
$GNGGA,080033.00,3519.81451429,N,12137.76328168,W,2,11,0.9,7.491,M,-37.627,M,7.0,0135*64
$PYRTM,2024,124.333715313808,15.443362723947
$GNHDT,337.256,T*2D
$PYRTM,2024,124.333721048553,15.443368458692
$GNGGA,080033.50,3519.81504475,N,12137.76333073,W,2,11,0.9,7.535,M,-37.627,M,7.4,0135*63
$PYRTM,2024,124.333721048553,15.443368458692
$GNHDT,337.565,T*2A
$PYRTM,2024,124.333726887106,15.443374297245
$GNGGA,080034.00,3519.81557895,N,12137.76339085,W,2,11,0.9,7.456,M,-37.627,M,7.0,0135*66
$PYRTM,2024,124.333726887106,15.443374297245
$GNHDT,337.571,T*2F
$PYRTM,2024,124.333732621863,15.443380032002
$GNGGA,080034.50,3519.81607283,N,12137.76347444,W,2,11,0.9,7.406,M,-37.627,M,7.4,0135*69
$PYRTM,2024,124.333732621863,15.443380032002
$GNHDT,337.553,T*2F
$PYRTM,2024,124.333738460903,15.443385871042
$GNGGA,080035.00,3519.81650333,N,12137.76358598,W,2,11,0.9,7.432,M,-37.627,M,4.0,0135*6B
$PYRTM,2024,124.333738460903,15.443385871042
$GNHDT,337.805,T*21
$PYRTM,2024,124.333744191667,15.443391601806
$GNGGA,080035.50,3519.81690328,N,12137.76374352,W,2,11,0.9,7.546,M,-37.627,M,4.4,0135*60
$PYRTM,2024,124.333744191667,15.443391601806
$GNHDT,337.650,T*2F
$PYRTM,2024,124.333750037072,15.443397447211
$GNGGA,080036.00,3519.81730882,N,12137.76394397,W,2,11,0.9,7.624,M,-37.627,M,5.0,0135*63
$PYRTM,2024,124.333750037072,15.443397447211
$GNHDT,337.582,T*23
$PYRTM,2024,124.333755775127,15.443403185266
$GNGGA,080036.50,3519.81776426,N,12137.76417165,W,2,11,0.9,7.565,M,-37.627,M,5.4,0135*67
$PYRTM,2024,124.333755775127,15.443403185266
$GNHDT,337.951,T*21
$PYRTM,2024,124.333761608704,15.443409018843
$GNGGA,080037.00,3519.81825956,N,12137.76438917,W,2,11,0.9,7.359,M,-37.627,M,6.0,0135*6E
$PYRTM,2024,124.333761608704,15.443409018843
$GNHDT,337.923,T*24
$PYRTM,2024,124.333767342187,15.443414752326
$GNGGA,080037.50,3519.81876025,N,12137.76457607,W,2,11,0.9,7.098,M,-37.627,M,6.4,0135*6D
$PYRTM,2024,124.333767342187,15.443414752326
$GNHDT,337.742,T*2D
$PYRTM,2024,124.333773186898,15.443420597037
$GNGGA,080038.00,3519.81924412,N,12137.76472072,W,2,11,0.9,6.878,M,-37.627,M,7.0,0135*60
$PYRTM,2024,124.333773186898,15.443420597037
$GNHDT,337.760,T*2D
$PYRTM,2024,124.333778917894,15.443426328032
$GNGGA,080038.50,3519.81970529,N,12137.76480733,W,2,11,0.9,6.765,M,-37.627,M,7.4,0135*65
$PYRTM,2024,124.333778917894,15.443426328032
$GNHDT,337.748,T*27
$PYRTM,2024,124.333784754363,15.443432164502
$GNGGA,080039.00,3519.82016068,N,12137.76484475,W,2,11,0.9,6.781,M,-37.627,M,7.0,0135*60
$PYRTM,2024,124.333784754363,15.443432164502
$GNHDT,337.704,T*2F
$PYRTM,2024,124.333790488530,15.443437898681
$GNGGA,080039.50,3519.82062769,N,12137.76488181,W,2,11,0.9,6.912,M,-37.627,M,7.4,0135*62
$PYRTM,2024,124.333790488530,15.443437898681
$GNHDT,337.935,T*23
$PYRTM,2024,124.333796334340,15.443443744479
$GNGGA,080040.00,3519.82111016,N,12137.76495845,W,2,11,0.9,7.090,M,-37.627,M,7.0,0135*68
$PYRTM,2024,124.333796334340,15.443443744479
$GNHDT,337.680,T*22
$PYRTM,2024,124.333802063796,15.443449473947
$GNGGA,080040.50,3519.82159475,N,12137.76507266,W,2,11,0.9,7.266,M,-37.627,M,7.4,0135*6E
$PYRTM,2024,124.333802063796,15.443449473947
$GNHDT,337.726,T*2F
$PYRTM,2024,124.333807899722,15.443455309861
$GNGGA,080041.00,3519.82205926,N,12137.76523128,W,2,11,0.9,7.391,M,-37.627,M,4.0,0135*6A
$PYRTM,2024,124.333807899722,15.443455309861
$GNHDT,337.714,T*2E
$PYRTM,2024,124.333813635972,15.443461046111
$GNGGA,080041.50,3519.82251234,N,12137.76542217,W,2,11,0.9,7.461,M,-37.627,M,4.4,0135*62
$PYRTM,2024,124.333813635972,15.443461046111
$GNHDT,337.878,T*2B
$PYRTM,2024,124.333819474317,15.443466884456
$GNGGA,080042.00,3519.82294126,N,12137.76563953,W,2,11,0.9,7.477,M,-37.627,M,5.0,0135*67
$PYRTM,2024,124.333819474317,15.443466884456
$GNHDT,337.854,T*25
$PYRTM,2024,124.333825211898,15.443472622037
$GNGGA,080042.50,3519.82335965,N,12137.76585326,W,2,11,0.9,7.440,M,-37.627,M,5.4,0135*67
$PYRTM,2024,124.333825211898,15.443472622037
$GNHDT,338.049,T*2E
$PYRTM,2024,124.333831053345,15.443478463484
$GNGGA,080043.00,3519.82378377,N,12137.76603531,W,2,11,0.9,7.333,M,-37.626,M,6.0,0135*6B
$PYRTM,2024,124.333831053345,15.443478463484
$GNHDT,338.461,T*20
$PYRTM,2024,124.333836784479,15.443484194618
$GNGGA,080043.50,3519.82422656,N,12137.76616397,W,2,11,0.9,7.185,M,-37.626,M,6.4,0135*65
$PYRTM,2024,124.333836784479,15.443484194618
$GNHDT,338.749,T*29
$PYRTM,2024,124.333842632905,15.443490043044
$GNGGA,080044.00,3519.82470276,N,12137.76623766,W,2,11,0.9,7.002,M,-37.626,M,7.0,0135*61
$PYRTM,2024,124.333842632905,15.443490043044
$GNHDT,338.957,T*28
$PYRTM,2024,124.333848356620,15.443495766759
$GNGGA,080044.50,3519.82521861,N,12137.76629306,W,2,11,0.9,6.804,M,-37.626,M,7.4,0135*6E
$PYRTM,2024,124.333848356620,15.443495766759
$GNHDT,338.487,T*28
$PYRTM,2024,124.333854203380,15.443501613519
$GNGGA,080045.00,3519.82576570,N,12137.76636449,W,2,11,0.9,6.616,M,-37.626,M,7.0,0135*6E
$PYRTM,2024,124.333854203380,15.443501613519
$GNHDT,338.313,T*22
$PYRTM,2024,124.333859933669,15.443507343808
$GNGGA,080045.50,3519.82628539,N,12137.76645774,W,2,11,0.9,6.540,M,-37.626,M,7.4,0135*63
$PYRTM,2024,124.333859933669,15.443507343808
$GNHDT,337.670,T*2D
$PYRTM,2024,124.333865774016,15.443513184155
$GNGGA,080046.00,3519.82674663,N,12137.76659624,W,2,11,0.9,6.660,M,-37.626,M,7.0,0135*6C
$PYRTM,2024,124.333865774016,15.443513184155
$GNHDT,337.741,T*2E
$PYRTM,2024,124.333871509618,15.443518919757
$GNGGA,080046.50,3519.82716675,N,12137.76676849,W,2,11,0.9,6.929,M,-37.626,M,7.4,0135*65
$PYRTM,2024,124.333871509618,15.443518919757
$GNHDT,337.737,T*2F
$PYRTM,2024,124.333877345822,15.443524755961
$GNGGA,080047.00,3519.82758313,N,12137.76694394,W,2,11,0.9,7.263,M,-37.626,M,4.0,0135*6A
$PYRTM,2024,124.333877345822,15.443524755961
$GNHDT,338.118,T*2B
$PYRTM,2024,124.333883085069,15.443530495208
$GNGGA,080047.50,3519.82799915,N,12137.76715353,W,2,11,0.9,7.525,M,-37.626,M,4.4,0135*6C
$PYRTM,2024,124.333883085069,15.443530495208
$GNHDT,338.562,T*22
$PYRTM,2024,124.333888924583,15.443536334722
$GNGGA,080048.00,3519.82842887,N,12137.76730355,W,2,11,0.9,7.658,M,-37.626,M,5.0,0135*68
$PYRTM,2024,124.333888924583,15.443536334722
$GNHDT,338.786,T*2A
$PYRTM,2024,124.333894659537,15.443542069687
$GNGGA,080048.50,3519.82888592,N,12137.76739262,W,2,11,0.9,7.646,M,-37.626,M,5.4,0135*65
$PYRTM,2024,124.333894659537,15.443542069687
$GNHDT,339.265,T*23
$PYRTM,2024,124.333900497500,15.443547907639
$GNGGA,080049.00,3519.82939273,N,12137.76741920,W,2,11,0.9,7.473,M,-37.626,M,6.0,0135*63
$PYRTM,2024,124.333900497500,15.443547907639
$GNHDT,339.346,T*23
$PYRTM,2024,124.333906232384,15.443553642523
$GNGGA,080049.50,3519.82994415,N,12137.76744031,W,2,11,0.9,7.171,M,-37.626,M,6.4,0135*68
$PYRTM,2024,124.333906232384,15.443553642523
$GNHDT,339.072,T*27
$PYRTM,2024,124.333912069144,15.443559479282
$GNGGA,080050.00,3519.83050939,N,12137.76751006,W,2,11,0.9,6.844,M,-37.626,M,7.0,0135*6D
$PYRTM,2024,124.333912069144,15.443559479282
$GNHDT,338.842,T*2D
$PYRTM,2024,124.333917802917,15.443565213056
$GNGGA,080050.50,3519.83104122,N,12137.76765096,W,2,11,0.9,6.633,M,-37.626,M,7.4,0135*6E
$PYRTM,2024,124.333917802917,15.443565213056
$GNHDT,338.533,T*26
$PYRTM,2024,124.333923647222,15.443571057361
$GNGGA,080051.00,3519.83149998,N,12137.76785105,W,2,11,0.9,6.640,M,-37.626,M,7.0,0135*6F
$PYRTM,2024,124.333923647222,15.443571057361
$GNHDT,338.230,T*22
$PYRTM,2024,124.333929381250,15.443576791400
$GNGGA,080051.50,3519.83189026,N,12137.76807525,W,2,11,0.9,6.922,M,-37.626,M,7.4,0135*66
$PYRTM,2024,124.333929381250,15.443576791400
$GNHDT,338.406,T*21
$PYRTM,2024,124.333935218044,15.443582628183
$GNGGA,080052.00,3519.83224488,N,12137.76829704,W,2,11,0.9,7.375,M,-37.626,M,7.0,0135*64
$PYRTM,2024,124.333935218044,15.443582628183
$GNHDT,338.881,T*22
$PYRTM,2024,124.333940955914,15.443588366053
$GNGGA,080052.50,3519.83263827,N,12137.76849692,W,2,11,0.9,7.805,M,-37.626,M,7.4,0135*6B
$PYRTM,2024,124.333940955914,15.443588366053
$GNHDT,338.335,T*26
$PYRTM,2024,124.333946806829,15.443594216956
$GNGGA,080053.00,3519.83314252,N,12137.76866711,W,2,11,0.9,7.965,M,-37.626,M,4.0,0135*61
$PYRTM,2024,124.333946806829,15.443594216956
$GNHDT,338.419,T*2F
$PYRTM,2024,124.333952523542,15.443599933681
$GNGGA,080053.50,3519.83371369,N,12137.76876452,W,2,11,0.9,7.828,M,-37.626,M,4.4,0135*67
$PYRTM,2024,124.333952523542,15.443599933681
$GNHDT,338.263,T*24
$PYRTM,2024,124.333958371852,15.443605781991
$GNGGA,080054.00,3519.83429028,N,12137.76881031,W,2,11,0.9,7.527,M,-37.626,M,5.0,0135*67
$PYRTM,2024,124.333958371852,15.443605781991
$GNHDT,338.193,T*28
$PYRTM,2024,124.333964103113,15.443611513264
$GNGGA,080054.50,3519.83481517,N,12137.76882951,W,2,11,0.9,7.212,M,-37.626,M,5.4,0135*60
$PYRTM,2024,124.333964103113,15.443611513264
$GNHDT,338.457,T*25
$PYRTM,2024,124.333969941921,15.443617352060
$GNGGA,080055.00,3519.83527361,N,12137.76887170,W,2,11,0.9,6.964,M,-37.626,M,6.0,0135*6C
$PYRTM,2024,124.333969941921,15.443617352060
$GNHDT,338.895,T*27
$PYRTM,2024,124.333975677951,15.443623088090
$GNGGA,080055.50,3519.83571431,N,12137.76896238,W,2,11,0.9,6.816,M,-37.626,M,6.4,0135*67
$PYRTM,2024,124.333975677951,15.443623088090
$GNHDT,338.946,T*28
$PYRTM,2024,124.333981518137,15.443628928275
$GNGGA,080056.00,3519.83616841,N,12137.76912133,W,2,11,0.9,6.703,M,-37.626,M,7.0,0135*63
$PYRTM,2024,124.333981518137,15.443628928275
$GNHDT,338.702,T*26
$PYRTM,2024,124.333987248738,15.443634658877
$GNGGA,080056.50,3519.83666335,N,12137.76936141,W,2,11,0.9,6.585,M,-37.626,M,7.4,0135*62
$PYRTM,2024,124.333987248738,15.443634658877
$GNHDT,338.600,T*25
$PYRTM,2024,124.333993090775,15.443640500914
$GNGGA,080057.00,3519.83715929,N,12137.76964715,W,2,11,0.9,6.564,M,-37.626,M,7.0,0135*6F
$PYRTM,2024,124.333993090775,15.443640500914
$GNHDT,338.257,T*23
$PYRTM,2024,124.333998822986,15.443646233125
$GNGGA,080057.50,3519.83759201,N,12137.76991183,W,2,11,0.9,6.774,M,-37.626,M,7.4,0135*67
$PYRTM,2024,124.333998822986,15.443646233125
$GNHDT,337.734,T*2C
$PYRTM,2024,124.334004668449,15.443652078588
$GNGGA,080058.00,3519.83794716,N,12137.77007787,W,2,11,0.9,7.223,M,-37.626,M,7.0,0135*68
$PYRTM,2024,124.334004668449,15.443652078588
$GNHDT,337.430,T*2B
$PYRTM,2024,124.334010401238,15.443657811377
$GNGGA,080058.50,3519.83828069,N,12137.77012656,W,2,11,0.9,7.757,M,-37.626,M,7.4,0135*61
$PYRTM,2024,124.334010401238,15.443657811377
$GNHDT,337.780,T*23
$PYRTM,2024,124.334016235035,15.443663645174
$GNGGA,080059.00,3519.83864773,N,12137.77008192,W,2,11,0.9,8.180,M,-37.626,M,4.0,0135*61
$PYRTM,2024,124.334016235035,15.443663645174
$GNHDT,338.237,T*25
$PYRTM,2024,124.334021973183,15.443669383322
$GNGGA,080059.50,3519.83910262,N,12137.77000408,W,2,11,0.9,8.261,M,-37.626,M,4.4,0135*65
$PYRTM,2024,124.334021973183,15.443669383322
$GNHDT,338.866,T*2B
$PYRTM,2024,124.334027816169,15.443675226308
$GNGGA,080100.00,3519.83964125,N,12137.76996876,W,2,11,0.9,7.889,M,-37.626,M,5.0,0135*6A
$PYRTM,2024,124.334027816169,15.443675226308
$GNHDT,339.106,T*25
$PYRTM,2024,124.334033548299,15.443680958438
$GNGGA,080100.50,3519.84020231,N,12137.77001027,W,2,11,0.9,7.210,M,-37.626,M,5.4,0135*63
$PYRTM,2024,124.334033548299,15.443680958438
$GNHDT,339.301,T*20
$PYRTM,2024,124.334039393958,15.443686804097
$GNGGA,080101.00,3519.84072830,N,12137.77017267,W,2,11,0.9,6.511,M,-37.626,M,6.0,0135*6A
$PYRTM,2024,124.334039393958,15.443686804097
$GNHDT,339.559,T*2B
$PYRTM,2024,124.334045119201,15.443692529340
$GNGGA,080101.50,3519.84115953,N,12137.77045327,W,2,11,0.9,6.080,M,-37.626,M,6.4,0135*60
$PYRTM,2024,124.334045119201,15.443692529340
$GNHDT,338.675,T*27
$PYRTM,2024,124.334050960938,15.443698371076
$GNGGA,080102.00,3519.84150629,N,12137.77078915,W,2,11,0.9,6.035,M,-37.626,M,7.0,0135*6B
$PYRTM,2024,124.334050960938,15.443698371076
$GNHDT,338.577,T*26
$PYRTM,2024,124.334056694259,15.443704104398
$GNGGA,080102.50,3519.84180384,N,12137.77107315,W,2,11,0.9,6.400,M,-37.626,M,7.4,0135*64
$PYRTM,2024,124.334056694259,15.443704104398
$GNHDT,338.192,T*29
$PYRTM,2024,124.334062537824,15.443709947963
$GNGGA,080103.00,3519.84209382,N,12137.77122876,W,2,11,0.9,6.945,M,-37.626,M,7.0,0135*65
$PYRTM,2024,124.334062537824,15.443709947963
$GNHDT,338.224,T*27
$PYRTM,2024,124.334068272616,15.443715682755
$GNGGA,080103.50,3519.84242451,N,12137.77124142,W,2,11,0.9,7.553,M,-37.626,M,7.4,0135*60
$PYRTM,2024,124.334068272616,15.443715682755
$GNHDT,338.591,T*2E
$PYRTM,2024,124.334074111817,15.443721521956
$GNGGA,080104.00,3519.84279922,N,12137.77116696,W,2,11,0.9,8.024,M,-37.626,M,7.0,0135*62
$PYRTM,2024,124.334074111817,15.443721521956
$GNHDT,338.967,T*2B
$PYRTM,2024,124.334079837072,15.443727247211
$GNGGA,080104.50,3519.84325328,N,12137.77108488,W,2,11,0.9,8.246,M,-37.626,M,7.4,0135*6F
$PYRTM,2024,124.334079837072,15.443727247211
$GNHDT,338.596,T*29
$PYRTM,2024,124.334085680370,15.443733090509
$GNGGA,080105.00,3519.84377480,N,12137.77106165,W,2,11,0.9,8.031,M,-37.626,M,4.0,0135*64
$PYRTM,2024,124.334085680370,15.443733090509
$GNHDT,338.041,T*26
$PYRTM,2024,124.334091415544,15.443738825683
$GNGGA,080105.50,3519.84431712,N,12137.77113971,W,2,11,0.9,7.484,M,-37.626,M,4.4,0135*64
$PYRTM,2024,124.334091415544,15.443738825683
$GNHDT,338.349,T*2D
$PYRTM,2024,124.334097260544,15.443744670683
$GNGGA,080106.00,3519.84481781,N,12137.77131149,W,2,11,0.9,6.859,M,-37.626,M,5.0,0135*68
$PYRTM,2024,124.334097260544,15.443744670683
$GNHDT,338.267,T*20
$PYRTM,2024,124.334102985475,15.443750395613
$GNGGA,080106.50,3519.84523862,N,12137.77154893,W,2,11,0.9,6.464,M,-37.626,M,5.4,0135*6D
$PYRTM,2024,124.334102985475,15.443750395613
$GNHDT,337.572,T*2C
$PYRTM,2024,124.334108836481,15.443756246620
$GNGGA,080107.00,3519.84557339,N,12137.77181310,W,2,11,0.9,6.472,M,-37.626,M,6.0,0135*67
$PYRTM,2024,124.334108836481,15.443756246620
$GNHDT,337.476,T*29
$PYRTM,2024,124.334114568009,15.443761978148
$GNGGA,080107.50,3519.84585751,N,12137.77205323,W,2,11,0.9,6.808,M,-37.626,M,6.4,0135*6D
$PYRTM,2024,124.334114568009,15.443761978148
$GNHDT,338.296,T*2E
$PYRTM,2024,124.334120405868,15.443767816019
$GNGGA,080108.00,3519.84615584,N,12137.77223628,W,2,11,0.9,7.262,M,-37.626,M,7.0,0135*6F
$PYRTM,2024,124.334120405868,15.443767816019
$GNHDT,338.394,T*2D
$PYRTM,2024,124.334126139664,15.443773549803
$GNGGA,080108.50,3519.84653111,N,12137.77234216,W,2,11,0.9,7.586,M,-37.626,M,7.4,0135*66
$PYRTM,2024,124.334126139664,15.443773549803
$GNHDT,337.910,T*24
$PYRTM,2024,124.334131978993,15.443779389144
$GNGGA,080109.00,3519.84699605,N,12137.77237768,W,2,11,0.9,7.746,M,-37.626,M,7.0,0135*63
$PYRTM,2024,124.334131978993,15.443779389144
$GNHDT,337.911,T*25
$PYRTM,2024,124.334137710058,15.443785120208
$GNGGA,080109.50,3519.84750340,N,12137.77239029,W,2,11,0.9,7.740,M,-37.626,M,7.4,0135*68
$PYRTM,2024,124.334137710058,15.443785120208
$GNHDT,338.156,T*21
$PYRTM,2024,124.334143550648,15.443790960787
$GNGGA,080110.00,3519.84801733,N,12137.77240769,W,2,11,0.9,7.621,M,-37.626,M,7.0,0135*61
$PYRTM,2024,124.334143550648,15.443790960787
$GNHDT,337.986,T*2B
$PYRTM,2024,124.334149282106,15.443796692245
$GNGGA,080110.50,3519.84851884,N,12137.77246282,W,2,11,0.9,7.423,M,-37.626,M,7.4,0135*60
$PYRTM,2024,124.334149282106,15.443796692245
$GNHDT,338.108,T*2A
$PYRTM,2024,124.334155133310,15.443802543449
$GNGGA,080111.00,3519.84898700,N,12137.77255465,W,2,11,0.9,7.236,M,-37.626,M,4.0,0135*6A
$PYRTM,2024,124.334155133310,15.443802543449
$GNHDT,338.134,T*25
$PYRTM,2024,124.334160857685,15.443808267824
$GNGGA,080111.50,3519.84942169,N,12137.77267163,W,2,11,0.9,7.120,M,-37.626,M,4.4,0135*62
$PYRTM,2024,124.334160857685,15.443808267824
$GNHDT,337.934,T*22
$PYRTM,2024,124.334166699398,15.443814109537
$GNGGA,080112.00,3519.84981299,N,12137.77280443,W,2,11,0.9,7.125,M,-37.626,M,5.0,0135*69
$PYRTM,2024,124.334166699398,15.443814109537
$GNHDT,338.250,T*24
$PYRTM,2024,124.334172436759,15.443819846898
$GNGGA,080112.50,3519.85016873,N,12137.77295850,W,2,11,0.9,7.266,M,-37.626,M,5.4,0135*6E
$PYRTM,2024,124.334172436759,15.443819846898
$GNHDT,338.003,T*20
$PYRTM,2024,124.334178273090,15.443825683229
$GNGGA,080113.00,3519.85050121,N,12137.77310652,W,2,11,0.9,7.465,M,-37.626,M,6.0,0135*64
$PYRTM,2024,124.334178273090,15.443825683229
$GNHDT,337.851,T*20
$PYRTM,2024,124.334184006991,15.443831417130
$GNGGA,080113.50,3519.85088134,N,12137.77320803,W,2,11,0.9,7.595,M,-37.626,M,6.4,0135*63
$PYRTM,2024,124.334184006991,15.443831417130
$GNHDT,337.920,T*27
$PYRTM,2024,124.334189846065,15.443837256204
$GNGGA,080114.00,3519.85130660,N,12137.77330503,W,2,11,0.9,7.582,M,-37.626,M,7.0,0135*6A
$PYRTM,2024,124.334189846065,15.443837256204
$GNHDT,337.666,T*2A
$PYRTM,2024,124.334195586053,15.443842996192
$GNGGA,080114.50,3519.85177020,N,12137.77342382,W,2,11,0.9,7.400,M,-37.626,M,7.4,0135*6B
$PYRTM,2024,124.334195586053,15.443842996192
$GNHDT,337.777,T*2B
$PYRTM,2024,124.334201423623,15.443848833762
$GNGGA,080115.00,3519.85228768,N,12137.77353167,W,2,11,0.9,7.071,M,-37.626,M,7.0,0135*62
$PYRTM,2024,124.334201423623,15.443848833762
$GNHDT,337.774,T*28
$PYRTM,2024,124.334207152824,15.443854562975
$GNGGA,080115.50,3519.85279130,N,12137.77361950,W,2,11,0.9,6.788,M,-37.626,M,7.4,0135*61
$PYRTM,2024,124.334207152824,15.443854562975
$GNHDT,337.446,T*2A
$PYRTM,2024,124.334212994664,15.443860404803
$GNGGA,080116.00,3519.85324820,N,12137.77365139,W,2,11,0.9,6.662,M,-37.626,M,7.0,0135*64
$PYRTM,2024,124.334212994664,15.443860404803
$GNHDT,337.717,T*2D
$PYRTM,2024,124.334218732141,15.443866142280
$GNGGA,080116.50,3519.85363003,N,12137.77364698,W,2,11,0.9,6.758,M,-37.626,M,7.4,0135*6A
$PYRTM,2024,124.334218732141,15.443866142280
$GNHDT,338.035,T*25
$PYRTM,2024,124.334224571354,15.443871981493
$GNGGA,080117.00,3519.85396870,N,12137.77364216,W,2,11,0.9,6.994,M,-37.626,M,4.0,0135*63
$PYRTM,2024,124.334224571354,15.443871981493
$GNHDT,338.170,T*25
$PYRTM,2024,124.334230300058,15.443877710197
$GNGGA,080117.50,3519.85431713,N,12137.77367846,W,2,11,0.9,7.192,M,-37.626,M,4.4,0135*61
$PYRTM,2024,124.334230300058,15.443877710197
$GNHDT,338.842,T*2D
$PYRTM,2024,124.334236142106,15.443883552245
$GNGGA,080118.00,3519.85472955,N,12137.77380358,W,2,11,0.9,7.150,M,-37.626,M,5.0,0135*66
$PYRTM,2024,124.334236142106,15.443883552245
$GNHDT,339.252,T*27
$PYRTM,2024,124.334241874988,15.443889285139
$GNGGA,080118.50,3519.85519040,N,12137.77398123,W,2,11,0.9,6.854,M,-37.626,M,5.4,0135*6D
$PYRTM,2024,124.334241874988,15.443889285139
$GNHDT,339.196,T*2C
$PYRTM,2024,124.334247717373,15.443895127512
$GNGGA,080119.00,3519.85565041,N,12137.77421017,W,2,11,0.9,6.490,M,-37.626,M,6.0,0135*63
$PYRTM,2024,124.334247717373,15.443895127512
$GNHDT,339.151,T*27
$PYRTM,2024,124.334253449248,15.443900859387
$GNGGA,080119.50,3519.85606236,N,12137.77443663,W,2,11,0.9,6.297,M,-37.626,M,6.4,0135*66
$PYRTM,2024,124.334253449248,15.443900859387
$GNHDT,339.021,T*21
$PYRTM,2024,124.334259292257,15.443906702396
$GNGGA,080120.00,3519.85637520,N,12137.77459222,W,2,11,0.9,6.456,M,-37.626,M,7.0,0135*6F
$PYRTM,2024,124.334259292257,15.443906702396
$GNHDT,338.998,T*2B
$PYRTM,2024,124.334265024826,15.443912434965
$GNGGA,080120.50,3519.85663431,N,12137.77465138,W,2,11,0.9,6.905,M,-37.626,M,7.4,0135*62
$PYRTM,2024,124.334265024826,15.443912434965
$GNHDT,339.342,T*27
$PYRTM,2024,124.334270867778,15.443918277917
$GNGGA,080121.00,3519.85688554,N,12137.77464250,W,2,11,0.9,7.419,M,-37.626,M,7.0,0135*68
$PYRTM,2024,124.334270867778,15.443918277917
$GNHDT,339.554,T*26
$PYRTM,2024,124.334276598229,15.443924008368
$GNGGA,080121.50,3519.85722322,N,12137.77461158,W,2,11,0.9,7.730,M,-37.626,M,7.4,0135*69
$PYRTM,2024,124.334276598229,15.443924008368
$GNHDT,339.857,T*28
$PYRTM,2024,124.334282440810,15.443929850949
$GNGGA,080122.00,3519.85767061,N,12137.77460736,W,2,11,0.9,7.633,M,-37.626,M,7.0,0135*63
$PYRTM,2024,124.334282440810,15.443929850949
$GNHDT,340.117,T*2B
$PYRTM,2024,124.334288174514,15.443935584653
$GNGGA,080122.50,3519.85819407,N,12137.77466634,W,2,11,0.9,7.184,M,-37.626,M,7.4,0135*6E
$PYRTM,2024,124.334288174514,15.443935584653
$GNHDT,340.295,T*22
$PYRTM,2024,124.334294022662,15.443941432801
$GNGGA,080123.00,3519.85871500,N,12137.77480712,W,2,11,0.9,6.618,M,-37.626,M,4.0,0135*6B
$PYRTM,2024,124.334294022662,15.443941432801
$GNHDT,340.191,T*25
$PYRTM,2024,124.334299747211,15.443947157350
$GNGGA,080123.50,3519.85917551,N,12137.77500570,W,2,11,0.9,6.220,M,-37.626,M,4.4,0135*6F
$PYRTM,2024,124.334299747211,15.443947157350
$GNHDT,340.086,T*22
$PYRTM,2024,124.334305585289,15.443952995440
$GNGGA,080124.00,3519.85953671,N,12137.77519900,W,2,11,0.9,6.204,M,-37.626,M,5.0,0135*6C
$PYRTM,2024,124.334305585289,15.443952995440
$GNHDT,340.013,T*2E
$PYRTM,2024,124.334311321343,15.443958731481
$GNGGA,080124.50,3519.85981625,N,12137.77530970,W,2,11,0.9,6.569,M,-37.626,M,5.4,0135*63
$PYRTM,2024,124.334311321343,15.443958731481
$GNHDT,339.795,T*29
$PYRTM,2024,124.334317167384,15.443964577523
$GNGGA,080125.00,3519.86006681,N,12137.77533015,W,2,11,0.9,7.140,M,-37.626,M,6.0,0135*6C
$PYRTM,2024,124.334317167384,15.443964577523
$GNHDT,340.190,T*24
$PYRTM,2024,124.334322904005,15.443970314144
$GNGGA,080125.50,3519.86036240,N,12137.77529886,W,2,11,0.9,7.675,M,-37.626,M,6.4,0135*6F
$PYRTM,2024,124.334322904005,15.443970314144
$GNHDT,340.956,T*26
$PYRTM,2024,124.334328742477,15.443976152616
$GNGGA,080126.00,3519.86075540,N,12137.77523769,W,2,11,0.9,7.908,M,-37.626,M,7.0,0135*6D
$PYRTM,2024,124.334328742477,15.443976152616
$GNHDT,341.415,T*2D
$PYRTM,2024,124.334334477060,15.443981887199
$GNGGA,080126.50,3519.86123613,N,12137.77518353,W,2,11,0.9,7.751,M,-37.626,M,7.4,0135*6C
$PYRTM,2024,124.334334477060,15.443981887199
$GNHDT,341.922,T*24
$PYRTM,2024,124.334340309549,15.443987719687
$GNGGA,080127.00,3519.86172418,N,12137.77516965,W,2,11,0.9,7.365,M,-37.626,M,7.0,0135*63
$PYRTM,2024,124.334340309549,15.443987719687
$GNHDT,342.164,T*2D
$PYRTM,2024,124.334346043137,15.443993453275
$GNGGA,080127.50,3519.86216013,N,12137.77519922,W,2,11,0.9,6.952,M,-37.626,M,7.4,0135*6F
$PYRTM,2024,124.334346043137,15.443993453275
$GNHDT,341.935,T*22
$PYRTM,2024,124.334351883380,15.443999293519
$GNGGA,080128.00,3519.86250897,N,12137.77528319,W,2,11,0.9,6.705,M,-37.626,M,7.0,0135*6B
$PYRTM,2024,124.334351883380,15.443999293519
$GNHDT,341.949,T*29
$PYRTM,2024,124.334357618576,15.444005028715
$GNGGA,080128.50,3519.86279273,N,12137.77539482,W,2,11,0.9,6.683,M,-37.626,M,7.4,0135*6B
$PYRTM,2024,124.334357618576,15.444005028715
$GNHDT,342.257,T*2E
$PYRTM,2024,124.334363462083,15.444010872222
$GNGGA,080129.00,3519.86307207,N,12137.77550508,W,2,11,0.9,6.799,M,-37.626,M,4.0,0135*65
$PYRTM,2024,124.334363462083,15.444010872222
$GNHDT,342.426,T*2E
$PYRTM,2024,124.334369193021,15.444016603171
$GNGGA,080129.50,3519.86340357,N,12137.77560169,W,2,11,0.9,6.944,M,-37.626,M,4.4,0135*6D
$PYRTM,2024,124.334369193021,15.444016603171
$GNHDT,342.529,T*20
$PYRTM,2024,124.334375033472,15.444022443611
$GNGGA,080130.00,3519.86381082,N,12137.77566608,W,2,11,0.9,7.015,M,-37.626,M,5.0,0135*69
$PYRTM,2024,124.334375033472,15.444022443611
$GNHDT,342.234,T*2B
$PYRTM,2024,124.334380769606,15.444028179745
$GNGGA,080130.50,3519.86427191,N,12137.77569399,W,2,11,0.9,7.009,M,-37.626,M,5.4,0135*6F
$PYRTM,2024,124.334380769606,15.444028179745
$GNHDT,341.796,T*25
$PYRTM,2024,124.334386606273,15.444034016412
$GNGGA,080131.00,3519.86474089,N,12137.77568612,W,2,11,0.9,6.967,M,-37.626,M,6.0,0135*65
$PYRTM,2024,124.334386606273,15.444034016412
$GNHDT,341.495,T*25
$PYRTM,2024,124.334392338924,15.444039749063
$GNGGA,080131.50,3519.86518132,N,12137.77568312,W,2,11,0.9,6.989,M,-37.625,M,6.4,0135*68
$PYRTM,2024,124.334392338924,15.444039749063
$GNHDT,341.596,T*27
$PYRTM,2024,124.334398187940,15.444045598090
$GNGGA,080132.00,3519.86557722,N,12137.77571072,W,2,11,0.9,7.059,M,-37.625,M,7.0,0135*6F
$PYRTM,2024,124.334398187940,15.444045598090
$GNHDT,341.695,T*27
$PYRTM,2024,124.334403912581,15.444051322720
$GNGGA,080132.50,3519.86596057,N,12137.77578109,W,2,11,0.9,7.159,M,-37.625,M,7.4,0135*63
$PYRTM,2024,124.334403912581,15.444051322720
$GNHDT,342.040,T*2A
$PYRTM,2024,124.334409757338,15.444057167477
$GNGGA,080133.00,3519.86633326,N,12137.77587297,W,2,11,0.9,7.232,M,-37.625,M,7.0,0135*60
$PYRTM,2024,124.334409757338,15.444057167477
$GNHDT,342.345,T*2C
$PYRTM,2024,124.334415489398,15.444062899537
$GNGGA,080133.50,3519.86670428,N,12137.77594433,W,2,11,0.9,7.256,M,-37.625,M,7.4,0135*67
$PYRTM,2024,124.334415489398,15.444062899537
$GNHDT,342.341,T*28
$PYRTM,2024,124.334421331713,15.444068741852
$GNGGA,080134.00,3519.86706800,N,12137.77598539,W,2,11,0.9,7.229,M,-37.625,M,7.0,0135*68
$PYRTM,2024,124.334421331713,15.444068741852
$GNHDT,342.849,T*2B
$PYRTM,2024,124.334427063160,15.444074473299
$GNGGA,080134.50,3519.86744030,N,12137.77599846,W,2,11,0.9,7.155,M,-37.625,M,7.4,0135*68
$PYRTM,2024,124.334427063160,15.444074473299
$GNHDT,342.993,T*2D
$PYRTM,2024,124.334432901725,15.444080311863
$GNGGA,080135.00,3519.86784548,N,12137.77600547,W,2,11,0.9,7.000,M,-37.625,M,4.0,0135*63
$PYRTM,2024,124.334432901725,15.444080311863
$GNHDT,342.954,T*26
$PYRTM,2024,124.334438634456,15.444086044595
$GNGGA,080135.50,3519.86829124,N,12137.77603012,W,2,11,0.9,6.765,M,-37.625,M,4.4,0135*67
$PYRTM,2024,124.334438634456,15.444086044595
$GNHDT,342.819,T*2E
$PYRTM,2024,124.334444481076,15.444091891215
$GNGGA,080136.00,3519.86875615,N,12137.77610415,W,2,11,0.9,6.483,M,-37.625,M,5.0,0135*62
$PYRTM,2024,124.334444481076,15.444091891215
$GNHDT,342.130,T*2C
$PYRTM,2024,124.334450215671,15.444097625822
$GNGGA,080136.50,3519.86918408,N,12137.77623089,W,2,11,0.9,6.324,M,-37.625,M,5.4,0135*6C
$PYRTM,2024,124.334450215671,15.444097625822
$GNHDT,341.810,T*24
$PYRTM,2024,124.334456051343,15.444103461481
$GNGGA,080137.00,3519.86954770,N,12137.77635592,W,2,11,0.9,6.431,M,-37.625,M,6.0,0135*60
$PYRTM,2024,124.334456051343,15.444103461481
$GNHDT,341.752,T*2D
$PYRTM,2024,124.334461794421,15.444109204560
$GNGGA,080137.50,3519.86985563,N,12137.77644629,W,2,11,0.9,6.768,M,-37.625,M,6.4,0135*67
$PYRTM,2024,124.334461794421,15.444109204560
$GNHDT,341.913,T*26
$PYRTM,2024,124.334467627627,15.444115037766
$GNGGA,080138.00,3519.87014996,N,12137.77648184,W,2,11,0.9,7.228,M,-37.625,M,7.0,0135*62
$PYRTM,2024,124.334467627627,15.444115037766
$GNHDT,342.555,T*2B
$PYRTM,2024,124.334473356273,15.444120766412
$GNGGA,080138.50,3519.87049773,N,12137.77647175,W,2,11,0.9,7.594,M,-37.625,M,7.4,0135*6F
$PYRTM,2024,124.334473356273,15.444120766412
$GNHDT,342.810,T*27
$PYRTM,2024,124.334479196956,15.444126607095
$GNGGA,080139.00,3519.87094395,N,12137.77641218,W,2,11,0.9,7.704,M,-37.625,M,7.0,0135*66
$PYRTM,2024,124.334479196956,15.444126607095
$GNHDT,342.715,T*2D
$PYRTM,2024,124.334484931157,15.444132341296
$GNGGA,080139.50,3519.87145700,N,12137.77634101,W,2,11,0.9,7.509,M,-37.625,M,7.4,0135*64
$PYRTM,2024,124.334484931157,15.444132341296
$GNHDT,342.557,T*29
$PYRTM,2024,124.334490777407,15.444138187546
$GNGGA,080140.00,3519.87198839,N,12137.77631514,W,2,11,0.9,7.136,M,-37.625,M,7.0,0135*63
$PYRTM,2024,124.334490777407,15.444138187546
$GNHDT,342.328,T*27
$PYRTM,2024,124.334496512245,15.444143922384
$GNGGA,080140.50,3519.87248098,N,12137.77638399,W,2,11,0.9,6.753,M,-37.625,M,7.4,0135*61
$PYRTM,2024,124.334496512245,15.444143922384
$GNHDT,341.820,T*27
$PYRTM,2024,124.334502350278,15.444149760417
$GNGGA,080141.00,3519.87290739,N,12137.77653758,W,2,11,0.9,6.550,M,-37.625,M,4.0,0135*6E
$PYRTM,2024,124.334502350278,15.444149760417
$GNHDT,341.430,T*2A
$PYRTM,2024,124.334508077894,15.444155488032
$GNGGA,080141.50,3519.87325791,N,12137.77673442,W,2,11,0.9,6.566,M,-37.625,M,4.4,0135*6D
$PYRTM,2024,124.334508077894,15.444155488032
$GNHDT,341.375,T*2C
$PYRTM,2024,124.334513932616,15.444161342766
$GNGGA,080142.00,3519.87355949,N,12137.77690105,W,2,11,0.9,6.822,M,-37.625,M,5.0,0135*64
$PYRTM,2024,124.334513932616,15.444161342766
$GNHDT,341.481,T*20
$PYRTM,2024,124.334519663160,15.444167073299
$GNGGA,080142.50,3519.87386397,N,12137.77697229,W,2,11,0.9,7.166,M,-37.625,M,5.4,0135*60
$PYRTM,2024,124.334519663160,15.444167073299
$GNHDT,341.526,T*2C
$PYRTM,2024,124.334525498333,15.444172908484
$GNGGA,080143.00,3519.87424350,N,12137.77692648,W,2,11,0.9,7.426,M,-37.625,M,6.0,0135*60
$PYRTM,2024,124.334525498333,15.444172908484
$GNHDT,341.897,T*2B
$PYRTM,2024,124.334531232118,15.444178642257
$GNGGA,080143.50,3519.87472172,N,12137.77680091,W,2,11,0.9,7.486,M,-37.625,M,6.4,0135*6B
$PYRTM,2024,124.334531232118,15.444178642257
$GNHDT,342.001,T*2F
$PYRTM,2024,124.334537078669,15.444184488808
$GNGGA,080144.00,3519.87524276,N,12137.77667001,W,2,11,0.9,7.365,M,-37.625,M,7.0,0135*63
$PYRTM,2024,124.334537078669,15.444184488808
$GNHDT,341.878,T*2A
$PYRTM,2024,124.334542805197,15.444190215336
$GNGGA,080144.50,3519.87576160,N,12137.77660352,W,2,11,0.9,7.129,M,-37.625,M,7.4,0135*69
$PYRTM,2024,124.334542805197,15.444190215336
$GNHDT,341.389,T*2F
$PYRTM,2024,124.334548641736,15.444196051875
$GNGGA,080145.00,3519.87623237,N,12137.77664353,W,2,11,0.9,6.917,M,-37.625,M,7.0,0135*6A
$PYRTM,2024,124.334548641736,15.444196051875
$GNHDT,341.125,T*2B
$PYRTM,2024,124.334554374063,15.444201784201
$GNGGA,080145.50,3519.87664179,N,12137.77679871,W,2,11,0.9,6.842,M,-37.625,M,7.4,0135*67
$PYRTM,2024,124.334554374063,15.444201784201
$GNHDT,341.336,T*2B
$PYRTM,2024,124.334560220926,15.444207631065
$GNGGA,080146.00,3519.87699254,N,12137.77703842,W,2,11,0.9,6.919,M,-37.625,M,7.0,0135*68
$PYRTM,2024,124.334560220926,15.444207631065
$GNHDT,341.124,T*2A
$PYRTM,2024,124.334565951273,15.444213361412
$GNGGA,080146.50,3519.87730889,N,12137.77727638,W,2,11,0.9,7.125,M,-37.625,M,7.4,0135*62
$PYRTM,2024,124.334565951273,15.444213361412
$GNHDT,340.625,T*2D
$PYRTM,2024,124.334571789155,15.444219199294
$GNGGA,080147.00,3519.87761942,N,12137.77745681,W,2,11,0.9,7.346,M,-37.625,M,4.0,0135*62
$PYRTM,2024,124.334571789155,15.444219199294
$GNHDT,340.621,T*29
$PYRTM,2024,124.334577526377,15.444224936516
$GNGGA,080147.50,3519.87799011,N,12137.77754301,W,2,11,0.9,7.465,M,-37.625,M,4.4,0135*60
$PYRTM,2024,124.334577526377,15.444224936516
$GNHDT,340.518,T*20
$PYRTM,2024,124.334583367222,15.444230777361
$GNGGA,080148.00,3519.87844139,N,12137.77755748,W,2,11,0.9,7.372,M,-37.625,M,5.0,0135*62
$PYRTM,2024,124.334583367222,15.444230777361
$GNHDT,340.484,T*24
$PYRTM,2024,124.334589102558,15.444236512697
$GNGGA,080148.50,3519.87895185,N,12137.77753789,W,2,11,0.9,7.103,M,-37.625,M,5.4,0135*67
$PYRTM,2024,124.334589102558,15.444236512697
$GNHDT,340.039,T*26
$PYRTM,2024,124.334594939988,15.444242350127
$GNGGA,080149.00,3519.87947726,N,12137.77752917,W,2,11,0.9,6.690,M,-37.625,M,6.0,0135*61
$PYRTM,2024,124.334594939988,15.444242350127
$GNHDT,339.563,T*22
$PYRTM,2024,124.334600673669,15.444248083808
$GNGGA,080149.50,3519.87997297,N,12137.77754818,W,2,11,0.9,6.364,M,-37.625,M,6.4,0135*64
$PYRTM,2024,124.334600673669,15.444248083808
$GNHDT,339.273,T*24
$PYRTM,2024,124.334606521968,15.444253932106
$GNGGA,080150.00,3519.88038270,N,12137.77761560,W,2,11,0.9,6.291,M,-37.625,M,7.0,0135*69
$PYRTM,2024,124.334606521968,15.444253932106
$GNHDT,338.897,T*25
$PYRTM,2024,124.334612248912,15.444259659051
$GNGGA,080150.50,3519.88071314,N,12137.77771039,W,2,11,0.9,6.510,M,-37.625,M,7.4,0135*60
$PYRTM,2024,124.334612248912,15.444259659051
$GNHDT,339.525,T*20
$PYRTM,2024,124.334618086389,15.444265496528
$GNGGA,080151.00,3519.88099246,N,12137.77782422,W,2,11,0.9,6.915,M,-37.625,M,7.0,0135*6B
$PYRTM,2024,124.334618086389,15.444265496528
$GNHDT,339.669,T*2B
$PYRTM,2024,124.334623824491,15.444271234630
$GNGGA,080151.50,3519.88127898,N,12137.77795743,W,2,11,0.9,7.343,M,-37.625,M,7.4,0135*6D
$PYRTM,2024,124.334623824491,15.444271234630
$GNHDT,339.740,T*21
$PYRTM,2024,124.334629666921,15.444277077060
$GNGGA,080152.00,3519.88162750,N,12137.77810481,W,2,11,0.9,7.586,M,-37.625,M,7.0,0135*65
$PYRTM,2024,124.334629666921,15.444277077060
$GNHDT,339.442,T*20
$PYRTM,2024,124.334635398600,15.444282808738
$GNGGA,080152.50,3519.88205808,N,12137.77823339,W,2,11,0.9,7.537,M,-37.625,M,7.4,0135*6A
$PYRTM,2024,124.334635398600,15.444282808738
$GNHDT,339.372,T*24
$PYRTM,2024,124.334641235741,15.444288645880
$GNGGA,080153.00,3519.88252381,N,12137.77832353,W,2,11,0.9,7.288,M,-37.625,M,4.0,0135*6E
$PYRTM,2024,124.334641235741,15.444288645880
$GNHDT,338.976,T*2B
$PYRTM,2024,124.334646972280,15.444294382419
$GNGGA,080153.50,3519.88297872,N,12137.77835828,W,2,11,0.9,6.972,M,-37.625,M,4.4,0135*6E
$PYRTM,2024,124.334646972280,15.444294382419
$GNHDT,338.937,T*2E
$PYRTM,2024,124.334652817859,15.444300227998
$GNGGA,080154.00,3519.88339712,N,12137.77835274,W,2,11,0.9,6.747,M,-37.625,M,5.0,0135*6E
$PYRTM,2024,124.334652817859,15.444300227998
$GNHDT,338.974,T*29
$PYRTM,2024,124.334658543414,15.444305953553
$GNGGA,080154.50,3519.88376932,N,12137.77835904,W,2,11,0.9,6.706,M,-37.625,M,5.4,0135*61
$PYRTM,2024,124.334658543414,15.444305953553
$GNHDT,338.562,T*22
$PYRTM,2024,124.334664380891,15.444311791030
$GNGGA,080155.00,3519.88412787,N,12137.77840915,W,2,11,0.9,6.798,M,-37.625,M,6.0,0135*62
$PYRTM,2024,124.334664380891,15.444311791030
$GNHDT,338.495,T*2B
$PYRTM,2024,124.334670115868,15.444317526007
$GNGGA,080155.50,3519.88451507,N,12137.77851211,W,2,11,0.9,6.928,M,-37.625,M,6.4,0135*64
$PYRTM,2024,124.334670115868,15.444317526007
$GNHDT,338.172,T*27
$PYRTM,2024,124.334675959606,15.444323369745
$GNGGA,080156.00,3519.88494510,N,12137.77867004,W,2,11,0.9,7.041,M,-37.625,M,7.0,0135*6C
$PYRTM,2024,124.334675959606,15.444323369745
$GNHDT,337.922,T*25
$PYRTM,2024,124.334681694398,15.444329104549
$GNGGA,080156.50,3519.88541153,N,12137.77882381,W,2,11,0.9,7.097,M,-37.625,M,7.4,0135*69
$PYRTM,2024,124.334681694398,15.444329104549
$GNHDT,337.886,T*2A
$PYRTM,2024,124.334687531169,15.444334941308
$GNGGA,080157.00,3519.88589841,N,12137.77893379,W,2,11,0.9,7.113,M,-37.625,M,7.0,0135*6D
$PYRTM,2024,124.334687531169,15.444334941308
$GNHDT,338.033,T*23
$PYRTM,2024,124.334693262569,15.444340672708
$GNGGA,080157.50,3519.88640841,N,12137.77897096,W,2,11,0.9,7.128,M,-37.625,M,7.4,0135*64
$PYRTM,2024,124.334693262569,15.444340672708
$GNHDT,337.614,T*2F
$PYRTM,2024,124.334699106053,15.444346516192
$GNGGA,080158.00,3519.88688974,N,12137.77899952,W,2,11,0.9,7.182,M,-37.625,M,7.0,0135*66
$PYRTM,2024,124.334699106053,15.444346516192
$GNHDT,337.573,T*2D
$PYRTM,2024,124.334704836412,15.444352246551
$GNGGA,080158.50,3519.88731332,N,12137.77904657,W,2,11,0.9,7.266,M,-37.625,M,7.4,0135*6A
$PYRTM,2024,124.334704836412,15.444352246551
$GNHDT,337.955,T*25
$PYRTM,2024,124.334710676273,15.444358086400
$GNGGA,080159.00,3519.88769957,N,12137.77909385,W,2,11,0.9,7.378,M,-37.625,M,4.0,0135*64
$PYRTM,2024,124.334710676273,15.444358086400
$GNHDT,338.080,T*2B
$PYRTM,2024,124.334716415845,15.444363825984
$GNGGA,080159.50,3519.88805545,N,12137.77914596,W,2,11,0.9,7.464,M,-37.625,M,4.4,0135*6D
$PYRTM,2024,124.334716415845,15.444363825984
$GNHDT,337.983,T*2E
$PYRTM,2024,124.334722257431,15.444369667569
$GNGGA,080200.00,3519.88841059,N,12137.77922018,W,2,11,0.9,7.470,M,-37.625,M,5.0,0135*69
$PYRTM,2024,124.334722257431,15.444369667569
$GNHDT,338.011,T*23
$PYRTM,2024,124.334727991123,15.444375401262
$GNGGA,080200.50,3519.88878629,N,12137.77931225,W,2,11,0.9,7.361,M,-37.625,M,5.4,0135*6A
$PYRTM,2024,124.334727991123,15.444375401262
$GNHDT,338.150,T*27
$PYRTM,2024,124.334733830405,15.444381240544
$GNGGA,080201.00,3519.88919140,N,12137.77941928,W,2,11,0.9,7.068,M,-37.625,M,6.0,0135*6C
$PYRTM,2024,124.334733830405,15.444381240544
$GNHDT,338.086,T*2D
$PYRTM,2024,124.334739566169,15.444386976308
$GNGGA,080201.50,3519.88964185,N,12137.77954088,W,2,11,0.9,6.690,M,-37.625,M,6.4,0135*69
$PYRTM,2024,124.334739566169,15.444386976308
$GNHDT,337.783,T*20
$PYRTM,2024,124.334745407083,15.444392817222
$GNGGA,080202.00,3519.89011347,N,12137.77970515,W,2,11,0.9,6.320,M,-37.625,M,7.0,0135*65
$PYRTM,2024,124.334745407083,15.444392817222
$GNHDT,337.607,T*2D
$PYRTM,2024,124.334751131435,15.444398541574
$GNGGA,080202.50,3519.89057362,N,12137.77986633,W,2,11,0.9,6.086,M,-37.625,M,7.4,0135*60
$PYRTM,2024,124.334751131435,15.444398541574
$GNHDT,337.053,T*2A
$PYRTM,2024,124.334756974653,15.444404384792
$GNGGA,080203.00,3519.89099557,N,12137.78001260,W,2,11,0.9,6.100,M,-37.625,M,7.0,0135*66
$PYRTM,2024,124.334756974653,15.444404384792
$GNHDT,336.749,T*27
$PYRTM,2024,124.334762712454,15.444410122593
$GNGGA,080203.50,3519.89136451,N,12137.78015059,W,2,11,0.9,6.330,M,-37.625,M,7.4,0135*68
$PYRTM,2024,124.334762712454,15.444410122593
$GNHDT,336.889,T*24
$PYRTM,2024,124.334768553148,15.444415963287
$GNGGA,080204.00,3519.89169346,N,12137.78032389,W,2,11,0.9,6.749,M,-37.625,M,7.0,0135*64
$PYRTM,2024,124.334768553148,15.444415963287
$GNHDT,336.814,T*20
$PYRTM,2024,124.334774283218,15.444421693356
$GNGGA,080204.50,3519.89203836,N,12137.78052162,W,2,11,0.9,7.129,M,-37.625,M,7.4,0135*66
$PYRTM,2024,124.334774283218,15.444421693356
$GNHDT,336.431,T*2B
$PYRTM,2024,124.334780128530,15.444427538669
$GNGGA,080205.00,3519.89243279,N,12137.78072014,W,2,11,0.9,7.360,M,-37.625,M,4.0,0135*6D
$PYRTM,2024,124.334780128530,15.444427538669
$GNHDT,336.948,T*28
$PYRTM,2024,124.334785858252,15.444433268403
$GNGGA,080205.50,3519.89287608,N,12137.78087557,W,2,11,0.9,7.409,M,-37.625,M,4.4,0135*66
$PYRTM,2024,124.334785858252,15.444433268403
$GNHDT,336.549,T*25
$PYRTM,2024,124.334791698380,15.444439108519
$GNGGA,080206.00,3519.89333376,N,12137.78097174,W,2,11,0.9,7.339,M,-37.625,M,5.0,0135*67
$PYRTM,2024,124.334791698380,15.444439108519
$GNHDT,336.604,T*2F
$PYRTM,2024,124.334797431412,15.444444841551
$GNGGA,080206.50,3519.89377604,N,12137.78099551,W,2,11,0.9,7.185,M,-37.625,M,5.4,0135*6E
$PYRTM,2024,124.334797431412,15.444444841551
$GNHDT,336.864,T*27
$PYRTM,2024,124.334803274815,15.444450684954
$GNGGA,080207.00,3519.89419415,N,12137.78098677,W,2,11,0.9,6.995,M,-37.625,M,6.0,0135*6E
$PYRTM,2024,124.334803274815,15.444450684954
$GNHDT,337.067,T*2D
$PYRTM,2024,124.334809008009,15.444456418148
$GNGGA,080207.50,3519.89459603,N,12137.78101102,W,2,11,0.9,6.801,M,-37.625,M,6.4,0135*66
$PYRTM,2024,124.334809008009,15.444456418148
$GNHDT,337.337,T*2B
$PYRTM,2024,124.334814853322,15.444462263461
$GNGGA,080208.00,3519.89500893,N,12137.78110736,W,2,11,0.9,6.542,M,-37.625,M,7.0,0135*68
$PYRTM,2024,124.334814853322,15.444462263461
$GNHDT,337.150,T*28
$PYRTM,2024,124.334820581620,15.444467991759
$GNGGA,080208.50,3519.89544290,N,12137.78129000,W,2,11,0.9,6.277,M,-37.625,M,7.4,0135*69
$PYRTM,2024,124.334820581620,15.444467991759
$GNHDT,336.860,T*23
$PYRTM,2024,124.334826423079,15.444473833218
$GNGGA,080209.00,3519.89587250,N,12137.78151804,W,2,11,0.9,6.114,M,-37.625,M,7.0,0135*6F
$PYRTM,2024,124.334826423079,15.444473833218
$GNHDT,336.488,T*29
$PYRTM,2024,124.334832155498,15.444479565637
$GNGGA,080209.50,3519.89624498,N,12137.78175344,W,2,11,0.9,6.212,M,-37.625,M,7.4,0135*6A
$PYRTM,2024,124.334832155498,15.444479565637
$GNHDT,336.587,T*27
$PYRTM,2024,124.334838000162,15.444485410301
$GNGGA,080210.00,3519.89656423,N,12137.78194857,W,2,11,0.9,6.604,M,-37.625,M,7.0,0135*63
$PYRTM,2024,124.334838000162,15.444485410301
$GNHDT,336.494,T*24
$PYRTM,2024,124.334843733356,15.444491143507
$GNGGA,080210.50,3519.89686147,N,12137.78206278,W,2,11,0.9,7.099,M,-37.625,M,7.4,0135*64
$PYRTM,2024,124.334843733356,15.444491143507
$GNHDT,336.231,T*2D
$PYRTM,2024,124.334849572940,15.444496983079
$GNGGA,080211.00,3519.89719177,N,12137.78207496,W,2,11,0.9,7.560,M,-37.625,M,4.0,0135*67
$PYRTM,2024,124.334849572940,15.444496983079
$GNHDT,336.284,T*23
$PYRTM,2024,124.334855305775,15.444502715914
$GNGGA,080211.50,3519.89760102,N,12137.78204622,W,2,11,0.9,7.757,M,-37.625,M,4.4,0135*62
$PYRTM,2024,124.334855305775,15.444502715914
$GNHDT,336.749,T*27
$PYRTM,2024,124.334861143137,15.444508553275
$GNGGA,080212.00,3519.89809217,N,12137.78204245,W,2,11,0.9,7.602,M,-37.625,M,5.0,0135*62
$PYRTM,2024,124.334861143137,15.444508553275
$GNHDT,337.174,T*2E
$PYRTM,2024,124.334866873819,15.444514283958
$GNGGA,080212.50,3519.89862048,N,12137.78209810,W,2,11,0.9,7.154,M,-37.625,M,5.4,0135*65
$PYRTM,2024,124.334866873819,15.444514283958
$GNHDT,337.552,T*2E
$PYRTM,2024,124.334872722847,15.444520132986
$GNGGA,080213.00,3519.89914485,N,12137.78220504,W,2,11,0.9,6.643,M,-37.625,M,6.0,0135*60
$PYRTM,2024,124.334872722847,15.444520132986
$GNHDT,337.502,T*2B
$PYRTM,2024,124.334878447708,15.444525857847
$GNGGA,080213.50,3519.89957724,N,12137.78240887,W,2,11,0.9,6.302,M,-37.625,M,6.4,0135*6E
$PYRTM,2024,124.334878447708,15.444525857847
$GNHDT,336.993,T*2E
$PYRTM,2024,124.334884293657,15.444531703796
$GNGGA,080214.00,3519.89991735,N,12137.78263257,W,2,11,0.9,6.282,M,-37.625,M,7.0,0135*6C
$PYRTM,2024,124.334884293657,15.444531703796
$GNHDT,336.772,T*2F
$PYRTM,2024,124.334890028380,15.444537438519
$GNGGA,080214.50,3519.90021045,N,12137.78280547,W,2,11,0.9,6.588,M,-37.625,M,7.4,0135*61
$PYRTM,2024,124.334890028380,15.444537438519
$GNHDT,336.924,T*22
$PYRTM,2024,124.334895873762,15.444543283900
$GNGGA,080215.00,3519.90046391,N,12137.78294585,W,2,11,0.9,7.121,M,-37.625,M,7.0,0135*67
$PYRTM,2024,124.334895873762,15.444543283900
$GNHDT,337.212,T*2D
$PYRTM,2024,124.334901604826,15.444549014965
$GNGGA,080215.50,3519.90075125,N,12137.78306051,W,2,11,0.9,7.610,M,-37.625,M,7.4,0135*68
$PYRTM,2024,124.334901604826,15.444549014965
$GNHDT,337.248,T*22
$PYRTM,2024,124.334907442095,15.444554852245
$GNGGA,080216.00,3519.90110897,N,12137.78315900,W,2,11,0.9,7.874,M,-37.625,M,7.0,0135*6B
$PYRTM,2024,124.334907442095,15.444554852245
$GNHDT,337.524,T*2F
$PYRTM,2024,124.334913169873,15.444560580012
$GNGGA,080216.50,3519.90154548,N,12137.78325373,W,2,11,0.9,7.816,M,-37.624,M,7.4,0135*6D
$PYRTM,2024,124.334913169873,15.444560580012
$GNHDT,337.398,T*2E
$PYRTM,2024,124.334919016586,15.444566426736
$GNGGA,080217.00,3519.90202980,N,12137.78336784,W,2,11,0.9,7.488,M,-37.624,M,4.0,0135*63
$PYRTM,2024,124.334919016586,15.444566426736
$GNHDT,337.524,T*2F
$PYRTM,2024,124.334924749433,15.444572159572
$GNGGA,080217.50,3519.90253364,N,12137.78348619,W,2,11,0.9,6.948,M,-37.624,M,4.4,0135*6A
$PYRTM,2024,124.334924749433,15.444572159572
$GNHDT,337.672,T*2F
$PYRTM,2024,124.334930591123,15.444578001262
$GNGGA,080218.00,3519.90301630,N,12137.78363791,W,2,11,0.9,6.443,M,-37.624,M,5.0,0135*69
$PYRTM,2024,124.334930591123,15.444578001262
$GNHDT,337.665,T*29
$PYRTM,2024,124.334936318854,15.444583728993
$GNGGA,080218.50,3519.90345672,N,12137.78379441,W,2,11,0.9,6.132,M,-37.624,M,5.4,0135*68
$PYRTM,2024,124.334936318854,15.444583728993
$GNHDT,337.924,T*23
$PYRTM,2024,124.334942162373,15.444589572512
$GNGGA,080219.00,3519.90383692,N,12137.78396786,W,2,11,0.9,6.164,M,-37.624,M,6.0,0135*65
$PYRTM,2024,124.334942162373,15.444589572512
$GNHDT,337.950,T*20
$PYRTM,2024,124.334947896794,15.444595306944
$GNGGA,080219.50,3519.90416510,N,12137.78417356,W,2,11,0.9,6.513,M,-37.624,M,6.4,0135*65
$PYRTM,2024,124.334947896794,15.444595306944
$GNHDT,337.596,T*26
$PYRTM,2024,124.334953738634,15.444601148773
$GNGGA,080220.00,3519.90447576,N,12137.78436884,W,2,11,0.9,7.002,M,-37.624,M,7.0,0135*68
$PYRTM,2024,124.334953738634,15.444601148773
$GNHDT,337.314,T*2A
$PYRTM,2024,124.334959467951,15.444606878090
$GNGGA,080220.50,3519.90480496,N,12137.78449299,W,2,11,0.9,7.497,M,-37.624,M,7.4,0135*6B
$PYRTM,2024,124.334959467951,15.444606878090
$GNHDT,337.266,T*2E
$PYRTM,2024,124.334965311215,15.444612721354
$GNGGA,080221.00,3519.90516784,N,12137.78455024,W,2,11,0.9,7.885,M,-37.624,M,7.0,0135*63
$PYRTM,2024,124.334965311215,15.444612721354
$GNHDT,337.346,T*2D
$PYRTM,2024,124.334971044618,15.444618454757
$GNGGA,080221.50,3519.90557096,N,12137.78458528,W,2,11,0.9,8.039,M,-37.624,M,7.4,0135*67
$PYRTM,2024,124.334971044618,15.444618454757
$GNHDT,337.594,T*24
$PYRTM,2024,124.334976887801,15.444624297928
$GNGGA,080222.00,3519.90601730,N,12137.78464719,W,2,11,0.9,7.884,M,-37.624,M,7.0,0135*60
$PYRTM,2024,124.334976887801,15.444624297928
$GNHDT,337.973,T*21
$PYRTM,2024,124.334982618495,15.444630028634
$GNGGA,080222.50,3519.90651080,N,12137.78475362,W,2,11,0.9,7.452,M,-37.624,M,7.4,0135*67
$PYRTM,2024,124.334982618495,15.444630028634
$GNHDT,337.998,T*24
$PYRTM,2024,124.334988456192,15.444635866343
$GNGGA,080223.00,3519.90701410,N,12137.78491878,W,2,11,0.9,6.903,M,-37.624,M,4.0,0135*6F
$PYRTM,2024,124.334988456192,15.444635866343
$GNHDT,337.622,T*2A
$PYRTM,2024,124.334994192373,15.444641602512
$GNGGA,080223.50,3519.90745689,N,12137.78511340,W,2,11,0.9,6.441,M,-37.624,M,4.4,0135*6E
$PYRTM,2024,124.334994192373,15.444641602512
$GNHDT,337.611,T*2A
$PYRTM,2024,124.335000029456,15.444647439595
$GNGGA,080224.00,3519.90780121,N,12137.78531790,W,2,11,0.9,6.340,M,-37.624,M,5.0,0135*68
$PYRTM,2024,124.335000029456,15.444647439595
$GNHDT,337.657,T*28
$PYRTM,2024,124.335005764965,15.444653175104
$GNGGA,080224.50,3519.90807650,N,12137.78546176,W,2,11,0.9,6.593,M,-37.624,M,5.4,0135*6E
$PYRTM,2024,124.335005764965,15.444653175104
$GNHDT,337.953,T*23
$PYRTM,2024,124.335011608252,15.444659018391
$GNGGA,080225.00,3519.90835266,N,12137.78548733,W,2,11,0.9,7.053,M,-37.624,M,6.0,0135*6C
$PYRTM,2024,124.335011608252,15.444659018391
$GNHDT,338.404,T*23
$PYRTM,2024,124.335017341887,15.444664752025
$GNGGA,080225.50,3519.90868047,N,12137.78547940,W,2,11,0.9,7.517,M,-37.624,M,6.4,0135*64
$PYRTM,2024,124.335017341887,15.444664752025
$GNHDT,338.486,T*29
$PYRTM,2024,124.335023181887,15.444670592025
$GNGGA,080226.00,3519.90909550,N,12137.78542775,W,2,11,0.9,7.823,M,-37.624,M,7.0,0135*65
$PYRTM,2024,124.335023181887,15.444670592025
$GNHDT,338.393,T*2A
$PYRTM,2024,124.335028910289,15.444676320428
$GNGGA,080226.50,3519.90960830,N,12137.78538595,W,2,11,0.9,7.844,M,-37.624,M,7.4,0135*60
$PYRTM,2024,124.335028910289,15.444676320428
$GNHDT,338.141,T*27
$PYRTM,2024,124.335034751470,15.444682161609
$GNGGA,080227.00,3519.91016247,N,12137.78541097,W,2,11,0.9,7.554,M,-37.624,M,7.0,0135*66
$PYRTM,2024,124.335034751470,15.444682161609
$GNHDT,337.921,T*26
$PYRTM,2024,124.335040488229,15.444687898368
$GNGGA,080227.50,3519.91066294,N,12137.78553439,W,2,11,0.9,7.183,M,-37.624,M,7.4,0135*63
$PYRTM,2024,124.335040488229,15.444687898368
$GNHDT,337.143,T*2A
$PYRTM,2024,124.335046327986,15.444693738125
$GNGGA,080228.00,3519.91105521,N,12137.78572890,W,2,11,0.9,6.933,M,-37.624,M,7.0,0135*6E
$PYRTM,2024,124.335046327986,15.444693738125
$GNHDT,337.370,T*28
$PYRTM,2024,124.335052060150,15.444699470289
$GNGGA,080228.50,3519.91133518,N,12137.78592867,W,2,11,0.9,6.926,M,-37.624,M,7.4,0135*62
$PYRTM,2024,124.335052060150,15.444699470289
$GNHDT,337.328,T*25
$PYRTM,2024,124.335057899722,15.444705309861
