$PYRTM,2024,123.416672393426,14.526319803576
$GNGGA,100000.50,3413.42200902,N,12029.38529308,W,2,11,0.9,8.319,M,-37.158,M,5.4,0135*6C
$PYRTM,2024,123.416672393426,14.526319803576
$GNHDT,302.631,T*2E
$PYRTM,2024,123.416678226447,14.526325636586
$GNGGA,100001.00,3413.42240068,N,12029.38606297,W,2,11,0.9,8.348,M,-37.158,M,6.0,0135*63
$PYRTM,2024,123.416678226447,14.526325636586
$GNHDT,302.440,T*2A
$PYRTM,2024,123.416683963056,14.526331373194
$GNGGA,100001.50,3413.42274649,N,12029.38675586,W,2,11,0.9,8.300,M,-37.158,M,6.4,0135*6F
$PYRTM,2024,123.416683963056,14.526331373194
$GNHDT,302.858,T*2F
$PYRTM,2024,123.416689800718,14.526337210856
$GNGGA,100002.00,3413.42297964,N,12029.38733731,W,2,11,0.9,8.430,M,-37.158,M,7.0,0135*68
$PYRTM,2024,123.416689800718,14.526337210856
$GNHDT,302.977,T*23
$PYRTM,2024,123.416695539699,14.526342949838
$GNGGA,100002.50,3413.42309601,N,12029.38783813,W,2,11,0.9,8.782,M,-37.158,M,7.4,0135*6D
$PYRTM,2024,123.416695539699,14.526342949838
$GNHDT,303.080,T*23
$PYRTM,2024,123.416701375637,14.526348785775
$GNGGA,100003.00,3413.42314165,N,12029.38830871,W,2,11,0.9,9.253,M,-37.158,M,7.0,0135*6F
$PYRTM,2024,123.416701375637,14.526348785775
$GNHDT,303.212,T*2A
$PYRTM,2024,123.416707108900,14.526354519039
$GNGGA,100003.50,3413.42319555,N,12029.38881877,W,2,11,0.9,9.559,M,-37.158,M,7.4,0135*65
$PYRTM,2024,123.416707108900,14.526354519039
$GNHDT,303.287,T*26
$PYRTM,2024,123.416712947431,14.526360357569
$GNGGA,100004.00,3413.42332378,N,12029.38942307,W,2,11,0.9,9.438,M,-37.158,M,7.0,0135*67
$PYRTM,2024,123.416712947431,14.526360357569
$GNHDT,303.217,T*2F
$PYRTM,2024,123.416718687870,14.526366098009
$GNGGA,100004.50,3413.42353618,N,12029.39011198,W,2,11,0.9,8.839,M,-37.158,M,7.4,0135*64
$PYRTM,2024,123.416718687870,14.526366098009
$GNHDT,303.139,T*20
$PYRTM,2024,123.416724524444,14.526371934583
$GNGGA,100005.00,3413.42380176,N,12029.39083880,W,2,11,0.9,7.922,M,-37.158,M,4.0,0135*69
$PYRTM,2024,123.416724524444,14.526371934583
$GNHDT,303.029,T*20
$PYRTM,2024,123.416730265139,14.526377675278
$GNGGA,100005.50,3413.42408336,N,12029.39158502,W,2,11,0.9,6.954,M,-37.158,M,4.4,0135*69
$PYRTM,2024,123.416730265139,14.526377675278
$GNHDT,302.993,T*29
$PYRTM,2024,123.416736102072,14.526383512211
$GNGGA,100006.00,3413.42437685,N,12029.39234058,W,2,11,0.9,6.181,M,-37.158,M,5.0,0135*68
$PYRTM,2024,123.416736102072,14.526383512211
$GNHDT,303.062,T*2F
$PYRTM,2024,123.416741830127,14.526389240266
$GNGGA,100006.50,3413.42466245,N,12029.39307064,W,2,11,0.9,5.861,M,-37.158,M,5.4,0135*6F
$PYRTM,2024,123.416741830127,14.526389240266
$GNHDT,303.147,T*29
$PYRTM,2024,123.416747672234,14.526395082373
$GNGGA,100007.00,3413.42492804,N,12029.39375897,W,2,11,0.9,6.046,M,-37.158,M,6.0,0135*67
$PYRTM,2024,123.416747672234,14.526395082373
$GNHDT,303.076,T*2A
$PYRTM,2024,123.416753410648,14.526400820787
$GNGGA,100007.50,3413.42515737,N,12029.39442438,W,2,11,0.9,6.653,M,-37.158,M,6.4,0135*6F
$PYRTM,2024,123.416753410648,14.526400820787
$GNHDT,302.947,T*20
$PYRTM,2024,123.416759249988,14.526406660127
$GNGGA,100008.00,3413.42536086,N,12029.39509598,W,2,11,0.9,7.448,M,-37.158,M,7.0,0135*60
$PYRTM,2024,123.416759249988,14.526406660127
$GNHDT,303.076,T*2A
$PYRTM,2024,123.416764977743,14.526412387894
$GNGGA,100008.50,3413.42556487,N,12029.39580131,W,2,11,0.9,8.249,M,-37.158,M,7.4,0135*6C
$PYRTM,2024,123.416764977743,14.526412387894
$GNHDT,302.577,T*2F
$PYRTM,2024,123.416770821782,14.526418231933
$GNGGA,100009.00,3413.42579613,N,12029.39658913,W,2,11,0.9,8.803,M,-37.158,M,7.0,0135*64
$PYRTM,2024,123.416770821782,14.526418231933
$GNHDT,302.435,T*28
$PYRTM,2024,123.416776553252,14.526423963391
$GNGGA,100009.50,3413.42604133,N,12029.39746384,W,2,11,0.9,8.953,M,-37.158,M,7.4,0135*67
$PYRTM,2024,123.416776553252,14.526423963391
$GNHDT,301.814,T*24
$PYRTM,2024,123.416782398947,14.526429809097
$GNGGA,100010.00,3413.42631038,N,12029.39827057,W,2,11,0.9,8.848,M,-37.158,M,7.0,0135*6C
$PYRTM,2024,123.416782398947,14.526429809097
$GNHDT,302.032,T*2B
$PYRTM,2024,123.416788126701,14.526435536852
$GNGGA,100010.50,3413.42655198,N,12029.39895024,W,2,11,0.9,8.651,M,-37.158,M,7.4,0135*6F
$PYRTM,2024,123.416788126701,14.526435536852
$GNHDT,302.723,T*2C
$PYRTM,2024,123.416793965880,14.526441376019
$GNGGA,100011.00,3413.42676884,N,12029.39949189,W,2,11,0.9,8.545,M,-37.158,M,4.0,0135*69
$PYRTM,2024,123.416793965880,14.526441376019
$GNHDT,302.976,T*22
$PYRTM,2024,123.416799703044,14.526447113183
$GNGGA,100011.50,3413.42694794,N,12029.39993395,W,2,11,0.9,8.578,M,-37.158,M,4.4,0135*6C
$PYRTM,2024,123.416799703044,14.526447113183
$GNHDT,302.993,T*29
$PYRTM,2024,123.416805540579,14.526452950718
$GNGGA,100012.00,3413.42709562,N,12029.40036880,W,2,11,0.9,8.656,M,-37.158,M,5.0,0135*69
$PYRTM,2024,123.416805540579,14.526452950718
$GNHDT,302.828,T*28
$PYRTM,2024,123.416811277269,14.526458687407
$GNGGA,100012.50,3413.42724002,N,12029.40091780,W,2,11,0.9,8.589,M,-37.158,M,5.4,0135*67
$PYRTM,2024,123.416811277269,14.526458687407
$GNHDT,302.541,T*2A
$PYRTM,2024,123.416817116551,14.526464526690
$GNGGA,100013.00,3413.42739055,N,12029.40163252,W,2,11,0.9,8.198,M,-37.158,M,6.0,0135*68
$PYRTM,2024,123.416817116551,14.526464526690
$GNHDT,302.383,T*22
$PYRTM,2024,123.416822851597,14.526470261736
$GNGGA,100013.50,3413.42756237,N,12029.40247178,W,2,11,0.9,7.556,M,-37.158,M,6.4,0135*61
$PYRTM,2024,123.416822851597,14.526470261736
$GNHDT,301.964,T*22
$PYRTM,2024,123.416828692870,14.526476103009
$GNGGA,100014.00,3413.42776374,N,12029.40332818,W,2,11,0.9,6.839,M,-37.158,M,7.0,0135*6B
$PYRTM,2024,123.416828692870,14.526476103009
$GNHDT,302.070,T*2D
$PYRTM,2024,123.416834424410,14.526481834549
$GNGGA,100014.50,3413.42800148,N,12029.40408548,W,2,11,0.9,6.356,M,-37.158,M,7.4,0135*6D
$PYRTM,2024,123.416834424410,14.526481834549
$GNHDT,302.496,T*21
$PYRTM,2024,123.416840271377,14.526487681516
$GNGGA,100015.00,3413.42825544,N,12029.40470527,W,2,11,0.9,6.320,M,-37.158,M,7.0,0135*65
$PYRTM,2024,123.416840271377,14.526487681516
$GNHDT,302.878,T*2D
$PYRTM,2024,123.416846003218,14.526493413356
$GNGGA,100015.50,3413.42850339,N,12029.40525442,W,2,11,0.9,6.678,M,-37.158,M,7.4,0135*61
$PYRTM,2024,123.416846003218,14.526493413356
$GNHDT,302.888,T*22
$PYRTM,2024,123.416851847558,14.526499257697
$GNGGA,100016.00,3413.42873510,N,12029.40583937,W,2,11,0.9,7.306,M,-37.158,M,7.0,0135*61
$PYRTM,2024,123.416851847558,14.526499257697
$GNHDT,302.925,T*24
$PYRTM,2024,123.416857572442,14.526504982581
$GNGGA,100016.50,3413.42897431,N,12029.40651448,W,2,11,0.9,7.896,M,-37.158,M,7.4,0135*63
$PYRTM,2024,123.416857572442,14.526504982581
$GNHDT,302.363,T*2C
$PYRTM,2024,123.416863420949,14.526510831088
$GNGGA,100017.00,3413.42923857,N,12029.40728161,W,2,11,0.9,8.319,M,-37.158,M,4.0,0135*60
$PYRTM,2024,123.416863420949,14.526510831088
$GNHDT,302.246,T*2A
$PYRTM,2024,123.416869149051,14.526516559190
$GNGGA,100017.50,3413.42947651,N,12029.40808501,W,2,11,0.9,8.599,M,-37.158,M,4.4,0135*6A
$PYRTM,2024,123.416869149051,14.526516559190
$GNHDT,302.035,T*2C
$PYRTM,2024,123.416874993947,14.526522404086
$GNGGA,100018.00,3413.42965344,N,12029.40888650,W,2,11,0.9,8.765,M,-37.158,M,5.0,0135*6A
$PYRTM,2024,123.416874993947,14.526522404086
$GNHDT,301.998,T*21
$PYRTM,2024,123.416880722176,14.526528132315
$GNGGA,100018.50,3413.42977776,N,12029.40963096,W,2,11,0.9,8.877,M,-37.158,M,5.4,0135*69
$PYRTM,2024,123.416880722176,14.526528132315
$GNHDT,302.044,T*2A
$PYRTM,2024,123.416886567917,14.526533978056
$GNGGA,100019.00,3413.42989810,N,12029.41028525,W,2,11,0.9,8.947,M,-37.158,M,6.0,0135*6C
$PYRTM,2024,123.416886567917,14.526533978056
$GNHDT,301.874,T*22
$PYRTM,2024,123.416892298565,14.526539708715
$GNGGA,100019.50,3413.43008520,N,12029.41086480,W,2,11,0.9,8.928,M,-37.158,M,6.4,0135*61
$PYRTM,2024,123.416892298565,14.526539708715
$GNHDT,302.212,T*2B
$PYRTM,2024,123.416898139236,14.526545549375
$GNGGA,100020.00,3413.43034598,N,12029.41142380,W,2,11,0.9,8.767,M,-37.158,M,7.0,0135*6C
$PYRTM,2024,123.416898139236,14.526545549375
$GNHDT,302.332,T*28
$PYRTM,2024,123.416903867685,14.526551277824
$GNGGA,100020.50,3413.43064548,N,12029.41202620,W,2,11,0.9,8.469,M,-37.158,M,7.4,0135*60
$PYRTM,2024,123.416903867685,14.526551277824
$GNHDT,302.000,T*2A
$PYRTM,2024,123.416909710451,14.526557120590
$GNGGA,100021.00,3413.43093977,N,12029.41271218,W,2,11,0.9,8.060,M,-37.158,M,7.0,0135*6E
$PYRTM,2024,123.416909710451,14.526557120590
$GNHDT,301.708,T*26
$PYRTM,2024,123.416915450949,14.526562861100
$GNGGA,100021.50,3413.43120541,N,12029.41346743,W,2,11,0.9,7.645,M,-37.158,M,7.4,0135*6F
$PYRTM,2024,123.416915450949,14.526562861100
$GNHDT,301.764,T*2C
$PYRTM,2024,123.416921287269,14.526568697407
$GNGGA,100022.00,3413.43142862,N,12029.41426733,W,2,11,0.9,7.326,M,-37.158,M,7.0,0135*63
$PYRTM,2024,123.416921287269,14.526568697407
$GNHDT,301.786,T*20
$PYRTM,2024,123.416927018275,14.526574428414
$GNGGA,100022.50,3413.43161603,N,12029.41505131,W,2,11,0.9,7.209,M,-37.158,M,7.4,0135*62
$PYRTM,2024,123.416927018275,14.526574428414
$GNHDT,301.743,T*29
$PYRTM,2024,123.416932861690,14.526580271829
$GNGGA,100023.00,3413.43178993,N,12029.41576847,W,2,11,0.9,7.352,M,-37.158,M,4.0,0135*6C
$PYRTM,2024,123.416932861690,14.526580271829
$GNHDT,302.056,T*29
$PYRTM,2024,123.416938595185,14.526586005324
$GNGGA,100023.50,3413.43197948,N,12029.41642184,W,2,11,0.9,7.676,M,-37.158,M,4.4,0135*6B
$PYRTM,2024,123.416938595185,14.526586005324
$GNHDT,301.949,T*2D
$PYRTM,2024,123.416944436424,14.526591846563
$GNGGA,100024.00,3413.43218726,N,12029.41702687,W,2,11,0.9,8.108,M,-37.158,M,5.0,0135*6E
$PYRTM,2024,123.416944436424,14.526591846563
$GNHDT,302.085,T*27
$PYRTM,2024,123.416950170671,14.526597580810
$GNGGA,100024.50,3413.43243331,N,12029.41765378,W,2,11,0.9,8.488,M,-37.158,M,5.4,0135*6A
$PYRTM,2024,123.416950170671,14.526597580810
$GNHDT,301.822,T*21
$PYRTM,2024,123.416956009850,14.526603419988
$GNGGA,100025.00,3413.43269895,N,12029.41836849,W,2,11,0.9,8.676,M,-37.158,M,6.0,0135*67
$PYRTM,2024,123.416956009850,14.526603419988
$GNHDT,301.638,T*24
$PYRTM,2024,123.416961742650,14.526609152789
$GNGGA,100025.50,3413.43296413,N,12029.41913908,W,2,11,0.9,8.655,M,-37.159,M,6.4,0135*66
$PYRTM,2024,123.416961742650,14.526609152789
$GNHDT,301.206,T*2D
$PYRTM,2024,123.416967588229,14.526614998368
$GNGGA,100026.00,3413.43318359,N,12029.41992233,W,2,11,0.9,8.476,M,-37.159,M,7.0,0135*62
$PYRTM,2024,123.416967588229,14.526614998368
$GNHDT,300.847,T*23
$PYRTM,2024,123.416973314884,14.526620725023
$GNGGA,100026.50,3413.43335905,N,12029.42072031,W,2,11,0.9,8.205,M,-37.159,M,7.4,0135*69
$PYRTM,2024,123.416973314884,14.526620725023
$GNHDT,301.125,T*2F
$PYRTM,2024,123.416979158160,14.526626568299
$GNGGA,100027.00,3413.43349791,N,12029.42153672,W,2,11,0.9,7.893,M,-37.159,M,7.0,0135*68
$PYRTM,2024,123.416979158160,14.526626568299
$GNHDT,300.998,T*20
$PYRTM,2024,123.416984890324,14.526632300463
$GNGGA,100027.50,3413.43365210,N,12029.42235272,W,2,11,0.9,7.564,M,-37.159,M,7.4,0135*69
$PYRTM,2024,123.416984890324,14.526632300463
$GNHDT,301.325,T*2D
$PYRTM,2024,123.416990731204,14.526638141343
$GNGGA,100028.00,3413.43387700,N,12029.42312092,W,2,11,0.9,7.312,M,-37.159,M,7.0,0135*60
$PYRTM,2024,123.416990731204,14.526638141343
$GNHDT,301.594,T*21
$PYRTM,2024,123.416996461586,14.526643871725
$GNGGA,100028.50,3413.43416537,N,12029.42375559,W,2,11,0.9,7.323,M,-37.159,M,7.4,0135*69
$PYRTM,2024,123.416996461586,14.526643871725
$GNHDT,302.190,T*22
$PYRTM,2024,123.417002306076,14.526649716215
$GNGGA,100029.00,3413.43445507,N,12029.42427177,W,2,11,0.9,7.667,M,-37.159,M,4.0,0135*62
$PYRTM,2024,123.417002306076,14.526649716215
$GNHDT,302.173,T*2F
$PYRTM,2024,123.417008036678,14.526655446817
$GNGGA,100029.50,3413.43469397,N,12029.42476610,W,2,11,0.9,8.245,M,-37.159,M,4.4,0135*6B
$PYRTM,2024,123.417008036678,14.526655446817
$GNHDT,302.373,T*2D
$PYRTM,2024,123.417013881100,14.526661291238
$GNGGA,100030.00,3413.43487679,N,12029.42530674,W,2,11,0.9,8.931,M,-37.159,M,5.0,0135*6F
$PYRTM,2024,123.417013881100,14.526661291238
$GNHDT,302.052,T*2D
$PYRTM,2024,123.417019610799,14.526667020938
$GNGGA,100030.50,3413.43504833,N,12029.42598879,W,2,11,0.9,9.388,M,-37.159,M,5.4,0135*6C
$PYRTM,2024,123.417019610799,14.526667020938
$GNHDT,301.484,T*21
$PYRTM,2024,123.417025454421,14.526672864560
$GNGGA,100031.00,3413.43524538,N,12029.42685040,W,2,11,0.9,9.293,M,-37.159,M,6.0,0135*6D
$PYRTM,2024,123.417025454421,14.526672864560
$GNHDT,301.162,T*2C
$PYRTM,2024,123.417031193171,14.526678603322
$GNGGA,100031.50,3413.43548120,N,12029.42777337,W,2,11,0.9,8.746,M,-37.159,M,6.4,0135*68
$PYRTM,2024,123.417031193171,14.526678603322
$GNHDT,301.434,T*2A
$PYRTM,2024,123.417037035243,14.526684445382
$GNGGA,100032.00,3413.43572362,N,12029.42867073,W,2,11,0.9,7.906,M,-37.159,M,7.0,0135*6E
$PYRTM,2024,123.417037035243,14.526684445382
$GNHDT,301.528,T*26
$PYRTM,2024,123.417042761088,14.526690171227
$GNGGA,100032.50,3413.43595977,N,12029.42947007,W,2,11,0.9,7.208,M,-37.159,M,7.4,0135*6D
$PYRTM,2024,123.417042761088,14.526690171227
$GNHDT,301.217,T*2D
$PYRTM,2024,123.417048597859,14.526696007998
$GNGGA,100033.00,3413.43617065,N,12029.43014136,W,2,11,0.9,6.923,M,-37.159,M,7.0,0135*60
$PYRTM,2024,123.417048597859,14.526696007998
$GNHDT,301.239,T*21
$PYRTM,2024,123.417054336377,14.526701746516
$GNGGA,100033.50,3413.43635388,N,12029.43068970,W,2,11,0.9,7.134,M,-37.159,M,7.4,0135*6F
$PYRTM,2024,123.417054336377,14.526701746516
$GNHDT,300.961,T*26
$PYRTM,2024,123.417060180359,14.526707590498
$GNGGA,100034.00,3413.43651763,N,12029.43113483,W,2,11,0.9,7.753,M,-37.159,M,7.0,0135*61
$PYRTM,2024,123.417060180359,14.526707590498
$GNHDT,300.838,T*2B
$PYRTM,2024,123.417065912269,14.526713322407
$GNGGA,100034.50,3413.43666153,N,12029.43155668,W,2,11,0.9,8.541,M,-37.159,M,7.4,0135*6A
$PYRTM,2024,123.417065912269,14.526713322407
$GNHDT,300.577,T*2D
$PYRTM,2024,123.417071748472,14.526719158611
$GNGGA,100035.00,3413.43679291,N,12029.43204919,W,2,11,0.9,9.278,M,-37.159,M,4.0,0135*68
$PYRTM,2024,123.417071748472,14.526719158611
$GNHDT,300.924,T*27
$PYRTM,2024,123.417077482824,14.526724892963
$GNGGA,100035.50,3413.43691925,N,12029.43273335,W,2,11,0.9,9.675,M,-37.159,M,4.4,0135*66
$PYRTM,2024,123.417077482824,14.526724892963
$GNHDT,300.780,T*27
$PYRTM,2024,123.417083321481,14.526730731620
$GNGGA,100036.00,3413.43706175,N,12029.43358843,W,2,11,0.9,9.445,M,-37.159,M,5.0,0135*64
$PYRTM,2024,123.417083321481,14.526730731620
$GNHDT,300.766,T*2F
$PYRTM,2024,123.417089071944,14.526736482083
$GNGGA,100036.50,3413.43723302,N,12029.43453177,W,2,11,0.9,8.660,M,-37.159,M,5.4,0135*66
$PYRTM,2024,123.417089071944,14.526736482083
$GNHDT,300.868,T*2E
$PYRTM,2024,123.417094907778,14.526742317928
$GNGGA,100037.00,3413.43743417,N,12029.43541057,W,2,11,0.9,7.584,M,-37.159,M,6.0,0135*67
$PYRTM,2024,123.417094907778,14.526742317928
$GNHDT,300.427,T*29
$PYRTM,2024,123.417100635093,14.526748045231
$GNGGA,100037.50,3413.43762669,N,12029.43608400,W,2,11,0.9,6.838,M,-37.159,M,6.4,0135*6D
$PYRTM,2024,123.417100635093,14.526748045231
$GNHDT,301.602,T*2D
$PYRTM,2024,123.417106478484,14.526753888623
$GNGGA,100038.00,3413.43778064,N,12029.43654747,W,2,11,0.9,6.733,M,-37.159,M,7.0,0135*6F
$PYRTM,2024,123.417106478484,14.526753888623
$GNHDT,302.103,T*28
$PYRTM,2024,123.417112211481,14.526759621620
$GNGGA,100038.50,3413.43790010,N,12029.43681157,W,2,11,0.9,7.226,M,-37.159,M,7.4,0135*64
$PYRTM,2024,123.417112211481,14.526759621620
$GNHDT,302.457,T*2C
$PYRTM,2024,123.417118051910,14.526765462049
$GNGGA,100039.00,3413.43800335,N,12029.43699758,W,2,11,0.9,8.097,M,-37.159,M,7.0,0135*61
$PYRTM,2024,123.417118051910,14.526765462049
$GNHDT,302.699,T*2C
$PYRTM,2024,123.417123782072,14.526771192211
$GNGGA,100039.50,3413.43814033,N,12029.43726166,W,2,11,0.9,8.983,M,-37.159,M,7.4,0135*62
$PYRTM,2024,123.417123782072,14.526771192211
$GNHDT,302.904,T*27
$PYRTM,2024,123.417129620301,14.526777030440
$GNGGA,100040.00,3413.43832240,N,12029.43773161,W,2,11,0.9,9.555,M,-37.159,M,7.0,0135*6E
$PYRTM,2024,123.417129620301,14.526777030440
$GNHDT,302.184,T*27
$PYRTM,2024,123.417135354039,14.526782764178
$GNGGA,100040.50,3413.43852301,N,12029.43839642,W,2,11,0.9,9.655,M,-37.159,M,7.4,0135*69
$PYRTM,2024,123.417135354039,14.526782764178
$GNHDT,302.796,T*22
$PYRTM,2024,123.417141198079,14.526788608218
$GNGGA,100041.00,3413.43869315,N,12029.43917110,W,2,11,0.9,9.278,M,-37.159,M,4.0,0135*61
$PYRTM,2024,123.417141198079,14.526788608218
$GNHDT,302.626,T*28
$PYRTM,2024,123.417146931470,14.526794341609
$GNGGA,100041.50,3413.43880197,N,12029.43993894,W,2,11,0.9,8.635,M,-37.159,M,4.4,0135*6A
$PYRTM,2024,123.417146931470,14.526794341609
$GNHDT,303.116,T*2D
$PYRTM,2024,123.417152767951,14.526800178090
$GNGGA,100042.00,3413.43885301,N,12029.44062364,W,2,11,0.9,7.950,M,-37.159,M,5.0,0135*66
$PYRTM,2024,123.417152767951,14.526800178090
$GNHDT,302.881,T*2B
$PYRTM,2024,123.417158501273,14.526805911412
$GNGGA,100042.50,3413.43887983,N,12029.44118562,W,2,11,0.9,7.534,M,-37.159,M,5.4,0135*67
$PYRTM,2024,123.417158501273,14.526805911412
$GNHDT,303.230,T*2A
$PYRTM,2024,123.417164340845,14.526811750984
$GNGGA,100043.00,3413.43892990,N,12029.44166598,W,2,11,0.9,7.386,M,-37.159,M,6.0,0135*61
$PYRTM,2024,123.417164340845,14.526811750984
$GNHDT,303.428,T*25
$PYRTM,2024,123.417170084699,14.526817494838
$GNGGA,100043.50,3413.43904942,N,12029.44209110,W,2,11,0.9,7.493,M,-37.159,M,6.4,0135*6C
$PYRTM,2024,123.417170084699,14.526817494838
$GNHDT,303.466,T*2F
$PYRTM,2024,123.417175916157,14.526823326296
$GNGGA,100044.00,3413.43927025,N,12029.44250553,W,2,11,0.9,7.673,M,-37.159,M,7.0,0135*61
$PYRTM,2024,123.417175916157,14.526823326296
$GNHDT,303.961,T*25
$PYRTM,2024,123.417181647813,14.526829057951
$GNGGA,100044.50,3413.43956154,N,12029.44296650,W,2,11,0.9,7.844,M,-37.159,M,7.4,0135*61
$PYRTM,2024,123.417181647813,14.526829057951
$GNHDT,304.432,T*29
$PYRTM,2024,123.417187488414,14.526834898565
$GNGGA,100045.00,3413.43986311,N,12029.44350153,W,2,11,0.9,8.025,M,-37.159,M,7.0,0135*60
$PYRTM,2024,123.417187488414,14.526834898565
$GNHDT,304.809,T*2D
$PYRTM,2024,123.417193230093,14.526840640231
$GNGGA,100045.50,3413.44012031,N,12029.44408520,W,2,11,0.9,8.225,M,-37.159,M,7.4,0135*6B
$PYRTM,2024,123.417193230093,14.526840640231
$GNHDT,304.584,T*25
$PYRTM,2024,123.417199066285,14.526846476424
$GNGGA,100046.00,3413.44031168,N,12029.44470717,W,2,11,0.9,8.468,M,-37.159,M,7.0,0135*63
$PYRTM,2024,123.417199066285,14.526846476424
$GNHDT,304.563,T*2C
$PYRTM,2024,123.417204796829,14.526852206979
$GNGGA,100046.50,3413.44045859,N,12029.44534329,W,2,11,0.9,8.651,M,-37.159,M,7.4,0135*6A
$PYRTM,2024,123.417204796829,14.526852206979
$GNHDT,304.161,T*2A
$PYRTM,2024,123.417210642674,14.526858052812
$GNGGA,100047.00,3413.44058212,N,12029.44600533,W,2,11,0.9,8.749,M,-37.159,M,4.0,0135*61
$PYRTM,2024,123.417210642674,14.526858052812
$GNHDT,304.133,T*2D
$PYRTM,2024,123.417216377859,14.526863787998
$GNGGA,100047.50,3413.44070505,N,12029.44669213,W,2,11,0.9,8.692,M,-37.159,M,4.4,0135*66
$PYRTM,2024,123.417216377859,14.526863787998
$GNHDT,304.037,T*28
$PYRTM,2024,123.417222215544,14.526869625683
$GNGGA,100048.00,3413.44083416,N,12029.44737598,W,2,11,0.9,8.567,M,-37.159,M,5.0,0135*61
$PYRTM,2024,123.417222215544,14.526869625683
$GNHDT,304.276,T*2F
$PYRTM,2024,123.417227947650,14.526875357801
$GNGGA,100048.50,3413.44097814,N,12029.44802937,W,2,11,0.9,8.446,M,-37.159,M,5.4,0135*69
$PYRTM,2024,123.417227947650,14.526875357801
$GNHDT,304.093,T*26
$PYRTM,2024,123.417233785208,14.526881195347
$GNGGA,100049.00,3413.44114718,N,12029.44861181,W,2,11,0.9,8.392,M,-37.159,M,6.0,0135*6D
$PYRTM,2024,123.417233785208,14.526881195347
$GNHDT,303.945,T*23
$PYRTM,2024,123.417239522315,14.526886932454
$GNGGA,100049.50,3413.44135447,N,12029.44912807,W,2,11,0.9,8.387,M,-37.159,M,6.4,0135*60
$PYRTM,2024,123.417239522315,14.526886932454
$GNHDT,303.644,T*2D
$PYRTM,2024,123.417245365185,14.526892775324
$GNGGA,100050.00,3413.44160190,N,12029.44960180,W,2,11,0.9,8.372,M,-37.159,M,7.0,0135*6E
$PYRTM,2024,123.417245365185,14.526892775324
$GNHDT,303.581,T*27
$PYRTM,2024,123.417251091644,14.526898501782
$GNGGA,100050.50,3413.44185798,N,12029.45009449,W,2,11,0.9,8.357,M,-37.159,M,7.4,0135*6A
$PYRTM,2024,123.417251091644,14.526898501782
$GNHDT,303.841,T*26
$PYRTM,2024,123.417256932396,14.526904342535
$GNGGA,100051.00,3413.44209047,N,12029.45063278,W,2,11,0.9,8.315,M,-37.159,M,7.0,0135*66
$PYRTM,2024,123.417256932396,14.526904342535
$GNHDT,303.778,T*23
$PYRTM,2024,123.417262667280,14.526910077419
$GNGGA,100051.50,3413.44228828,N,12029.45121807,W,2,11,0.9,8.306,M,-37.159,M,7.4,0135*62
$PYRTM,2024,123.417262667280,14.526910077419
$GNHDT,303.622,T*2D
$PYRTM,2024,123.417268511100,14.526915921227
$GNGGA,100052.00,3413.44245190,N,12029.45184337,W,2,11,0.9,8.316,M,-37.159,M,7.0,0135*67
$PYRTM,2024,123.417268511100,14.526915921227
$GNHDT,303.377,T*28
$PYRTM,2024,123.417274251123,14.526921661262
$GNGGA,100052.50,3413.44259234,N,12029.45250695,W,2,11,0.9,8.303,M,-37.159,M,7.4,0135*65
$PYRTM,2024,123.417274251123,14.526921661262
$GNHDT,303.595,T*22
$PYRTM,2024,123.417280081111,14.526927491250
$GNGGA,100053.00,3413.44273280,N,12029.45319974,W,2,11,0.9,8.242,M,-37.159,M,4.0,0135*69
$PYRTM,2024,123.417280081111,14.526927491250
$GNHDT,303.350,T*2D
$PYRTM,2024,123.417285817650,14.526933227789
$GNGGA,100053.50,3413.44288777,N,12029.45389707,W,2,11,0.9,8.103,M,-37.159,M,4.4,0135*64
$PYRTM,2024,123.417285817650,14.526933227789
$GNHDT,303.448,T*23
$PYRTM,2024,123.417291657639,14.526939067778
$GNGGA,100054.00,3413.44307561,N,12029.45459060,W,2,11,0.9,7.930,M,-37.159,M,5.0,0135*6B
$PYRTM,2024,123.417291657639,14.526939067778
$GNHDT,303.335,T*2E
$PYRTM,2024,123.417297387847,14.526944797986
$GNGGA,100054.50,3413.44331015,N,12029.45527073,W,2,11,0.9,7.777,M,-37.159,M,5.4,0135*6E
$PYRTM,2024,123.417297387847,14.526944797986
$GNHDT,303.045,T*2A
$PYRTM,2024,123.417303229225,14.526950639363
$GNGGA,100055.00,3413.44359821,N,12029.45590103,W,2,11,0.9,7.687,M,-37.159,M,6.0,0135*68
$PYRTM,2024,123.417303229225,14.526950639363
$GNHDT,303.100,T*2A
$PYRTM,2024,123.417308973600,14.526956383750
$GNGGA,100055.50,3413.44391943,N,12029.45648602,W,2,11,0.9,7.718,M,-37.159,M,6.4,0135*6F
$PYRTM,2024,123.417308973600,14.526956383750
$GNHDT,303.480,T*27
$PYRTM,2024,123.417314806111,14.526962216250
$GNGGA,100056.00,3413.44423875,N,12029.45703398,W,2,11,0.9,7.889,M,-37.159,M,7.0,0135*69
$PYRTM,2024,123.417314806111,14.526962216250
$GNHDT,303.552,T*29
$PYRTM,2024,123.417320539931,14.526967950069
$GNGGA,100056.50,3413.44452508,N,12029.45759571,W,2,11,0.9,8.198,M,-37.159,M,7.4,0135*61
$PYRTM,2024,123.417320539931,14.526967950069
$GNHDT,303.532,T*2F
$PYRTM,2024,123.417326384132,14.526973794271
$GNGGA,100057.00,3413.44477167,N,12029.45820125,W,2,11,0.9,8.524,M,-37.159,M,7.0,0135*6C
$PYRTM,2024,123.417326384132,14.526973794271
$GNHDT,303.348,T*24
$PYRTM,2024,123.417332114213,14.526979524352
$GNGGA,100057.50,3413.44497659,N,12029.45888825,W,2,11,0.9,8.798,M,-37.159,M,7.4,0135*67
$PYRTM,2024,123.417332114213,14.526979524352
$GNHDT,302.813,T*20
$PYRTM,2024,123.417337951528,14.526985361667
$GNGGA,100058.00,3413.44513010,N,12029.45966447,W,2,11,0.9,8.911,M,-37.159,M,7.0,0135*69
$PYRTM,2024,123.417337951528,14.526985361667
$GNHDT,302.740,T*29
$PYRTM,2024,123.417343692222,14.526991102361
$GNGGA,100058.50,3413.44524446,N,12029.46049599,W,2,11,0.9,8.847,M,-37.159,M,7.4,0135*6C
$PYRTM,2024,123.417343692222,14.526991102361
$GNHDT,302.810,T*23
$PYRTM,2024,123.417349534167,14.526996944306
$GNGGA,100059.00,3413.44533518,N,12029.46132681,W,2,11,0.9,8.593,M,-37.159,M,4.0,0135*60
$PYRTM,2024,123.417349534167,14.526996944306
$GNHDT,302.583,T*24
$PYRTM,2024,123.417355261771,14.527002671910
$GNGGA,100059.50,3413.44545119,N,12029.46206932,W,2,11,0.9,8.321,M,-37.159,M,4.4,0135*69
$PYRTM,2024,123.417355261771,14.527002671910
$GNHDT,302.827,T*27
$PYRTM,2024,123.417361105104,14.527008515243
$GNGGA,100100.00,3413.44562161,N,12029.46268809,W,2,11,0.9,8.072,M,-37.159,M,5.0,0135*6A
$PYRTM,2024,123.417361105104,14.527008515243
$GNHDT,303.195,T*26
$PYRTM,2024,123.417366837627,14.527014247778
$GNGGA,100100.50,3413.44587404,N,12029.46318887,W,2,11,0.9,7.881,M,-37.159,M,5.4,0135*6D
$PYRTM,2024,123.417366837627,14.527014247778
$GNHDT,303.527,T*2B
$PYRTM,2024,123.417372679745,14.527020089884
$GNGGA,100101.00,3413.44617788,N,12029.46361790,W,2,11,0.9,7.771,M,-37.159,M,6.0,0135*64
$PYRTM,2024,123.417372679745,14.527020089884
$GNHDT,303.652,T*2A
$PYRTM,2024,123.417378410312,14.527025820463
$GNGGA,100101.50,3413.44649178,N,12029.46413748,W,2,11,0.9,7.710,M,-37.159,M,6.4,0135*67
$PYRTM,2024,123.417378410312,14.527025820463
$GNHDT,303.333,T*28
$PYRTM,2024,123.417384251609,14.527031661748
$GNGGA,100102.00,3413.44679574,N,12029.46479197,W,2,11,0.9,7.574,M,-37.159,M,7.0,0135*67
$PYRTM,2024,123.417384251609,14.527031661748
$GNHDT,303.155,T*2A
$PYRTM,2024,123.417389985035,14.527037395174
$GNGGA,100102.50,3413.44709216,N,12029.46557097,W,2,11,0.9,7.350,M,-37.159,M,7.4,0135*6F
$PYRTM,2024,123.417389985035,14.527037395174
$GNHDT,303.468,T*21
$PYRTM,2024,123.417395832407,14.527043242546
$GNGGA,100103.00,3413.44736790,N,12029.46643760,W,2,11,0.9,7.054,M,-37.159,M,7.0,0135*66
$PYRTM,2024,123.417395832407,14.527043242546
$GNHDT,303.495,T*23
$PYRTM,2024,123.417401563009,14.527048973148
$GNGGA,100103.50,3413.44758228,N,12029.46728229,W,2,11,0.9,6.968,M,-37.159,M,7.4,0135*6A
$PYRTM,2024,123.417401563009,14.527048973148
$GNHDT,303.528,T*24
$PYRTM,2024,123.417407399792,14.527054809931
$GNGGA,100104.00,3413.44772935,N,12029.46799438,W,2,11,0.9,7.264,M,-37.159,M,7.0,0135*69
$PYRTM,2024,123.417407399792,14.527054809931
$GNHDT,303.543,T*29
$PYRTM,2024,123.417413135486,14.527060545625
$GNGGA,100104.50,3413.44785676,N,12029.46856457,W,2,11,0.9,7.882,M,-37.159,M,7.4,0135*6F
$PYRTM,2024,123.417413135486,14.527060545625
$GNHDT,303.688,T*2D
$PYRTM,2024,123.417418981956,14.527066392095
$GNGGA,100105.00,3413.44799074,N,12029.46905724,W,2,11,0.9,8.642,M,-37.159,M,4.0,0135*68
$PYRTM,2024,123.417418981956,14.527066392095
$GNHDT,303.586,T*20
$PYRTM,2024,123.417424710660,14.527072120799
$GNGGA,100105.50,3413.44817505,N,12029.46955233,W,2,11,0.9,9.340,M,-37.159,M,4.4,0135*63
$PYRTM,2024,123.417424710660,14.527072120799
$GNHDT,303.797,T*22
$PYRTM,2024,123.417430546019,14.527077956157
$GNGGA,100106.00,3413.44844179,N,12029.47016086,W,2,11,0.9,9.628,M,-37.159,M,5.0,0135*61
$PYRTM,2024,123.417430546019,14.527077956157
$GNHDT,303.553,T*28
$PYRTM,2024,123.417436280590,14.527083690729
$GNGGA,100106.50,3413.44875795,N,12029.47087108,W,2,11,0.9,9.435,M,-37.159,M,5.4,0135*67
$PYRTM,2024,123.417436280590,14.527083690729
$GNHDT,303.391,T*20
$PYRTM,2024,123.417442125336,14.527089535475
$GNGGA,100107.00,3413.44904798,N,12029.47162926,W,2,11,0.9,8.849,M,-37.159,M,6.0,0135*66
$PYRTM,2024,123.417442125336,14.527089535475
$GNHDT,303.561,T*29
$PYRTM,2024,123.417447854282,14.527095264421
$GNGGA,100107.50,3413.44925416,N,12029.47237891,W,2,11,0.9,8.220,M,-37.159,M,6.4,0135*6A
$PYRTM,2024,123.417447854282,14.527095264421
$GNHDT,303.190,T*23
$PYRTM,2024,123.417453694641,14.527101104780
$GNGGA,100108.00,3413.44938475,N,12029.47309661,W,2,11,0.9,7.744,M,-37.159,M,7.0,0135*69
$PYRTM,2024,123.417453694641,14.527101104780
$GNHDT,302.997,T*2D
$PYRTM,2024,123.417459431806,14.527106841944
$GNGGA,100108.50,3413.44947341,N,12029.47376173,W,2,11,0.9,7.520,M,-37.159,M,7.4,0135*6C
$PYRTM,2024,123.417459431806,14.527106841944
$GNHDT,302.760,T*2B
$PYRTM,2024,123.417465269884,14.527112680023
$GNGGA,100109.00,3413.44957348,N,12029.47439623,W,2,11,0.9,7.499,M,-37.159,M,7.0,0135*69
$PYRTM,2024,123.417465269884,14.527112680023
$GNHDT,302.729,T*26
$PYRTM,2024,123.417471005370,14.527118415509
$GNGGA,100109.50,3413.44973629,N,12029.47503869,W,2,11,0.9,7.495,M,-37.159,M,7.4,0135*68
$PYRTM,2024,123.417471005370,14.527118415509
$GNHDT,302.655,T*2C
$PYRTM,2024,123.417476842222,14.527124252361
$GNGGA,100110.00,3413.45000409,N,12029.47571722,W,2,11,0.9,7.377,M,-37.159,M,7.0,0135*63
$PYRTM,2024,123.417476842222,14.527124252361
$GNHDT,302.977,T*23
$PYRTM,2024,123.417482577778,14.527129987917
$GNGGA,100110.50,3413.45035686,N,12029.47641841,W,2,11,0.9,7.126,M,-37.159,M,7.4,0135*6D
$PYRTM,2024,123.417482577778,14.527129987917
$GNHDT,303.533,T*2E
$PYRTM,2024,123.417488418773,14.527135828912
$GNGGA,100111.00,3413.45076991,N,12029.47712426,W,2,11,0.9,6.823,M,-37.160,M,4.0,0135*6D
$PYRTM,2024,123.417488418773,14.527135828912
$GNHDT,303.880,T*2B
$PYRTM,2024,123.417494150625,14.527141560764
$GNGGA,100111.50,3413.45116957,N,12029.47781424,W,2,11,0.9,6.603,M,-37.160,M,4.4,0135*65
$PYRTM,2024,123.417494150625,14.527141560764
$GNHDT,303.859,T*2F
$PYRTM,2024,123.417499991481,14.527147401620
$GNGGA,100112.00,3413.45147389,N,12029.47850374,W,2,11,0.9,6.663,M,-37.160,M,5.0,0135*6C
$PYRTM,2024,123.417499991481,14.527147401620
$GNHDT,303.286,T*27
$PYRTM,2024,123.417505728137,14.527153138275
$GNGGA,100112.50,3413.45165577,N,12029.47919884,W,2,11,0.9,7.016,M,-37.160,M,5.4,0135*67
$PYRTM,2024,123.417505728137,14.527153138275
$GNHDT,302.819,T*2A
$PYRTM,2024,123.417511567928,14.527158978067
$GNGGA,100113.00,3413.45173974,N,12029.47990278,W,2,11,0.9,7.569,M,-37.160,M,6.0,0135*69
$PYRTM,2024,123.417511567928,14.527158978067
$GNHDT,302.770,T*2A
$PYRTM,2024,123.417517300382,14.527164710521
$GNGGA,100113.50,3413.45176575,N,12029.48061586,W,2,11,0.9,8.228,M,-37.160,M,6.4,0135*63
$PYRTM,2024,123.417517300382,14.527164710521
$GNHDT,302.744,T*2D
$PYRTM,2024,123.417523138773,14.527170548912
$GNGGA,100114.00,3413.45182570,N,12029.48130620,W,2,11,0.9,8.790,M,-37.160,M,7.0,0135*66
$PYRTM,2024,123.417523138773,14.527170548912
$GNHDT,302.880,T*2A
$PYRTM,2024,123.417528878495,14.527176288634
$GNGGA,100114.50,3413.45198997,N,12029.48189246,W,2,11,0.9,9.139,M,-37.160,M,7.4,0135*6B
$PYRTM,2024,123.417528878495,14.527176288634
$GNHDT,303.155,T*2A
$PYRTM,2024,123.417534718947,14.527182129086
$GNGGA,100115.00,3413.45224104,N,12029.48240291,W,2,11,0.9,9.198,M,-37.160,M,7.0,0135*6A
$PYRTM,2024,123.417534718947,14.527182129086
$GNHDT,303.419,T*27
$PYRTM,2024,123.417540449502,14.527187859641
$GNGGA,100115.50,3413.45252795,N,12029.48290926,W,2,11,0.9,8.997,M,-37.160,M,7.4,0135*68
$PYRTM,2024,123.417540449502,14.527187859641
$GNHDT,303.436,T*2A
$PYRTM,2024,123.417546290162,14.527193700301
$GNGGA,100116.00,3413.45280896,N,12029.48347080,W,2,11,0.9,8.567,M,-37.160,M,7.0,0135*64
$PYRTM,2024,123.417546290162,14.527193700301
$GNHDT,303.596,T*21
$PYRTM,2024,123.417552026308,14.527199436447
$GNGGA,100116.50,3413.45306214,N,12029.48412762,W,2,11,0.9,8.014,M,-37.160,M,7.4,0135*67
$PYRTM,2024,123.417552026308,14.527199436447
$GNHDT,303.652,T*2A
$PYRTM,2024,123.417557863796,14.527205273935
$GNGGA,100117.00,3413.45329825,N,12029.48487478,W,2,11,0.9,7.382,M,-37.160,M,4.0,0135*66
$PYRTM,2024,123.417557863796,14.527205273935
$GNHDT,303.651,T*29
$PYRTM,2024,123.417563597384,14.527211007523
$GNGGA,100117.50,3413.45352436,N,12029.48570861,W,2,11,0.9,6.778,M,-37.160,M,4.4,0135*68
$PYRTM,2024,123.417563597384,14.527211007523
$GNHDT,303.615,T*29
$PYRTM,2024,123.417569438935,14.527216849074
$GNGGA,100118.00,3413.45375341,N,12029.48661342,W,2,11,0.9,6.264,M,-37.160,M,5.0,0135*64
$PYRTM,2024,123.417569438935,14.527216849074
$GNHDT,303.185,T*27
$PYRTM,2024,123.417575172917,14.527222583056
$GNGGA,100118.50,3413.45399703,N,12029.48752641,W,2,11,0.9,5.958,M,-37.160,M,5.4,0135*65
$PYRTM,2024,123.417575172917,14.527222583056
$GNHDT,303.295,T*25
$PYRTM,2024,123.417581013634,14.527228423773
$GNGGA,100119.00,3413.45427199,N,12029.48835424,W,2,11,0.9,6.033,M,-37.160,M,6.0,0135*69
$PYRTM,2024,123.417581013634,14.527228423773
$GNHDT,304.063,T*29
$PYRTM,2024,123.417586750729,14.527234160868
$GNGGA,100119.50,3413.45453596,N,12029.48902610,W,2,11,0.9,6.596,M,-37.160,M,6.4,0135*6A
$PYRTM,2024,123.417586750729,14.527234160868
$GNHDT,304.401,T*29
$PYRTM,2024,123.417592592477,14.527240002616
$GNGGA,100120.00,3413.45480322,N,12029.48951881,W,2,11,0.9,7.462,M,-37.160,M,7.0,0135*6C
$PYRTM,2024,123.417592592477,14.527240002616
$GNHDT,304.303,T*2C
$PYRTM,2024,123.417598325359,14.527245735498
$GNGGA,100120.50,3413.45507091,N,12029.48989922,W,2,11,0.9,8.495,M,-37.160,M,7.4,0135*62
$PYRTM,2024,123.417598325359,14.527245735498
$GNHDT,303.880,T*2B
$PYRTM,2024,123.417604164699,14.527251574850
$GNGGA,100121.00,3413.45531797,N,12029.49029865,W,2,11,0.9,9.450,M,-37.160,M,7.0,0135*6E
$PYRTM,2024,123.417604164699,14.527251574850
$GNHDT,303.815,T*27
$PYRTM,2024,123.417609897627,14.527257307766
$GNGGA,100121.50,3413.45552273,N,12029.49080552,W,2,11,0.9,10.068,M,-37.160,M,7.4,0135*58
$PYRTM,2024,123.417609897627,14.527257307766
$GNHDT,303.115,T*2E
$PYRTM,2024,123.417615746655,14.527263156794
$GNGGA,100122.00,3413.45567568,N,12029.49145079,W,2,11,0.9,10.136,M,-37.160,M,7.0,0135*5F
$PYRTM,2024,123.417615746655,14.527263156794
$GNHDT,302.909,T*2A
$PYRTM,2024,123.417621467859,14.527268877998
$GNGGA,100122.50,3413.45578816,N,12029.49219839,W,2,11,0.9,9.585,M,-37.160,M,7.4,0135*66
$PYRTM,2024,123.417621467859,14.527268877998
$GNHDT,303.080,T*23
$PYRTM,2024,123.417627314560,14.527274724699
$GNGGA,100123.00,3413.45587477,N,12029.49298192,W,2,11,0.9,8.586,M,-37.160,M,4.0,0135*6D
$PYRTM,2024,123.417627314560,14.527274724699
$GNHDT,302.693,T*26
$PYRTM,2024,123.417633048345,14.527280458484
$GNGGA,100123.50,3413.45597043,N,12029.49370141,W,2,11,0.9,7.401,M,-37.160,M,4.4,0135*66
$PYRTM,2024,123.417633048345,14.527280458484
$GNHDT,303.063,T*2E
$PYRTM,2024,123.417638883287,14.527286293426
$GNGGA,100124.00,3413.45607286,N,12029.49430953,W,2,11,0.9,6.464,M,-37.160,M,5.0,0135*6A
$PYRTM,2024,123.417638883287,14.527286293426
$GNHDT,303.703,T*2F
$PYRTM,2024,123.417644619769,14.527292029907
$GNGGA,100124.50,3413.45621259,N,12029.49482746,W,2,11,0.9,5.995,M,-37.160,M,5.4,0135*6E
$PYRTM,2024,123.417644619769,14.527292029907
$GNHDT,303.842,T*25
$PYRTM,2024,123.417650462731,14.527297872870
$GNGGA,100125.00,3413.45646612,N,12029.49525442,W,2,11,0.9,5.913,M,-37.160,M,6.0,0135*62
$PYRTM,2024,123.417650462731,14.527297872870
$GNHDT,304.522,T*29
$PYRTM,2024,123.417656194549,14.527303604688
$GNGGA,100125.50,3413.45682459,N,12029.49568955,W,2,11,0.9,6.078,M,-37.160,M,6.4,0135*63
$PYRTM,2024,123.417656194549,14.527303604688
$GNHDT,304.771,T*2D
$PYRTM,2024,123.417662032454,14.527309442593
$GNGGA,100126.00,3413.45724003,N,12029.49623653,W,2,11,0.9,6.370,M,-37.160,M,7.0,0135*68
$PYRTM,2024,123.417662032454,14.527309442593
$GNHDT,304.731,T*29
$PYRTM,2024,123.417667768738,14.527315178877
$GNGGA,100126.50,3413.45763787,N,12029.49690450,W,2,11,0.9,6.819,M,-37.160,M,7.4,0135*6C
$PYRTM,2024,123.417667768738,14.527315178877
$GNHDT,304.545,T*28
$PYRTM,2024,123.417673603866,14.527321014005
$GNGGA,100127.00,3413.45795678,N,12029.49765051,W,2,11,0.9,7.391,M,-37.160,M,7.0,0135*60
$PYRTM,2024,123.417673603866,14.527321014005
$GNHDT,304.461,T*2F
$PYRTM,2024,123.417679339225,14.527326749363
$GNGGA,100127.50,3413.45818736,N,12029.49840054,W,2,11,0.9,8.025,M,-37.160,M,7.4,0135*6E
$PYRTM,2024,123.417679339225,14.527326749363
$GNHDT,304.602,T*28
$PYRTM,2024,123.417685182627,14.527332592766
$GNGGA,100128.00,3413.45833784,N,12029.49914397,W,2,11,0.9,8.558,M,-37.160,M,7.0,0135*63
$PYRTM,2024,123.417685182627,14.527332592766
$GNHDT,304.557,T*2B
$PYRTM,2024,123.417690919028,14.527338329167
$GNGGA,100128.50,3413.45846543,N,12029.49985694,W,2,11,0.9,8.914,M,-37.160,M,7.4,0135*63
$PYRTM,2024,123.417690919028,14.527338329167
$GNHDT,304.921,T*26
$PYRTM,2024,123.417696760579,14.527344170718
$GNGGA,100129.00,3413.45859806,N,12029.50055891,W,2,11,0.9,8.937,M,-37.160,M,4.0,0135*64
$PYRTM,2024,123.417696760579,14.527344170718
$GNHDT,305.001,T*2C
$PYRTM,2024,123.417702488113,14.527349898252
$GNGGA,100129.50,3413.45875499,N,12029.50122044,W,2,11,0.9,8.739,M,-37.160,M,4.4,0135*60
$PYRTM,2024,123.417702488113,14.527349898252
$GNHDT,304.740,T*2F
$PYRTM,2024,123.417708330475,14.527355740613
$GNGGA,100130.00,3413.45893316,N,12029.50186338,W,2,11,0.9,8.395,M,-37.160,M,5.0,0135*64
$PYRTM,2024,123.417708330475,14.527355740613
$GNHDT,304.656,T*29
$PYRTM,2024,123.417714064340,14.527361474479
$GNGGA,100130.50,3413.45913203,N,12029.50247315,W,2,11,0.9,8.022,M,-37.160,M,5.4,0135*67
$PYRTM,2024,123.417714064340,14.527361474479
$GNHDT,304.207,T*29
$PYRTM,2024,123.417719906852,14.527367317002
$GNGGA,100131.00,3413.45937328,N,12029.50303132,W,2,11,0.9,7.666,M,-37.160,M,6.0,0135*65
$PYRTM,2024,123.417719906852,14.527367317002
$GNHDT,304.386,T*21
$PYRTM,2024,123.417725637465,14.527373047604
$GNGGA,100131.50,3413.45965231,N,12029.50352509,W,2,11,0.9,7.407,M,-37.160,M,6.4,0135*67
$PYRTM,2024,123.417725637465,14.527373047604
$GNHDT,305.059,T*21
$PYRTM,2024,123.417731473102,14.527378883241
$GNGGA,100132.00,3413.45994780,N,12029.50400003,W,2,11,0.9,7.261,M,-37.160,M,7.0,0135*6C
$PYRTM,2024,123.417731473102,14.527378883241
$GNHDT,305.496,T*26
$PYRTM,2024,123.417737207604,14.527384617755
$GNGGA,100132.50,3413.46025081,N,12029.50449202,W,2,11,0.9,7.223,M,-37.160,M,7.4,0135*63
$PYRTM,2024,123.417737207604,14.527384617755
$GNHDT,305.938,T*2F
$PYRTM,2024,123.417743050741,14.527390460880
$GNGGA,100133.00,3413.46056379,N,12029.50506774,W,2,11,0.9,7.176,M,-37.160,M,7.0,0135*6E
$PYRTM,2024,123.417743050741,14.527390460880
$GNHDT,305.686,T*25
$PYRTM,2024,123.417748785301,14.527396195440
$GNGGA,100133.50,3413.46088944,N,12029.50577298,W,2,11,0.9,7.069,M,-37.160,M,7.4,0135*66
$PYRTM,2024,123.417748785301,14.527396195440
$GNHDT,305.882,T*2F
$PYRTM,2024,123.417754628414,14.527402038553
$GNGGA,100134.00,3413.46119447,N,12029.50659965,W,2,11,0.9,6.941,M,-37.160,M,7.0,0135*63
$PYRTM,2024,123.417754628414,14.527402038553
$GNHDT,305.629,T*20
$PYRTM,2024,123.417760361424,14.527407771562
$GNGGA,100134.50,3413.46142477,N,12029.50746418,W,2,11,0.9,6.951,M,-37.160,M,7.4,0135*66
$PYRTM,2024,123.417760361424,14.527407771562
$GNHDT,304.984,T*29
$PYRTM,2024,123.417766205417,14.527413615556
$GNGGA,100135.00,3413.46156754,N,12029.50829616,W,2,11,0.9,7.203,M,-37.160,M,4.0,0135*65
$PYRTM,2024,123.417766205417,14.527413615556
$GNHDT,304.688,T*2A
$PYRTM,2024,123.417771933681,14.527419343819
$GNGGA,100135.50,3413.46167207,N,12029.50903953,W,2,11,0.9,7.656,M,-37.160,M,4.4,0135*66
$PYRTM,2024,123.417771933681,14.527419343819
$GNHDT,304.684,T*26
$PYRTM,2024,123.417777774294,14.527425184433
$GNGGA,100136.00,3413.46181802,N,12029.50969224,W,2,11,0.9,8.162,M,-37.160,M,5.0,0135*6A
$PYRTM,2024,123.417777774294,14.527425184433
$GNHDT,304.047,T*2F
$PYRTM,2024,123.417783507407,14.527430917546
$GNGGA,100136.50,3413.46210589,N,12029.51030135,W,2,11,0.9,8.451,M,-37.160,M,5.4,0135*6C
$PYRTM,2024,123.417783507407,14.527430917546
$GNHDT,304.298,T*2F
$PYRTM,2024,123.417789349410,14.527436759549
$GNGGA,100137.00,3413.46254248,N,12029.51087471,W,2,11,0.9,8.404,M,-37.160,M,6.0,0135*6C
$PYRTM,2024,123.417789349410,14.527436759549
$GNHDT,304.512,T*2A
$PYRTM,2024,123.417795080035,14.527442490174
$GNGGA,100137.50,3413.46300666,N,12029.51141515,W,2,11,0.9,8.213,M,-37.160,M,6.4,0135*6D
$PYRTM,2024,123.417795080035,14.527442490174
$GNHDT,304.729,T*20
$PYRTM,2024,123.417800919896,14.527448330035
$GNGGA,100138.00,3413.46342609,N,12029.51192382,W,2,11,0.9,8.067,M,-37.160,M,7.0,0135*6A
$PYRTM,2024,123.417800919896,14.527448330035
$GNHDT,304.922,T*25
$PYRTM,2024,123.417806651875,14.527454062014
$GNGGA,100138.50,3413.46372192,N,12029.51244695,W,2,11,0.9,8.095,M,-37.160,M,7.4,0135*6B
$PYRTM,2024,123.417806651875,14.527454062014
$GNHDT,304.296,T*21
$PYRTM,2024,123.417812494433,14.527459904572
$GNGGA,100139.00,3413.46388761,N,12029.51305288,W,2,11,0.9,8.269,M,-37.160,M,7.0,0135*69
$PYRTM,2024,123.417812494433,14.527459904572
$GNHDT,304.148,T*21
$PYRTM,2024,123.417818230301,14.527465640440
$GNGGA,100139.50,3413.46395363,N,12029.51378107,W,2,11,0.9,8.440,M,-37.160,M,7.4,0135*61
$PYRTM,2024,123.417818230301,14.527465640440
$GNHDT,303.507,T*29
$PYRTM,2024,123.417824069352,14.527471479491
$GNGGA,100140.00,3413.46397674,N,12029.51464037,W,2,11,0.9,8.414,M,-37.160,M,7.0,0135*66
$PYRTM,2024,123.417824069352,14.527471479491
$GNHDT,303.146,T*28
$PYRTM,2024,123.417829803044,14.527477213194
$GNGGA,100140.50,3413.46402192,N,12029.51551672,W,2,11,0.9,8.179,M,-37.160,M,7.4,0135*6D
$PYRTM,2024,123.417829803044,14.527477213194
$GNHDT,303.367,T*29
$PYRTM,2024,123.417835642731,14.527483052870
$GNGGA,100141.00,3413.46413613,N,12029.51633042,W,2,11,0.9,7.827,M,-37.160,M,4.0,0135*6F
$PYRTM,2024,123.417835642731,14.527483052870
$GNHDT,303.594,T*23
$PYRTM,2024,123.417841377384,14.527488787535
$GNGGA,100141.50,3413.46439168,N,12029.51703814,W,2,11,0.9,7.375,M,-37.160,M,4.4,0135*68
$PYRTM,2024,123.417841377384,14.527488787535
$GNHDT,303.413,T*2D
$PYRTM,2024,123.417847226632,14.527494636771
$GNGGA,100142.00,3413.46477655,N,12029.51766317,W,2,11,0.9,6.911,M,-37.160,M,5.0,0135*6A
$PYRTM,2024,123.417847226632,14.527494636771
$GNHDT,303.621,T*2E
$PYRTM,2024,123.417852950185,14.527500360324
$GNGGA,100142.50,3413.46524315,N,12029.51826247,W,2,11,0.9,6.484,M,-37.160,M,5.4,0135*63
$PYRTM,2024,123.417852950185,14.527500360324
$GNHDT,303.434,T*28
$PYRTM,2024,123.417858790556,14.527506200706
$GNGGA,100143.00,3413.46565973,N,12029.51889964,W,2,11,0.9,6.372,M,-37.160,M,6.0,0135*6E
$PYRTM,2024,123.417858790556,14.527506200706
$GNHDT,303.328,T*22
$PYRTM,2024,123.417864524942,14.527511935081
$GNGGA,100143.50,3413.46593602,N,12029.51960701,W,2,11,0.9,6.635,M,-37.160,M,6.4,0135*62
$PYRTM,2024,123.417864524942,14.527511935081
$GNHDT,302.873,T*26
$PYRTM,2024,123.417870366748,14.527517776887
$GNGGA,100144.00,3413.46608692,N,12029.52034396,W,2,11,0.9,7.228,M,-37.160,M,7.0,0135*65
$PYRTM,2024,123.417870366748,14.527517776887
$GNHDT,302.452,T*29
$PYRTM,2024,123.417876098958,14.527523509097
$GNGGA,100144.50,3413.46617987,N,12029.52108251,W,2,11,0.9,7.965,M,-37.160,M,7.4,0135*67
$PYRTM,2024,123.417876098958,14.527523509097
$GNHDT,302.200,T*28
$PYRTM,2024,123.417881947350,14.527529357488
$GNGGA,100145.00,3413.46625958,N,12029.52179916,W,2,11,0.9,8.683,M,-37.160,M,7.0,0135*62
$PYRTM,2024,123.417881947350,14.527529357488
$GNHDT,302.349,T*24
$PYRTM,2024,123.417887679630,14.527535089780
$GNGGA,100145.50,3413.46635995,N,12029.52248004,W,2,11,0.9,9.221,M,-37.160,M,7.4,0135*65
$PYRTM,2024,123.417887679630,14.527535089780
$GNHDT,302.480,T*26
$PYRTM,2024,123.417893514225,14.527540924363
$GNGGA,100146.00,3413.46654489,N,12029.52315156,W,2,11,0.9,9.370,M,-37.160,M,7.0,0135*6A
$PYRTM,2024,123.417893514225,14.527540924363
$GNHDT,302.384,T*25
$PYRTM,2024,123.417899252674,14.527546662812
$GNGGA,100146.50,3413.46684125,N,12029.52386821,W,2,11,0.9,9.007,M,-37.160,M,7.4,0135*65
$PYRTM,2024,123.417899252674,14.527546662812
$GNHDT,302.398,T*28
$PYRTM,2024,123.417905097407,14.527552507546
$GNGGA,100147.00,3413.46722953,N,12029.52462577,W,2,11,0.9,8.176,M,-37.160,M,4.0,0135*67
$PYRTM,2024,123.417905097407,14.527552507546
$GNHDT,302.211,T*28
$PYRTM,2024,123.417910825139,14.527558235278
$GNGGA,100147.50,3413.46764012,N,12029.52535086,W,2,11,0.9,7.280,M,-37.160,M,4.4,0135*65
$PYRTM,2024,123.417910825139,14.527558235278
$GNHDT,302.183,T*20
$PYRTM,2024,123.417916664595,14.527564074734
$GNGGA,100148.00,3413.46799619,N,12029.52598856,W,2,11,0.9,6.740,M,-37.160,M,5.0,0135*6F
$PYRTM,2024,123.417916664595,14.527564074734
$GNHDT,302.080,T*22
$PYRTM,2024,123.417922402095,14.527569812245
$GNGGA,100148.50,3413.46825445,N,12029.52653038,W,2,11,0.9,6.788,M,-37.160,M,5.4,0135*6D
$PYRTM,2024,123.417922402095,14.527569812245
$GNHDT,302.116,T*2C
$PYRTM,2024,123.417928244062,14.527575654201
$GNGGA,100149.00,3413.46838852,N,12029.52701365,W,2,11,0.9,7.427,M,-37.160,M,6.0,0135*62
$PYRTM,2024,123.417928244062,14.527575654201
$GNHDT,301.806,T*27
$PYRTM,2024,123.417933970856,14.527581380995
$GNGGA,100149.50,3413.46844321,N,12029.52756148,W,2,11,0.9,8.307,M,-37.160,M,6.4,0135*62
$PYRTM,2024,123.417933970856,14.527581380995
$GNHDT,301.030,T*2A
$PYRTM,2024,123.417939813947,14.527587224086
$GNGGA,100150.00,3413.46849562,N,12029.52819437,W,2,11,0.9,9.050,M,-37.160,M,7.0,0135*6F
$PYRTM,2024,123.417939813947,14.527587224086
$GNHDT,300.395,T*27
$PYRTM,2024,123.417945545579,14.527592955718
$GNGGA,100150.50,3413.46859382,N,12029.52893823,W,2,11,0.9,9.436,M,-37.160,M,7.4,0135*68
$PYRTM,2024,123.417945545579,14.527592955718
$GNHDT,300.195,T*25
$PYRTM,2024,123.417951387454,14.527598797593
$GNGGA,100151.00,3413.46875737,N,12029.52978970,W,2,11,0.9,9.223,M,-37.160,M,7.0,0135*6D
$PYRTM,2024,123.417951387454,14.527598797593
$GNHDT,300.072,T*2D
$PYRTM,2024,123.417957122211,14.527604532350
$GNGGA,100151.50,3413.46898373,N,12029.53067594,W,2,11,0.9,8.531,M,-37.160,M,7.4,0135*6E
$PYRTM,2024,123.417957122211,14.527604532350
$GNHDT,300.104,T*2D
$PYRTM,2024,123.417962966609,14.527610376748
$GNGGA,100152.00,3413.46924646,N,12029.53151825,W,2,11,0.9,7.571,M,-37.160,M,7.0,0135*61
$PYRTM,2024,123.417962966609,14.527610376748
$GNHDT,299.721,T*2D
$PYRTM,2024,123.417968695764,14.527616105914
$GNGGA,100152.50,3413.46954402,N,12029.53219835,W,2,11,0.9,6.722,M,-37.160,M,7.4,0135*6E
$PYRTM,2024,123.417968695764,14.527616105914
$GNHDT,300.205,T*2F
$PYRTM,2024,123.417974536458,14.527621946597
$GNGGA,100153.00,3413.46980907,N,12029.53275173,W,2,11,0.9,6.336,M,-37.160,M,4.0,0135*6C
$PYRTM,2024,123.417974536458,14.527621946597
$GNHDT,300.156,T*2A
$PYRTM,2024,123.417980273542,14.527627683681
$GNGGA,100153.50,3413.47000487,N,12029.53322691,W,2,11,0.9,6.500,M,-37.160,M,4.4,0135*63
$PYRTM,2024,123.417980273542,14.527627683681
$GNHDT,300.667,T*2F
$PYRTM,2024,123.417986113877,14.527633524016
$GNGGA,100154.00,3413.47008767,N,12029.53368217,W,2,11,0.9,7.140,M,-37.160,M,5.0,0135*64
$PYRTM,2024,123.417986113877,14.527633524016
$GNHDT,300.372,T*2E
$PYRTM,2024,123.417991846192,14.527639256331
$GNGGA,100154.50,3413.47010041,N,12029.53421403,W,2,11,0.9,7.973,M,-37.160,M,5.4,0135*6E
$PYRTM,2024,123.417991846192,14.527639256331
$GNHDT,299.790,T*27
$PYRTM,2024,123.417997682836,14.527645092975
$GNGGA,100155.00,3413.47011649,N,12029.53486124,W,2,11,0.9,8.686,M,-37.160,M,6.0,0135*65
$PYRTM,2024,123.417997682836,14.527645092975
$GNHDT,299.549,T*21
$PYRTM,2024,123.418003415764,14.527650825903
$GNGGA,100155.50,3413.47021053,N,12029.53563459,W,2,11,0.9,8.961,M,-37.160,M,6.4,0135*69
$PYRTM,2024,123.418003415764,14.527650825903
$GNHDT,299.670,T*28
$PYRTM,2024,123.418009257569,14.527656667708
$GNGGA,100156.00,3413.47037837,N,12029.53645896,W,2,11,0.9,8.830,M,-37.160,M,7.0,0135*6A
$PYRTM,2024,123.418009257569,14.527656667708
$GNHDT,299.257,T*29
$PYRTM,2024,123.418014989896,14.527662400035
$GNGGA,100156.50,3413.47055932,N,12029.53724456,W,2,11,0.9,8.464,M,-37.160,M,7.4,0135*60
$PYRTM,2024,123.418014989896,14.527662400035
$GNHDT,299.510,T*2D
$PYRTM,2024,123.418020835278,14.527668245417
$GNGGA,100157.00,3413.47073510,N,12029.53795993,W,2,11,0.9,8.026,M,-37.160,M,7.0,0135*64
$PYRTM,2024,123.418020835278,14.527668245417
$GNHDT,299.443,T*2A
$PYRTM,2024,123.418026562257,14.527673972396
$GNGGA,100157.50,3413.47089783,N,12029.53857738,W,2,11,0.9,7.706,M,-37.160,M,7.4,0135*6C
$PYRTM,2024,123.418026562257,14.527673972396
$GNHDT,299.358,T*27
$PYRTM,2024,123.418032402731,14.527679812870
$GNGGA,100158.00,3413.47106797,N,12029.53913062,W,2,11,0.9,7.546,M,-37.160,M,7.0,0135*6E
$PYRTM,2024,123.418032402731,14.527679812870
$GNHDT,299.423,T*2C
$PYRTM,2024,123.418038137350,14.527685547488
$GNGGA,100158.50,3413.47125613,N,12029.53963628,W,2,11,0.9,7.553,M,-37.160,M,7.4,0135*68
$PYRTM,2024,123.418038137350,14.527685547488
$GNHDT,299.765,T*2D
$PYRTM,2024,123.418043976887,14.527691387025
$GNGGA,100159.00,3413.47146805,N,12029.54016225,W,2,11,0.9,7.643,M,-37.160,M,4.0,0135*60
$PYRTM,2024,123.418043976887,14.527691387025
$GNHDT,300.123,T*28
$PYRTM,2024,123.418049710220,14.527697120359
$GNGGA,100159.50,3413.47166262,N,12029.54076935,W,2,11,0.9,7.745,M,-37.161,M,4.4,0135*62
$PYRTM,2024,123.418049710220,14.527697120359
$GNHDT,300.093,T*22
$PYRTM,2024,123.418055557280,14.527702967419
$GNGGA,100200.00,3413.47183023,N,12029.54144103,W,2,11,0.9,7.902,M,-37.161,M,5.0,0135*61
$PYRTM,2024,123.418055557280,14.527702967419
$GNHDT,299.859,T*2D
$PYRTM,2024,123.418061283900,14.527708694039
$GNGGA,100200.50,3413.47197468,N,12029.54217159,W,2,11,0.9,8.034,M,-37.161,M,5.4,0135*67
$PYRTM,2024,123.418061283900,14.527708694039
$GNHDT,299.649,T*22
$PYRTM,2024,123.418067125440,14.527714535579
$GNGGA,100201.00,3413.47211945,N,12029.54296375,W,2,11,0.9,8.066,M,-37.161,M,6.0,0135*69
$PYRTM,2024,123.418067125440,14.527714535579
$GNHDT,299.433,T*2D
$PYRTM,2024,123.418072861238,14.527720271377
$GNGGA,100201.50,3413.47227377,N,12029.54377669,W,2,11,0.9,8.007,M,-37.161,M,6.4,0135*67
$PYRTM,2024,123.418072861238,14.527720271377
$GNHDT,299.521,T*2F
$PYRTM,2024,123.418078702975,14.527726113125
$GNGGA,100202.00,3413.47244025,N,12029.54456881,W,2,11,0.9,7.890,M,-37.161,M,7.0,0135*60
$PYRTM,2024,123.418078702975,14.527726113125
$GNHDT,300.008,T*20
$PYRTM,2024,123.418084431713,14.527731841852
$GNGGA,100202.50,3413.47261746,N,12029.54528417,W,2,11,0.9,7.833,M,-37.161,M,7.4,0135*66
$PYRTM,2024,123.418084431713,14.527731841852
$GNHDT,300.090,T*21
$PYRTM,2024,123.418090277060,14.527737687199
$GNGGA,100203.00,3413.47281008,N,12029.54590604,W,2,11,0.9,7.882,M,-37.161,M,7.0,0135*6C
$PYRTM,2024,123.418090277060,14.527737687199
$GNHDT,300.413,T*2E
$PYRTM,2024,123.418096007234,14.527743417373
$GNGGA,100203.50,3413.47303208,N,12029.54648748,W,2,11,0.9,7.975,M,-37.161,M,7.4,0135*62
$PYRTM,2024,123.418096007234,14.527743417373
$GNHDT,301.134,T*2F
$PYRTM,2024,123.418101852060,14.527749262199
$GNGGA,100204.00,3413.47325387,N,12029.54710000,W,2,11,0.9,8.051,M,-37.161,M,7.0,0135*61
$PYRTM,2024,123.418101852060,14.527749262199
$GNHDT,300.763,T*2A
$PYRTM,2024,123.418107583137,14.527754993275
$GNGGA,100204.50,3413.47345531,N,12029.54775007,W,2,11,0.9,8.119,M,-37.161,M,7.4,0135*64
$PYRTM,2024,123.418107583137,14.527754993275
$GNHDT,300.761,T*28
$PYRTM,2024,123.418113423368,14.527760833507
$GNGGA,100205.00,3413.47361247,N,12029.54844385,W,2,11,0.9,8.191,M,-37.161,M,4.0,0135*63
$PYRTM,2024,123.418113423368,14.527760833507
$GNHDT,300.704,T*2B
$PYRTM,2024,123.418119160810,14.527766570961
$GNGGA,100205.50,3413.47376120,N,12029.54916930,W,2,11,0.9,8.233,M,-37.161,M,4.4,0135*6F
$PYRTM,2024,123.418119160810,14.527766570961
$GNHDT,301.251,T*2F
$PYRTM,2024,123.418125001493,14.527772411632
$GNGGA,100206.00,3413.47389975,N,12029.54989622,W,2,11,0.9,8.236,M,-37.161,M,5.0,0135*6B
$PYRTM,2024,123.418125001493,14.527772411632
$GNHDT,301.564,T*2E
$PYRTM,2024,123.418130731748,14.527778141898
$GNGGA,100206.50,3413.47407017,N,12029.55060145,W,2,11,0.9,8.203,M,-37.161,M,5.4,0135*69
$PYRTM,2024,123.418130731748,14.527778141898
$GNHDT,301.692,T*24
$PYRTM,2024,123.418136571319,14.527783981458
$GNGGA,100207.00,3413.47425157,N,12029.55127788,W,2,11,0.9,8.165,M,-37.161,M,6.0,0135*69
$PYRTM,2024,123.418136571319,14.527783981458
$GNHDT,301.954,T*21
$PYRTM,2024,123.418142304479,14.527789714618
$GNGGA,100207.50,3413.47445894,N,12029.55193911,W,2,11,0.9,8.102,M,-37.161,M,6.4,0135*68
$PYRTM,2024,123.418142304479,14.527789714618
$GNHDT,301.970,T*27
$PYRTM,2024,123.418148146296,14.527795556435
$GNGGA,100208.00,3413.47468566,N,12029.55259519,W,2,11,0.9,8.048,M,-37.161,M,7.0,0135*66
$PYRTM,2024,123.418148146296,14.527795556435
$GNHDT,301.856,T*22
$PYRTM,2024,123.418153882257,14.527801292384
$GNGGA,100208.50,3413.47492946,N,12029.55323779,W,2,11,0.9,8.016,M,-37.161,M,7.4,0135*6F
$PYRTM,2024,123.418153882257,14.527801292384
$GNHDT,301.960,T*26
$PYRTM,2024,123.418159718067,14.527807128218
$GNGGA,100209.00,3413.47513096,N,12029.55391429,W,2,11,0.9,8.076,M,-37.161,M,7.0,0135*6A
$PYRTM,2024,123.418159718067,14.527807128218
$GNHDT,301.769,T*21
$PYRTM,2024,123.418165452778,14.527812862917
$GNGGA,100209.50,3413.47527795,N,12029.55465152,W,2,11,0.9,8.209,M,-37.161,M,7.4,0135*67
$PYRTM,2024,123.418165452778,14.527812862917
$GNHDT,301.498,T*2C
$PYRTM,2024,123.418171294363,14.527818704502
$GNGGA,100210.00,3413.47536866,N,12029.55547361,W,2,11,0.9,8.375,M,-37.161,M,7.0,0135*64
$PYRTM,2024,123.418171294363,14.527818704502
$GNHDT,301.208,T*23
$PYRTM,2024,123.418177028148,14.527824438287
$GNGGA,100210.50,3413.47546532,N,12029.55630882,W,2,11,0.9,8.462,M,-37.161,M,7.4,0135*6A
$PYRTM,2024,123.418177028148,14.527824438287
$GNHDT,301.023,T*28
$PYRTM,2024,123.418182872072,14.527830282211
$GNGGA,100211.00,3413.47559565,N,12029.55711219,W,2,11,0.9,8.458,M,-37.161,M,4.0,0135*66
$PYRTM,2024,123.418182872072,14.527830282211
$GNHDT,301.205,T*2E
$PYRTM,2024,123.418188603380,14.527836013519
$GNGGA,100211.50,3413.47578056,N,12029.55784028,W,2,11,0.9,8.380,M,-37.161,M,4.4,0135*6F
$PYRTM,2024,123.418188603380,14.527836013519
$GNHDT,302.073,T*2E
$PYRTM,2024,123.418194444051,14.527841854190
$GNGGA,100212.00,3413.47601699,N,12029.55850958,W,2,11,0.9,8.243,M,-37.161,M,5.0,0135*62
$PYRTM,2024,123.418194444051,14.527841854190
$GNHDT,302.433,T*2E
$PYRTM,2024,123.418200183900,14.527847594039
$GNGGA,100212.50,3413.47631891,N,12029.55917614,W,2,11,0.9,7.995,M,-37.161,M,5.4,0135*6C
$PYRTM,2024,123.418200183900,14.527847594039
$GNHDT,302.998,T*22
$PYRTM,2024,123.418206016042,14.527853426181
$GNGGA,100213.00,3413.47665815,N,12029.55987857,W,2,11,0.9,7.684,M,-37.161,M,6.0,0135*6D
$PYRTM,2024,123.418206016042,14.527853426181
$GNHDT,303.164,T*28
$PYRTM,2024,123.418211751748,14.527859161887
$GNGGA,100213.50,3413.47701790,N,12029.56063916,W,2,11,0.9,7.375,M,-37.161,M,6.4,0135*62
$PYRTM,2024,123.418211751748,14.527859161887
$GNHDT,303.062,T*2F
$PYRTM,2024,123.418217589340,14.527864999479
$GNGGA,100214.00,3413.47731903,N,12029.56144697,W,2,11,0.9,7.320,M,-37.161,M,7.0,0135*60
$PYRTM,2024,123.418217589340,14.527864999479
$GNHDT,303.075,T*29
$PYRTM,2024,123.418223319549,14.527870729688
$GNGGA,100214.50,3413.47748748,N,12029.56221408,W,2,11,0.9,7.690,M,-37.161,M,7.4,0135*64
$PYRTM,2024,123.418223319549,14.527870729688
$GNHDT,303.200,T*29
$PYRTM,2024,123.418229154514,14.527876564653
$GNGGA,100215.00,3413.47753110,N,12029.56287966,W,2,11,0.9,8.486,M,-37.161,M,7.0,0135*66
$PYRTM,2024,123.418229154514,14.527876564653
$GNHDT,303.369,T*27
$PYRTM,2024,123.418234892581,14.527882302720
$GNGGA,100215.50,3413.47750688,N,12029.56345487,W,2,11,0.9,9.434,M,-37.161,M,7.4,0135*67
$PYRTM,2024,123.418234892581,14.527882302720
$GNHDT,303.210,T*28
$PYRTM,2024,123.418240725197,14.527888135336
$GNGGA,100216.00,3413.47754650,N,12029.56399412,W,2,11,0.9,10.242,M,-37.161,M,7.0,0135*56
$PYRTM,2024,123.418240725197,14.527888135336
$GNHDT,303.338,T*23
$PYRTM,2024,123.418246463194,14.527893873345
$GNGGA,100216.50,3413.47774502,N,12029.56462575,W,2,11,0.9,10.542,M,-37.161,M,7.4,0135*55
$PYRTM,2024,123.418246463194,14.527893873345
$GNHDT,303.022,T*2B
$PYRTM,2024,123.418252307454,14.527899717604
$GNGGA,100217.00,3413.47809369,N,12029.56537029,W,2,11,0.9,10.135,M,-37.161,M,4.0,0135*51
$PYRTM,2024,123.418252307454,14.527899717604
$GNHDT,302.440,T*2A
$PYRTM,2024,123.418258042315,14.527905452454
$GNGGA,100217.50,3413.47846757,N,12029.56614173,W,2,11,0.9,9.228,M,-37.161,M,4.4,0135*69
$PYRTM,2024,123.418258042315,14.527905452454
$GNHDT,302.342,T*2F
$PYRTM,2024,123.418263884074,14.527911294213
$GNGGA,100218.00,3413.47879508,N,12029.56682720,W,2,11,0.9,8.341,M,-37.161,M,5.0,0135*62
$PYRTM,2024,123.418263884074,14.527911294213
$GNHDT,302.301,T*28
$PYRTM,2024,123.418269609456,14.527917019606
$GNGGA,100218.50,3413.47901621,N,12029.56741562,W,2,11,0.9,7.808,M,-37.161,M,5.4,0135*66
$PYRTM,2024,123.418269609456,14.527917019606
$GNHDT,302.894,T*2F
$PYRTM,2024,123.418275454259,14.527922864398
$GNGGA,100219.00,3413.47915233,N,12029.56785703,W,2,11,0.9,7.761,M,-37.161,M,6.0,0135*6A
$PYRTM,2024,123.418275454259,14.527922864398
$GNHDT,302.820,T*20
$PYRTM,2024,123.418281192234,14.527928602384
$GNGGA,100219.50,3413.47922381,N,12029.56827253,W,2,11,0.9,8.180,M,-37.161,M,6.4,0135*66
$PYRTM,2024,123.418281192234,14.527928602384
$GNHDT,302.790,T*24
$PYRTM,2024,123.418287025590,14.527934435729
$GNGGA,100220.00,3413.47931895,N,12029.56877265,W,2,11,0.9,8.696,M,-37.161,M,7.0,0135*60
$PYRTM,2024,123.418287025590,14.527934435729
$GNHDT,302.855,T*22
$PYRTM,2024,123.418292758183,14.527940168322
$GNGGA,100220.50,3413.47947757,N,12029.56941199,W,2,11,0.9,9.053,M,-37.161,M,7.4,0135*6B
$PYRTM,2024,123.418292758183,14.527940168322
$GNHDT,303.407,T*28
$PYRTM,2024,123.418298595914,14.527946006053
$GNGGA,100221.00,3413.47975635,N,12029.57017155,W,2,11,0.9,9.090,M,-37.161,M,7.0,0135*6B
$PYRTM,2024,123.418298595914,14.527946006053
$GNHDT,303.455,T*2F
$PYRTM,2024,123.418304337535,14.527951747685
$GNGGA,100221.50,3413.48010289,N,12029.57094514,W,2,11,0.9,8.852,M,-37.161,M,7.4,0135*61
$PYRTM,2024,123.418304337535,14.527951747685
$GNHDT,303.270,T*2E
$PYRTM,2024,123.418310170093,14.527957580231
$GNGGA,100222.00,3413.48046622,N,12029.57166363,W,2,11,0.9,8.530,M,-37.161,M,7.0,0135*66
$PYRTM,2024,123.418310170093,14.527957580231
$GNHDT,303.618,T*24
$PYRTM,2024,123.418315906331,14.527963316470
$GNGGA,100222.50,3413.48077424,N,12029.57229874,W,2,11,0.9,8.274,M,-37.161,M,7.4,0135*63
$PYRTM,2024,123.418315906331,14.527963316470
$GNHDT,303.473,T*2B
$PYRTM,2024,123.418321745556,14.527969155694
$GNGGA,100223.00,3413.48101066,N,12029.57284813,W,2,11,0.9,8.277,M,-37.161,M,4.0,0135*67
$PYRTM,2024,123.418321745556,14.527969155694
$GNHDT,303.418,T*26
$PYRTM,2024,123.418327479178,14.527974889317
$GNGGA,100223.50,3413.48118090,N,12029.57337714,W,2,11,0.9,8.469,M,-37.161,M,4.4,0135*6F
$PYRTM,2024,123.418327479178,14.527974889317
$GNHDT,303.361,T*2F
$PYRTM,2024,123.418333317396,14.527980727535
$GNGGA,100224.00,3413.48132299,N,12029.57392605,W,2,11,0.9,8.754,M,-37.161,M,5.0,0135*68
$PYRTM,2024,123.418333317396,14.527980727535
$GNHDT,303.348,T*24
$PYRTM,2024,123.418339057431,14.527986467569
$GNGGA,100224.50,3413.48146370,N,12029.57452665,W,2,11,0.9,9.008,M,-37.161,M,5.4,0135*6E
$PYRTM,2024,123.418339057431,14.527986467569
$GNHDT,303.276,T*28
$PYRTM,2024,123.418344893958,14.527992304097
$GNGGA,100225.00,3413.48165282,N,12029.57519757,W,2,11,0.9,9.030,M,-37.161,M,6.0,0135*65
$PYRTM,2024,123.418344893958,14.527992304097
$GNHDT,303.304,T*2C
$PYRTM,2024,123.418350630729,14.527998040868
$GNGGA,100225.50,3413.48188081,N,12029.57588919,W,2,11,0.9,8.885,M,-37.161,M,6.4,0135*6D
$PYRTM,2024,123.418350630729,14.527998040868
$GNHDT,303.352,T*2F
$PYRTM,2024,123.418356466736,14.528003876875
$GNGGA,100226.00,3413.48213919,N,12029.57657401,W,2,11,0.9,8.617,M,-37.161,M,7.0,0135*67
$PYRTM,2024,123.418356466736,14.528003876875
$GNHDT,303.436,T*2A
$PYRTM,2024,123.418362206505,14.528009616644
$GNGGA,100226.50,3413.48238337,N,12029.57721351,W,2,11,0.9,8.427,M,-37.161,M,7.4,0135*6A
$PYRTM,2024,123.418362206505,14.528009616644
$GNHDT,303.238,T*22
$PYRTM,2024,123.418368046725,14.528015456863
$GNGGA,100227.00,3413.48256243,N,12029.57780848,W,2,11,0.9,8.476,M,-37.161,M,7.0,0135*6C
$PYRTM,2024,123.418368046725,14.528015456863
$GNHDT,303.018,T*22
$PYRTM,2024,123.418373777176,14.528021187326
$GNGGA,100227.50,3413.48268762,N,12029.57837215,W,2,11,0.9,8.722,M,-37.161,M,7.4,0135*65
$PYRTM,2024,123.418373777176,14.528021187326
$GNHDT,302.803,T*21
$PYRTM,2024,123.418379614560,14.528027024699
$GNGGA,100228.00,3413.48278527,N,12029.57894058,W,2,11,0.9,9.081,M,-37.161,M,7.0,0135*64
$PYRTM,2024,123.418379614560,14.528027024699
$GNHDT,302.663,T*29
$PYRTM,2024,123.418385350116,14.528032760255
$GNGGA,100228.50,3413.48291909,N,12029.57955084,W,2,11,0.9,9.299,M,-37.161,M,7.4,0135*64
$PYRTM,2024,123.418385350116,14.528032760255
$GNHDT,302.555,T*2F
$PYRTM,2024,123.418391187488,14.528038597627
$GNGGA,100229.00,3413.48310164,N,12029.58024992,W,2,11,0.9,9.208,M,-37.161,M,4.0,0135*6A
$PYRTM,2024,123.418391187488,14.528038597627
$GNHDT,302.339,T*23
$PYRTM,2024,123.418396924398,14.528044334537
