$PYRTM,2024,122.721290571331,13.830937981470
$GNGGA,171839.50,3356.27858566,N,11951.14472508,W,2,11,0.9,8.098,M,-37.384,M,7.4,0135*6D
$PYRTM,2024,122.721290571331,13.830937981470
$GNHDT,81.565,T*14
$PYRTM,2024,122.721296402616,13.830943812755
$GNGGA,171840.00,3356.27874826,N,11951.14332748,W,2,11,0.9,8.149,M,-37.384,M,7.0,0135*6D
$PYRTM,2024,122.721296402616,13.830943812755
$GNHDT,81.753,T*13
$PYRTM,2024,122.721302143947,13.830949554086
$GNGGA,171840.50,3356.27892191,N,11951.14194281,W,2,11,0.9,8.219,M,-37.384,M,7.4,0135*69
$PYRTM,2024,122.721302143947,13.830949554086
$GNHDT,82.039,T*1B
$PYRTM,2024,122.721307980914,13.830955391065
$GNGGA,171841.00,3356.27912181,N,11951.14057487,W,2,11,1.0,8.295,M,-37.384,M,4.0,0135*60
$PYRTM,2024,122.721307980914,13.830955391065
$GNHDT,82.140,T*14
$PYRTM,2024,122.721313719815,13.830961129954
$GNGGA,171841.50,3356.27934721,N,11951.13921476,W,2,11,1.0,8.367,M,-37.384,M,4.4,0135*64
$PYRTM,2024,122.721313719815,13.830961129954
$GNHDT,82.072,T*14
$PYRTM,2024,122.721319557558,13.830966967697
$GNGGA,171842.00,3356.27958556,N,11951.13785676,W,2,11,1.0,8.388,M,-37.384,M,5.0,0135*6C
$PYRTM,2024,122.721319557558,13.830966967697
$GNHDT,82.077,T*11
$PYRTM,2024,122.721325286829,13.830972696968
$GNGGA,171842.50,3356.27982469,N,11951.13649135,W,2,11,1.0,8.352,M,-37.384,M,5.4,0135*61
$PYRTM,2024,122.721325286829,13.830972696968
$GNHDT,82.011,T*11
$PYRTM,2024,122.721331129826,13.830978539965
$GNGGA,171843.00,3356.28005695,N,11951.13512692,W,2,11,1.0,8.241,M,-37.384,M,6.0,0135*6E
$PYRTM,2024,122.721331129826,13.830978539965
$GNHDT,81.803,T*19
$PYRTM,2024,122.721336861817,13.830984271956
$GNGGA,171843.50,3356.28027178,N,11951.13376859,W,2,11,1.0,8.092,M,-37.384,M,6.4,0135*6A
$PYRTM,2024,122.721336861817,13.830984271956
$GNHDT,81.568,T*19
$PYRTM,2024,122.721342699190,13.830990109329
$GNGGA,171844.00,3356.28047067,N,11951.13241995,W,2,11,1.0,7.941,M,-37.384,M,7.0,0135*68
$PYRTM,2024,122.721342699190,13.830990109329
$GNHDT,81.473,T*12
$PYRTM,2024,122.721348434155,13.830995844306
$GNGGA,171844.50,3356.28066203,N,11951.13108895,W,2,11,1.0,7.837,M,-37.384,M,7.4,0135*65
$PYRTM,2024,122.721348434155,13.830995844306
$GNHDT,81.123,T*12
$PYRTM,2024,122.721354275532,13.831001685671
$GNGGA,171845.00,3356.28084806,N,11951.12977366,W,2,11,1.0,7.789,M,-37.384,M,7.0,0135*6A
$PYRTM,2024,122.721354275532,13.831001685671
$GNHDT,80.815,T*1F
$PYRTM,2024,122.721360009873,13.831007420023
$GNGGA,171845.50,3356.28103194,N,11951.12846008,W,2,11,1.0,7.789,M,-37.384,M,7.4,0135*6F
$PYRTM,2024,122.721360009873,13.831007420023
$GNHDT,80.861,T*1C
$PYRTM,2024,122.721365852049,13.831013262187
$GNGGA,171846.00,3356.28120488,N,11951.12715181,W,2,11,1.0,7.822,M,-37.384,M,7.0,0135*63
$PYRTM,2024,122.721365852049,13.831013262187
$GNHDT,80.902,T*18
$PYRTM,2024,122.721371582859,13.831018992998
$GNGGA,171846.50,3356.28137649,N,11951.12582876,W,2,11,1.0,7.846,M,-37.384,M,7.4,0135*64
$PYRTM,2024,122.721371582859,13.831018992998
$GNHDT,81.056,T*11
$PYRTM,2024,122.721377424803,13.831024834942
$GNGGA,171847.00,3356.28151561,N,11951.12452190,W,2,11,1.0,7.862,M,-37.384,M,4.0,0135*65
$PYRTM,2024,122.721377424803,13.831024834942
$GNHDT,81.044,T*12
$PYRTM,2024,122.721383156887,13.831030567025
$GNGGA,171847.50,3356.28165439,N,11951.12319972,W,2,11,1.0,7.863,M,-37.384,M,4.4,0135*62
$PYRTM,2024,122.721383156887,13.831030567025
$GNHDT,81.339,T*1B
$PYRTM,2024,122.721388998576,13.831036408715
$GNGGA,171848.00,3356.28178043,N,11951.12187378,W,2,11,1.0,7.858,M,-37.384,M,5.0,0135*65
$PYRTM,2024,122.721388998576,13.831036408715
$GNHDT,81.469,T*19
$PYRTM,2024,122.721394729525,13.831042139664
$GNGGA,171848.50,3356.28191869,N,11951.12052395,W,2,11,1.0,7.847,M,-37.384,M,5.4,0135*67
$PYRTM,2024,122.721394729525,13.831042139664
$GNHDT,81.677,T*14
$PYRTM,2024,122.721400574132,13.831047984271
$GNGGA,171849.00,3356.28202789,N,11951.11918661,W,2,11,1.0,7.855,M,-37.384,M,6.0,0135*65
$PYRTM,2024,122.721400574132,13.831047984271
$GNHDT,81.976,T*1A
$PYRTM,2024,122.721406310058,13.831053720197
$GNGGA,171849.50,3356.28217367,N,11951.11781534,W,2,11,1.0,7.859,M,-37.384,M,6.4,0135*65
$PYRTM,2024,122.721406310058,13.831053720197
$GNHDT,81.830,T*19
$PYRTM,2024,122.721412145359,13.831059555498
$GNGGA,171850.00,3356.28233571,N,11951.11644209,W,2,11,1.0,7.876,M,-37.384,M,7.0,0135*66
$PYRTM,2024,122.721412145359,13.831059555498
$GNHDT,81.654,T*15
$PYRTM,2024,122.721417880868,13.831065291007
$GNGGA,171850.50,3356.28250946,N,11951.11506871,W,2,11,1.0,7.928,M,-37.384,M,7.4,0135*60
$PYRTM,2024,122.721417880868,13.831065291007
$GNHDT,81.593,T*1D
$PYRTM,2024,122.721423719664,13.831071129803
$GNGGA,171851.00,3356.28270113,N,11951.11369272,W,2,11,1.0,7.974,M,-37.384,M,7.0,0135*65
$PYRTM,2024,122.721423719664,13.831071129803
$GNHDT,81.286,T*1E
$PYRTM,2024,122.721429456447,13.831076866586
$GNGGA,171851.50,3356.28288941,N,11951.11233004,W,2,11,1.0,8.017,M,-37.384,M,7.4,0135*62
$PYRTM,2024,122.721429456447,13.831076866586
$GNHDT,81.322,T*11
$PYRTM,2024,122.721435295000,13.831082705139
$GNGGA,171852.00,3356.28306493,N,11951.11099040,W,2,11,1.0,8.047,M,-37.384,M,7.0,0135*62
$PYRTM,2024,122.721435295000,13.831082705139
$GNHDT,81.090,T*1B
$PYRTM,2024,122.721441028218,13.831088438368
$GNGGA,171852.50,3356.28324099,N,11951.10964999,W,2,11,1.0,8.047,M,-37.384,M,7.4,0135*6A
$PYRTM,2024,122.721441028218,13.831088438368
$GNHDT,81.128,T*19
$PYRTM,2024,122.721446868900,13.831094279051
$GNGGA,171853.00,3356.28340512,N,11951.10831867,W,2,11,1.0,8.013,M,-37.384,M,4.0,0135*6D
$PYRTM,2024,122.721446868900,13.831094279051
$GNHDT,81.057,T*10
$PYRTM,2024,122.721452600706,13.831100010845
$GNGGA,171853.50,3356.28357871,N,11951.10696724,W,2,11,1.0,7.945,M,-37.384,M,4.4,0135*6C
$PYRTM,2024,122.721452600706,13.831100010845
$GNHDT,81.160,T*15
$PYRTM,2024,122.721458442662,13.831105852801
$GNGGA,171854.00,3356.28375055,N,11951.10561593,W,2,11,1.0,7.884,M,-37.384,M,5.0,0135*6C
$PYRTM,2024,122.721458442662,13.831105852801
$GNHDT,81.342,T*17
$PYRTM,2024,122.721464177153,13.831111587303
$GNGGA,171854.50,3356.28391157,N,11951.10426967,W,2,11,1.0,7.851,M,-37.384,M,5.4,0135*69
$PYRTM,2024,122.721464177153,13.831111587303
$GNHDT,81.236,T*15
$PYRTM,2024,122.721470013889,13.831117424039
$GNGGA,171855.00,3356.28407591,N,11951.10292859,W,2,11,1.0,7.879,M,-37.384,M,6.0,0135*63
$PYRTM,2024,122.721470013889,13.831117424039
$GNHDT,81.476,T*17
$PYRTM,2024,122.721475749745,13.831123159884
$GNGGA,171855.50,3356.28426289,N,11951.10158814,W,2,11,1.0,7.966,M,-37.384,M,6.4,0135*6C
$PYRTM,2024,122.721475749745,13.831123159884
$GNHDT,81.745,T*14
$PYRTM,2024,122.721481589884,13.831129000023
$GNGGA,171856.00,3356.28447751,N,11951.10024399,W,2,11,1.0,8.113,M,-37.384,M,7.0,0135*69
$PYRTM,2024,122.721481589884,13.831129000023
$GNHDT,81.938,T*10
$PYRTM,2024,122.721487325289,13.831134735428
$GNGGA,171856.50,3356.28470264,N,11951.09889355,W,2,11,1.0,8.278,M,-37.384,M,7.4,0135*66
$PYRTM,2024,122.721487325289,13.831134735428
$GNHDT,82.054,T*10
$PYRTM,2024,122.721493163634,13.831140573773
$GNGGA,171857.00,3356.28493821,N,11951.09752673,W,2,11,1.0,8.416,M,-37.384,M,7.0,0135*66
$PYRTM,2024,122.721493163634,13.831140573773
$GNHDT,82.067,T*10
$PYRTM,2024,122.721498900752,13.831146310903
$GNGGA,171857.50,3356.28513979,N,11951.09616437,W,2,11,1.0,8.490,M,-37.384,M,7.4,0135*6F
$PYRTM,2024,122.721498900752,13.831146310903
$GNHDT,81.965,T*18
$PYRTM,2024,122.721504738102,13.831152148241
$GNGGA,171858.00,3356.28534359,N,11951.09476729,W,2,11,1.0,8.476,M,-37.384,M,7.0,0135*6C
$PYRTM,2024,122.721504738102,13.831152148241
$GNHDT,81.750,T*10
$PYRTM,2024,122.721510474259,13.831157884398
$GNGGA,171858.50,3356.28552800,N,11951.09336440,W,2,11,1.0,8.392,M,-37.384,M,7.4,0135*68
$PYRTM,2024,122.721510474259,13.831157884398
$GNHDT,81.780,T*1D
$PYRTM,2024,122.721516315903,13.831163726042
$GNGGA,171859.00,3356.28570345,N,11951.09196782,W,2,11,1.0,8.272,M,-37.384,M,4.0,0135*6B
$PYRTM,2024,122.721516315903,13.831163726042
$GNHDT,81.653,T*12
$PYRTM,2024,122.721522045498,13.831169455637
$GNGGA,171859.50,3356.28587201,N,11951.09059105,W,2,11,1.0,8.183,M,-37.384,M,4.4,0135*65
$PYRTM,2024,122.721522045498,13.831169455637
$GNHDT,81.344,T*11
$PYRTM,2024,122.721527885417,13.831175295567
$GNGGA,171900.00,3356.28603680,N,11951.08923724,W,2,11,1.0,8.130,M,-37.384,M,5.0,0135*62
$PYRTM,2024,122.721527885417,13.831175295567
$GNHDT,81.302,T*13
$PYRTM,2024,122.721533624120,13.831181034259
$GNGGA,171900.50,3356.28620075,N,11951.08791062,W,2,11,1.0,8.114,M,-37.384,M,5.4,0135*6A
$PYRTM,2024,122.721533624120,13.831181034259
$GNHDT,80.976,T*1B
$PYRTM,2024,122.721539459977,13.831186870116
$GNGGA,171901.00,3356.28637233,N,11951.08660008,W,2,11,1.0,8.111,M,-37.384,M,6.0,0135*69
$PYRTM,2024,122.721539459977,13.831186870116
$GNHDT,80.985,T*17
$PYRTM,2024,122.721545193067,13.831192603206
$GNGGA,171901.50,3356.28654934,N,11951.08530245,W,2,11,1.0,8.102,M,-37.384,M,6.4,0135*6E
$PYRTM,2024,122.721545193067,13.831192603206
$GNHDT,80.949,T*17
$PYRTM,2024,122.721551034537,13.831198444676
$GNGGA,171902.00,3356.28672517,N,11951.08399843,W,2,11,1.0,8.038,M,-37.384,M,7.0,0135*65
$PYRTM,2024,122.721551034537,13.831198444676
$GNHDT,80.857,T*19
$PYRTM,2024,122.721556768542,13.831204178681
$GNGGA,171902.50,3356.28689388,N,11951.08268052,W,2,11,1.0,7.926,M,-37.384,M,7.4,0135*6E
$PYRTM,2024,122.721556768542,13.831204178681
$GNHDT,81.040,T*16
$PYRTM,2024,122.721562609491,13.831210019630
$GNGGA,171903.00,3356.28703639,N,11951.08136430,W,2,11,1.0,7.780,M,-37.384,M,7.0,0135*68
$PYRTM,2024,122.721562609491,13.831210019630
$GNHDT,81.094,T*1F
$PYRTM,2024,122.721568344861,13.831215755000
$GNGGA,171903.50,3356.28717673,N,11951.08004099,W,2,11,1.0,7.668,M,-37.384,M,7.4,0135*62
$PYRTM,2024,122.721568344861,13.831215755000
$GNHDT,81.263,T*15
$PYRTM,2024,122.721574185301,13.831221595440
$GNGGA,171904.00,3356.28731753,N,11951.07872164,W,2,11,1.0,7.612,M,-37.384,M,7.0,0135*6B
$PYRTM,2024,122.721574185301,13.831221595440
$GNHDT,81.277,T*10
$PYRTM,2024,122.721579918102,13.831227328241
$GNGGA,171904.50,3356.28746508,N,11951.07739535,W,2,11,1.0,7.621,M,-37.384,M,7.4,0135*66
$PYRTM,2024,122.721579918102,13.831227328241
$GNHDT,81.548,T*1B
$PYRTM,2024,122.721585756771,13.831233166910
$GNGGA,171905.00,3356.28760973,N,11951.07607266,W,2,11,1.0,7.697,M,-37.384,M,4.0,0135*61
$PYRTM,2024,122.721585756771,13.831233166910
$GNHDT,81.648,T*18
$PYRTM,2024,122.721591494120,13.831238904259
$GNGGA,171905.50,3356.28776593,N,11951.07473748,W,2,11,1.0,7.835,M,-37.384,M,4.4,0135*6B
$PYRTM,2024,122.721591494120,13.831238904259
$GNHDT,81.854,T*1B
$PYRTM,2024,122.721597331412,13.831244741551
$GNGGA,171906.00,3356.28792920,N,11951.07338116,W,2,11,1.0,8.011,M,-37.385,M,5.0,0135*63
$PYRTM,2024,122.721597331412,13.831244741551
$GNHDT,81.912,T*18
$PYRTM,2024,122.721603065417,13.831250475556
$GNGGA,171906.50,3356.28812647,N,11951.07198081,W,2,11,1.0,8.166,M,-37.385,M,5.4,0135*6D
$PYRTM,2024,122.721603065417,13.831250475556
$GNHDT,82.244,T*13
$PYRTM,2024,122.721608904248,13.831256314387
$GNGGA,171907.00,3356.28833341,N,11951.07056230,W,2,11,1.0,8.317,M,-37.385,M,6.0,0135*61
$PYRTM,2024,122.721608904248,13.831256314387
$GNHDT,82.270,T*14
$PYRTM,2024,122.721614639780,13.831262049919
$GNGGA,171907.50,3356.28852972,N,11951.06915008,W,2,11,1.0,8.441,M,-37.385,M,6.4,0135*6F
$PYRTM,2024,122.721614639780,13.831262049919
$GNHDT,82.698,T*16
$PYRTM,2024,122.721620477650,13.831267887801
$GNGGA,171908.00,3356.28872432,N,11951.06773479,W,2,11,1.0,8.515,M,-37.385,M,7.0,0135*67
$PYRTM,2024,122.721620477650,13.831267887801
$GNHDT,82.815,T*1D
$PYRTM,2024,122.721626215648,13.831273625787
$GNGGA,171908.50,3356.28890471,N,11951.06633973,W,2,11,1.0,8.550,M,-37.385,M,7.4,0135*6E
$PYRTM,2024,122.721626215648,13.831273625787
$GNHDT,83.213,T*10
$PYRTM,2024,122.721632052593,13.831279462731
$GNGGA,171909.00,3356.28908602,N,11951.06495711,W,2,11,1.0,8.533,M,-37.385,M,7.0,0135*69
$PYRTM,2024,122.721632052593,13.831279462731
$GNHDT,83.466,T*14
$PYRTM,2024,122.721637792870,13.831285203009
$GNGGA,171909.50,3356.28926845,N,11951.06359780,W,2,11,1.0,8.491,M,-37.385,M,7.4,0135*6F
$PYRTM,2024,122.721637792870,13.831285203009
$GNHDT,83.409,T*1D
$PYRTM,2024,122.721643630347,13.831291040486
$GNGGA,171910.00,3356.28945806,N,11951.06225119,W,2,11,1.0,8.414,M,-37.385,M,7.0,0135*65
$PYRTM,2024,122.721643630347,13.831291040486
$GNHDT,83.543,T*12
$PYRTM,2024,122.721649359699,13.831296769838
$GNGGA,171910.50,3356.28963601,N,11951.06092496,W,2,11,1.0,8.322,M,-37.385,M,7.4,0135*67
$PYRTM,2024,122.721649359699,13.831296769838
$GNHDT,83.543,T*12
$PYRTM,2024,122.721655201690,13.831302611829
$GNGGA,171911.00,3356.28980404,N,11951.05960589,W,2,11,1.0,8.188,M,-37.385,M,4.0,0135*64
$PYRTM,2024,122.721655201690,13.831302611829
$GNHDT,83.416,T*13
$PYRTM,2024,122.721660935093,13.831308345231
$GNGGA,171911.50,3356.28996381,N,11951.05828012,W,2,11,1.0,8.046,M,-37.385,M,4.4,0135*61
$PYRTM,2024,122.721660935093,13.831308345231
$GNHDT,83.462,T*10
$PYRTM,2024,122.721666778021,13.831314188160
$GNGGA,171912.00,3356.29010927,N,11951.05694997,W,2,11,1.0,7.915,M,-37.385,M,5.0,0135*6F
$PYRTM,2024,122.721666778021,13.831314188160
$GNHDT,83.071,T*16
$PYRTM,2024,122.721672507245,13.831319917384
$GNGGA,171912.50,3356.29024064,N,11951.05562393,W,2,11,1.0,7.831,M,-37.385,M,5.4,0135*64
$PYRTM,2024,122.721672507245,13.831319917384
$GNHDT,82.947,T*1B
$PYRTM,2024,122.721678349826,13.831325759965
$GNGGA,171913.00,3356.29036495,N,11951.05430049,W,2,11,1.0,7.802,M,-37.385,M,6.0,0135*6C
$PYRTM,2024,122.721678349826,13.831325759965
$GNHDT,82.793,T*1C
$PYRTM,2024,122.721684083229,13.831331493368
$GNGGA,171913.50,3356.29050022,N,11951.05297483,W,2,11,1.0,7.827,M,-37.385,M,6.4,0135*6B
$PYRTM,2024,122.721684083229,13.831331493368
$GNHDT,82.662,T*13
$PYRTM,2024,122.721689921725,13.831337331863
$GNGGA,171914.00,3356.29064949,N,11951.05164709,W,2,11,1.0,7.889,M,-37.385,M,7.0,0135*65
$PYRTM,2024,122.721689921725,13.831337331863
$GNHDT,82.655,T*17
$PYRTM,2024,122.721695660440,13.831343070579
$GNGGA,171914.50,3356.29080766,N,11951.05031679,W,2,11,1.0,7.971,M,-37.385,M,7.4,0135*6C
$PYRTM,2024,122.721695660440,13.831343070579
$GNHDT,82.562,T*10
$PYRTM,2024,122.721701494734,13.831348904873
$GNGGA,171915.00,3356.29094258,N,11951.04900480,W,2,11,1.0,8.039,M,-37.385,M,7.0,0135*65
$PYRTM,2024,122.721701494734,13.831348904873
$GNHDT,82.851,T*1D
$PYRTM,2024,122.721707232789,13.831354642940
$GNGGA,171915.50,3356.29105177,N,11951.04768679,W,2,11,1.0,8.070,M,-37.385,M,7.4,0135*6A
$PYRTM,2024,122.721707232789,13.831354642940
$GNHDT,83.188,T*11
$PYRTM,2024,122.721713070833,13.831360480972
$GNGGA,171916.00,3356.29112532,N,11951.04634763,W,2,11,1.0,8.034,M,-37.385,M,7.0,0135*69
$PYRTM,2024,122.721713070833,13.831360480972
$GNHDT,83.660,T*10
$PYRTM,2024,122.721718804178,13.831366214317
$GNGGA,171916.50,3356.29119295,N,11951.04499100,W,2,11,1.0,7.947,M,-37.385,M,7.4,0135*6D
$PYRTM,2024,122.721718804178,13.831366214317
$GNHDT,84.028,T*1D
$PYRTM,2024,122.721724650903,13.831372061053
$GNGGA,171917.00,3356.29125699,N,11951.04362675,W,2,11,1.0,7.839,M,-37.385,M,4.0,0135*67
$PYRTM,2024,122.721724650903,13.831372061053
$GNHDT,84.480,T*1B
$PYRTM,2024,122.721730381343,13.831377791481
$GNGGA,171917.50,3356.29133658,N,11951.04225439,W,2,11,1.0,7.758,M,-37.385,M,4.4,0135*6C
$PYRTM,2024,122.721730381343,13.831377791481
$GNHDT,84.771,T*16
$PYRTM,2024,122.721736223148,13.831383633287
$GNGGA,171918.00,3356.29143955,N,11951.04088189,W,2,11,1.0,7.741,M,-37.385,M,5.0,0135*65
$PYRTM,2024,122.721736223148,13.831383633287
$GNHDT,85.240,T*10
$PYRTM,2024,122.721741954537,13.831389364676
$GNGGA,171918.50,3356.29157406,N,11951.03950603,W,2,11,1.0,7.794,M,-37.385,M,5.4,0135*6C
$PYRTM,2024,122.721741954537,13.831389364676
$GNHDT,85.203,T*17
$PYRTM,2024,122.721747793611,13.831395203750
$GNGGA,171919.00,3356.29172846,N,11951.03812395,W,2,11,1.0,7.889,M,-37.385,M,6.0,0135*6E
$PYRTM,2024,122.721747793611,13.831395203750
$GNHDT,85.236,T*11
$PYRTM,2024,122.721753529259,13.831400939398
$GNGGA,171919.50,3356.29190219,N,11951.03673166,W,2,11,1.0,8.005,M,-37.385,M,6.4,0135*67
$PYRTM,2024,122.721753529259,13.831400939398
$GNHDT,85.111,T*17
$PYRTM,2024,122.721759367454,13.831406777593
$GNGGA,171920.00,3356.29207898,N,11951.03533173,W,2,11,1.0,8.110,M,-37.385,M,7.0,0135*65
$PYRTM,2024,122.721759367454,13.831406777593
$GNHDT,84.791,T*18
$PYRTM,2024,122.721765102789,13.831412512928
$GNGGA,171920.50,3356.29225987,N,11951.03392481,W,2,11,1.0,8.186,M,-37.385,M,7.4,0135*61
$PYRTM,2024,122.721765102789,13.831412512928
$GNHDT,84.522,T*12
$PYRTM,2024,122.721770941400,13.831418351539
$GNGGA,171921.00,3356.29244916,N,11951.03251159,W,2,11,1.0,8.233,M,-37.385,M,7.0,0135*6D
$PYRTM,2024,122.721770941400,13.831418351539
$GNHDT,84.219,T*1D
$PYRTM,2024,122.721776675961,13.831424086100
$GNGGA,171921.50,3356.29261843,N,11951.03112028,W,2,11,1.0,8.265,M,-37.385,M,7.4,0135*6A
$PYRTM,2024,122.721776675961,13.831424086100
$GNHDT,83.753,T*11
$PYRTM,2024,122.721782512870,13.831429923009
$GNGGA,171922.00,3356.29276465,N,11951.02974483,W,2,11,1.0,8.264,M,-37.385,M,7.0,0135*6B
$PYRTM,2024,122.721782512870,13.831429923009
$GNHDT,83.514,T*10
$PYRTM,2024,122.721788248426,13.831435658565
$GNGGA,171922.50,3356.29289187,N,11951.02837771,W,2,11,1.0,8.235,M,-37.385,M,7.4,0135*6F
$PYRTM,2024,122.721788248426,13.831435658565
$GNHDT,83.287,T*1D
$PYRTM,2024,122.721794090370,13.831441500509
$GNGGA,171923.00,3356.29300422,N,11951.02702099,W,2,11,1.0,8.174,M,-37.385,M,4.0,0135*68
$PYRTM,2024,122.721794090370,13.831441500509
$GNHDT,83.036,T*15
$PYRTM,2024,122.721799826354,13.831447236493
$GNGGA,171923.50,3356.29310595,N,11951.02567950,W,2,11,1.0,8.104,M,-37.385,M,4.4,0135*6F
$PYRTM,2024,122.721799826354,13.831447236493
$GNHDT,82.712,T*15
$PYRTM,2024,122.721805663785,13.831453073924
$GNGGA,171924.00,3356.29319937,N,11951.02436132,W,2,11,1.0,8.029,M,-37.385,M,5.0,0135*62
$PYRTM,2024,122.721805663785,13.831453073924
$GNHDT,82.852,T*1E
$PYRTM,2024,122.721811400984,13.831458811123
$GNGGA,171924.50,3356.29330823,N,11951.02305133,W,2,11,1.0,7.987,M,-37.385,M,5.4,0135*68
$PYRTM,2024,122.721811400984,13.831458811123
$GNHDT,82.863,T*1C
$PYRTM,2024,122.721817236887,13.831464647025
$GNGGA,171925.00,3356.29343215,N,11951.02174418,W,2,11,1.0,7.962,M,-37.385,M,6.0,0135*63
$PYRTM,2024,122.721817236887,13.831464647025
$GNHDT,83.222,T*12
$PYRTM,2024,122.721822971435,13.831470381574
$GNGGA,171925.50,3356.29356503,N,11951.02043779,W,2,11,1.0,7.966,M,-37.385,M,6.4,0135*63
$PYRTM,2024,122.721822971435,13.831470381574
$GNHDT,83.486,T*1A
$PYRTM,2024,122.721828811169,13.831476221308
$GNGGA,171926.00,3356.29366549,N,11951.01916538,W,2,11,1.0,7.994,M,-37.385,M,7.0,0135*6D
$PYRTM,2024,122.721828811169,13.831476221308
$GNHDT,83.890,T*11
$PYRTM,2024,122.721834551238,13.831481961377
$GNGGA,171926.50,3356.29379067,N,11951.01785853,W,2,11,1.0,8.015,M,-37.385,M,7.4,0135*60
$PYRTM,2024,122.721834551238,13.831481961377
$GNHDT,84.227,T*10
$PYRTM,2024,122.721840384039,13.831487794178
$GNGGA,171927.00,3356.29389876,N,11951.01653922,W,2,11,1.0,8.028,M,-37.385,M,7.0,0135*64
$PYRTM,2024,122.721840384039,13.831487794178
$GNHDT,84.821,T*1C
$PYRTM,2024,122.721846120463,13.831493530602
$GNGGA,171927.50,3356.29401492,N,11951.01517640,W,2,11,1.0,7.988,M,-37.385,M,7.4,0135*60
$PYRTM,2024,122.721846120463,13.831493530602
$GNHDT,85.113,T*15
$PYRTM,2024,122.721851962211,13.831499372350
$GNGGA,171928.00,3356.29410307,N,11951.01380173,W,2,11,1.0,7.942,M,-37.385,M,7.0,0135*6C
$PYRTM,2024,122.721851962211,13.831499372350
$GNHDT,85.436,T*17
$PYRTM,2024,122.721857696123,13.831505106262
$GNGGA,171928.50,3356.29419791,N,11951.01240681,W,2,11,1.0,7.907,M,-37.385,M,7.4,0135*69
$PYRTM,2024,122.721857696123,13.831505106262
$GNHDT,85.715,T*15
$PYRTM,2024,122.721863535139,13.831510945278
$GNGGA,171929.00,3356.29430817,N,11951.01100563,W,2,11,1.0,7.915,M,-37.385,M,4.0,0135*6B
$PYRTM,2024,122.721863535139,13.831510945278
$GNHDT,85.665,T*13
$PYRTM,2024,122.721869271181,13.831516681319
$GNGGA,171929.50,3356.29444659,N,11951.00960293,W,2,11,1.0,7.978,M,-37.385,M,4.4,0135*61
$PYRTM,2024,122.721869271181,13.831516681319
$GNHDT,85.453,T*14
$PYRTM,2024,122.721875109039,13.831522519178
$GNGGA,171930.00,3356.29461403,N,11951.00819883,W,2,11,1.0,8.085,M,-37.385,M,5.0,0135*63
$PYRTM,2024,122.721875109039,13.831522519178
$GNHDT,85.311,T*15
$PYRTM,2024,122.721880848391,13.831528258519
$GNGGA,171930.50,3356.29480125,N,11951.00679415,W,2,11,1.0,8.210,M,-37.385,M,5.4,0135*69
$PYRTM,2024,122.721880848391,13.831528258519
$GNHDT,84.804,T*1B
$PYRTM,2024,122.721886680405,13.831534090544
$GNGGA,171931.00,3356.29499003,N,11951.00538919,W,2,11,1.0,8.301,M,-37.385,M,6.0,0135*61
$PYRTM,2024,122.721886680405,13.831534090544
$GNHDT,84.441,T*16
$PYRTM,2024,122.721892419572,13.831539829711
$GNGGA,171931.50,3356.29516428,N,11951.00398415,W,2,11,1.0,8.345,M,-37.385,M,6.4,0135*66
$PYRTM,2024,122.721892419572,13.831539829711
$GNHDT,84.278,T*1A
$PYRTM,2024,122.721898255625,13.831545665764
$GNGGA,171932.00,3356.29531582,N,11951.00258827,W,2,11,1.0,8.314,M,-37.385,M,7.0,0135*65
$PYRTM,2024,122.721898255625,13.831545665764
$GNHDT,83.891,T*10
$PYRTM,2024,122.721903997130,13.831551407269
$GNGGA,171932.50,3356.29543512,N,11951.00121109,W,2,11,1.0,8.235,M,-37.385,M,7.4,0135*62
$PYRTM,2024,122.721903997130,13.831551407269
$GNHDT,83.616,T*11
$PYRTM,2024,122.721909832211,13.831557242350
$GNGGA,171933.00,3356.29553587,N,11950.99984762,W,2,11,1.0,8.125,M,-37.385,M,7.0,0135*60
$PYRTM,2024,122.721909832211,13.831557242350
$GNHDT,83.202,T*10
$PYRTM,2024,122.721915564132,13.831562974271
$GNGGA,171933.50,3356.29562075,N,11950.99850532,W,2,11,1.0,8.031,M,-37.385,M,7.4,0135*60
$PYRTM,2024,122.721915564132,13.831562974271
$GNHDT,83.311,T*13
$PYRTM,2024,122.721921403900,13.831568814039
$GNGGA,171934.00,3356.29570764,N,11950.99718197,W,2,11,1.0,7.956,M,-37.385,M,7.0,0135*6D
$PYRTM,2024,122.721921403900,13.831568814039
$GNHDT,83.327,T*16
$PYRTM,2024,122.721927140336,13.831574550475
$GNGGA,171934.50,3356.29579941,N,11950.99586147,W,2,11,1.0,7.913,M,-37.385,M,7.4,0135*65
$PYRTM,2024,122.721927140336,13.831574550475
$GNHDT,83.552,T*12
$PYRTM,2024,122.721932976563,13.831580386701
$GNGGA,171935.00,3356.29589983,N,11950.99453620,W,2,11,1.0,7.881,M,-37.385,M,4.0,0135*62
$PYRTM,2024,122.721932976563,13.831580386701
$GNHDT,83.746,T*15
$PYRTM,2024,122.721938716447,13.831586126586
$GNGGA,171935.50,3356.29601293,N,11950.99320920,W,2,11,1.0,7.860,M,-37.385,M,4.4,0135*69
$PYRTM,2024,122.721938716447,13.831586126586
$GNHDT,83.962,T*1D
$PYRTM,2024,122.721944558461,13.831591968600
$GNGGA,171936.00,3356.29613849,N,11950.99188183,W,2,11,1.0,7.827,M,-37.385,M,5.0,0135*66
$PYRTM,2024,122.721944558461,13.831591968600
$GNHDT,84.427,T*16
$PYRTM,2024,122.721950287627,13.831597697766
$GNGGA,171936.50,3356.29626305,N,11950.99055450,W,2,11,1.0,7.807,M,-37.385,M,5.4,0135*6A
$PYRTM,2024,122.721950287627,13.831597697766
$GNHDT,84.835,T*19
$PYRTM,2024,122.721956127164,13.831603537303
$GNGGA,171937.00,3356.29636623,N,11950.98923853,W,2,11,1.0,7.795,M,-37.385,M,6.0,0135*6B
$PYRTM,2024,122.721956127164,13.831603537303
$GNHDT,85.220,T*16
$PYRTM,2024,122.721961865903,13.831609276042
$GNGGA,171937.50,3356.29645992,N,11950.98791405,W,2,11,1.0,7.797,M,-37.385,M,6.4,0135*61
$PYRTM,2024,122.721961865903,13.831609276042
$GNHDT,85.512,T*10
$PYRTM,2024,122.721967704144,13.831615114282
$GNGGA,171938.00,3356.29653853,N,11950.98658190,W,2,11,1.0,7.799,M,-37.385,M,7.0,0135*66
$PYRTM,2024,122.721967704144,13.831615114282
$GNHDT,85.692,T*1B
$PYRTM,2024,122.721973434444,13.831620844595
$GNGGA,171938.50,3356.29662901,N,11950.98523706,W,2,11,1.0,7.811,M,-37.385,M,7.4,0135*6A
$PYRTM,2024,122.721973434444,13.831620844595
$GNHDT,85.832,T*1F
$PYRTM,2024,122.721979276968,13.831626687118
$GNGGA,171939.00,3356.29672553,N,11950.98389140,W,2,11,1.0,7.844,M,-37.385,M,7.0,0135*62
$PYRTM,2024,122.721979276968,13.831626687118
$GNHDT,85.740,T*15
$PYRTM,2024,122.721985012269,13.831632422419
$GNGGA,171939.50,3356.29683627,N,11950.98253886,W,2,11,1.0,7.895,M,-37.385,M,7.4,0135*64
$PYRTM,2024,122.721985012269,13.831632422419
$GNHDT,85.735,T*17
$PYRTM,2024,122.721990846759,13.831638256898
$GNGGA,171940.00,3356.29694350,N,11950.98118208,W,2,11,1.0,7.956,M,-37.385,M,7.0,0135*66
$PYRTM,2024,122.721990846759,13.831638256898
$GNHDT,85.606,T*16
$PYRTM,2024,122.721996584201,13.831643994340
$GNGGA,171940.50,3356.29705396,N,11950.97981203,W,2,11,1.0,8.021,M,-37.385,M,7.4,0135*6E
$PYRTM,2024,122.721996584201,13.831643994340
$GNHDT,85.275,T*16
$PYRTM,2024,122.722002423137,13.831649833275
$GNGGA,171941.00,3356.29716161,N,11950.97842952,W,2,11,1.0,8.086,M,-37.385,M,4.0,0135*69
$PYRTM,2024,122.722002423137,13.831649833275
$GNHDT,84.946,T*1C
$PYRTM,2024,122.722008159062,13.831655569201
$GNGGA,171941.50,3356.29727281,N,11950.97703859,W,2,11,1.0,8.151,M,-37.385,M,4.4,0135*6C
$PYRTM,2024,122.722008159062,13.831655569201
$GNHDT,84.621,T*12
$PYRTM,2024,122.722014000289,13.831661410440
$GNGGA,171942.00,3356.29739355,N,11950.97563576,W,2,11,1.0,8.222,M,-37.385,M,5.0,0135*6B
$PYRTM,2024,122.722014000289,13.831661410440
$GNHDT,84.125,T*11
$PYRTM,2024,122.722019732975,13.831667143113
$GNGGA,171942.50,3356.29752770,N,11950.97422999,W,2,11,1.0,8.283,M,-37.385,M,5.4,0135*66
$PYRTM,2024,122.722019732975,13.831667143113
$GNHDT,83.977,T*19
$PYRTM,2024,122.722025569850,13.831672979988
$GNGGA,171943.00,3356.29767004,N,11950.97282524,W,2,11,1.0,8.336,M,-37.385,M,6.0,0135*6E
$PYRTM,2024,122.722025569850,13.831672979988
$GNHDT,83.706,T*11
$PYRTM,2024,122.722031305312,13.831678715463
$GNGGA,171943.50,3356.29780144,N,11950.97143332,W,2,11,1.0,8.387,M,-37.385,M,6.4,0135*66
$PYRTM,2024,122.722031305312,13.831678715463
$GNHDT,83.731,T*15
$PYRTM,2024,122.722037145417,13.831684555556
$GNGGA,171944.00,3356.29792212,N,11950.97004662,W,2,11,1.0,8.409,M,-37.385,M,7.0,0135*61
$PYRTM,2024,122.722037145417,13.831684555556
$GNHDT,83.780,T*1F
$PYRTM,2024,122.722042878831,13.831690288970
$GNGGA,171944.50,3356.29802916,N,11950.96867169,W,2,11,1.0,8.398,M,-37.385,M,7.4,0135*66
$PYRTM,2024,122.722042878831,13.831690288970
$GNHDT,83.964,T*1B
$PYRTM,2024,122.722048720255,13.831696130394
$GNGGA,171945.00,3356.29814062,N,11950.96730070,W,2,11,1.0,8.329,M,-37.385,M,7.0,0135*65
$PYRTM,2024,122.722048720255,13.831696130394
$GNHDT,83.963,T*1C
$PYRTM,2024,122.722054459282,13.831701869421
$GNGGA,171945.50,3356.29825606,N,11950.96593854,W,2,11,1.0,8.225,M,-37.385,M,7.4,0135*6A
$PYRTM,2024,122.722054459282,13.831701869421
$GNHDT,84.281,T*1C
$PYRTM,2024,122.722060298495,13.831707708634
$GNGGA,171946.00,3356.29837810,N,11950.96458577,W,2,11,1.0,8.065,M,-37.385,M,7.0,0135*6E
$PYRTM,2024,122.722060298495,13.831707708634
$GNHDT,84.619,T*19
$PYRTM,2024,122.722066027697,13.831713437847
$GNGGA,171946.50,3356.29849909,N,11950.96324342,W,2,11,1.0,7.898,M,-37.385,M,7.4,0135*66
$PYRTM,2024,122.722066027697,13.831713437847
$GNHDT,84.864,T*1D
$PYRTM,2024,122.722071864560,13.831719274699
$GNGGA,171947.00,3356.29862187,N,11950.96190986,W,2,11,1.0,7.738,M,-37.386,M,4.0,0135*6B
$PYRTM,2024,122.722071864560,13.831719274699
$GNHDT,84.964,T*1C
$PYRTM,2024,122.722077603218,13.831725013356
$GNGGA,171947.50,3356.29874728,N,11950.96059040,W,2,11,1.0,7.636,M,-37.386,M,4.4,0135*66
$PYRTM,2024,122.722077603218,13.831725013356
$GNHDT,85.025,T*11
$PYRTM,2024,122.722083443449,13.831730853588
$GNGGA,171948.00,3356.29886990,N,11950.95929064,W,2,11,1.0,7.618,M,-37.386,M,5.0,0135*6E
$PYRTM,2024,122.722083443449,13.831730853588
$GNHDT,85.072,T*13
$PYRTM,2024,122.722089176134,13.831736586273
$GNGGA,171948.50,3356.29902771,N,11950.95796996,W,2,11,1.0,7.667,M,-37.386,M,5.4,0135*65
$PYRTM,2024,122.722089176134,13.831736586273
$GNHDT,84.946,T*1C
$PYRTM,2024,122.722095021620,13.831742431759
$GNGGA,171949.00,3356.29918784,N,11950.95663831,W,2,11,1.0,7.732,M,-37.386,M,6.0,0135*61
$PYRTM,2024,122.722095021620,13.831742431759
$GNHDT,84.698,T*10
$PYRTM,2024,122.722100752535,13.831748162674
$GNGGA,171949.50,3356.29933175,N,11950.95528712,W,2,11,1.0,7.794,M,-37.386,M,6.4,0135*6F
$PYRTM,2024,122.722100752535,13.831748162674
$GNHDT,84.404,T*17
$PYRTM,2024,122.722106589583,13.831753999722
$GNGGA,171950.00,3356.29944641,N,11950.95391182,W,2,11,1.0,7.816,M,-37.386,M,7.0,0135*69
$PYRTM,2024,122.722106589583,13.831753999722
$GNHDT,84.114,T*13
$PYRTM,2024,122.722112327766,13.831759737917
$GNGGA,171950.50,3356.29953710,N,11950.95251952,W,2,11,1.0,7.812,M,-37.386,M,7.4,0135*67
$PYRTM,2024,122.722112327766,13.831759737917
$GNHDT,84.006,T*11
$PYRTM,2024,122.722118162778,13.831765572917
$GNGGA,171951.00,3356.29961635,N,11950.95111762,W,2,11,1.0,7.810,M,-37.386,M,7.0,0135*68
$PYRTM,2024,122.722118162778,13.831765572917
$GNHDT,83.777,T*17
$PYRTM,2024,122.722123896898,13.831771307037
$GNGGA,171951.50,3356.29970432,N,11950.94971888,W,2,11,1.0,7.849,M,-37.386,M,7.4,0135*64
$PYRTM,2024,122.722123896898,13.831771307037
$GNHDT,83.454,T*15
$PYRTM,2024,122.722129741620,13.831777151759
$GNGGA,171952.00,3356.29980768,N,11950.94832987,W,2,11,1.0,7.929,M,-37.386,M,7.0,0135*6A
$PYRTM,2024,122.722129741620,13.831777151759
$GNHDT,83.418,T*1D
$PYRTM,2024,122.722135473148,13.831782883299
$GNGGA,171952.50,3356.29992107,N,11950.94694963,W,2,11,1.0,8.040,M,-37.386,M,7.4,0135*66
$PYRTM,2024,122.722135473148,13.831782883299
$GNHDT,83.593,T*1F
$PYRTM,2024,122.722141316042,13.831788726181
$GNGGA,171953.00,3356.30003152,N,11950.94557329,W,2,11,1.0,8.115,M,-37.386,M,4.0,0135*65
$PYRTM,2024,122.722141316042,13.831788726181
$GNHDT,83.880,T*10
$PYRTM,2024,122.722147046366,13.831794456505
$GNGGA,171953.50,3356.30013435,N,11950.94420032,W,2,11,1.0,8.162,M,-37.386,M,4.4,0135*69
$PYRTM,2024,122.722147046366,13.831794456505
$GNHDT,83.807,T*1F
$PYRTM,2024,122.722152889931,13.831800300069
$GNGGA,171954.00,3356.30023096,N,11950.94283536,W,2,11,1.0,8.135,M,-37.386,M,5.0,0135*6C
$PYRTM,2024,122.722152889931,13.831800300069
$GNHDT,84.161,T*11
$PYRTM,2024,122.722158619595,13.831806029734
$GNGGA,171954.50,3356.30032162,N,11950.94147844,W,2,11,1.0,8.063,M,-37.386,M,5.4,0135*66
$PYRTM,2024,122.722158619595,13.831806029734
$GNHDT,84.591,T*1A
$PYRTM,2024,122.722164461944,13.831811872083
$GNGGA,171955.00,3356.30041422,N,11950.94013088,W,2,11,1.0,7.954,M,-37.386,M,6.0,0135*6A
$PYRTM,2024,122.722164461944,13.831811872083
$GNHDT,84.897,T*11
$PYRTM,2024,122.722170196157,13.831817606296
$GNGGA,171955.50,3356.30050909,N,11950.93879505,W,2,11,1.0,7.826,M,-37.386,M,6.4,0135*68
$PYRTM,2024,122.722170196157,13.831817606296
$GNHDT,85.259,T*18
$PYRTM,2024,122.722176033009,13.831823443148
$GNGGA,171956.00,3356.30061343,N,11950.93747113,W,2,11,1.0,7.699,M,-37.386,M,7.0,0135*66
$PYRTM,2024,122.722176033009,13.831823443148
$GNHDT,85.481,T*1B
$PYRTM,2024,122.722181769468,13.831829179606
$GNGGA,171956.50,3356.30071302,N,11950.93615791,W,2,11,1.0,7.604,M,-37.386,M,7.4,0135*6D
$PYRTM,2024,122.722181769468,13.831829179606
$GNHDT,85.635,T*16
$PYRTM,2024,122.722187608102,13.831835018241
$GNGGA,171957.00,3356.30081484,N,11950.93484406,W,2,11,1.0,7.529,M,-37.386,M,7.0,0135*60
$PYRTM,2024,122.722187608102,13.831835018241
$GNHDT,85.742,T*17
$PYRTM,2024,122.722193342280,13.831840752431
$GNGGA,171957.50,3356.30093507,N,11950.93351268,W,2,11,1.0,7.492,M,-37.386,M,7.4,0135*68
$PYRTM,2024,122.722193342280,13.831840752431
$GNHDT,85.573,T*17
$PYRTM,2024,122.722199184630,13.831846594769
$GNGGA,171958.00,3356.30106016,N,11950.93217614,W,2,11,1.0,7.511,M,-37.386,M,7.0,0135*68
$PYRTM,2024,122.722199184630,13.831846594769
$GNHDT,85.264,T*16
$PYRTM,2024,122.722204916088,13.831852326227
$GNGGA,171958.50,3356.30120388,N,11950.93082345,W,2,11,1.0,7.575,M,-37.386,M,7.4,0135*64
$PYRTM,2024,122.722204916088,13.831852326227
$GNHDT,84.867,T*1E
$PYRTM,2024,122.722210761065,13.831858171204
$GNGGA,171959.00,3356.30136752,N,11950.92944768,W,2,11,1.0,7.678,M,-37.386,M,4.0,0135*64
$PYRTM,2024,122.722210761065,13.831858171204
$GNHDT,84.670,T*16
$PYRTM,2024,122.722216491019,13.831863901157
$GNGGA,171959.50,3356.30152312,N,11950.92807761,W,2,11,1.0,7.815,M,-37.386,M,4.4,0135*6D
$PYRTM,2024,122.722216491019,13.831863901157
$GNHDT,84.276,T*14
$PYRTM,2024,122.722222336262,13.831869746400
$GNGGA,172000.00,3356.30166706,N,11950.92670163,W,2,11,1.0,7.981,M,-37.386,M,5.0,0135*6B
$PYRTM,2024,122.722222336262,13.831869746400
$GNHDT,83.978,T*16
$PYRTM,2024,122.722228066215,13.831875476366
$GNGGA,172000.50,3356.30178297,N,11950.92532360,W,2,11,1.0,8.131,M,-37.386,M,5.4,0135*60
$PYRTM,2024,122.722228066215,13.831875476366
$GNHDT,83.974,T*1A
$PYRTM,2024,122.722233904919,13.831881315058
$GNGGA,172001.00,3356.30187624,N,11950.92393052,W,2,11,1.0,8.224,M,-37.386,M,6.0,0135*67
$PYRTM,2024,122.722233904919,13.831881315058
$GNHDT,83.802,T*1A
$PYRTM,2024,122.722239637847,13.831887047986
$GNGGA,172001.50,3356.30194057,N,11950.92254029,W,2,11,1.0,8.250,M,-37.386,M,6.4,0135*63
$PYRTM,2024,122.722239637847,13.831887047986
$GNHDT,83.830,T*1B
$PYRTM,2024,122.722245483102,13.831892893241
$GNGGA,172002.00,3356.30199479,N,11950.92114756,W,2,11,1.0,8.190,M,-37.386,M,7.0,0135*62
$PYRTM,2024,122.722245483102,13.831892893241
$GNHDT,83.997,T*17
$PYRTM,2024,122.722251212650,13.831898622801
$GNGGA,172002.50,3356.30205617,N,11950.91975210,W,2,11,1.0,8.093,M,-37.386,M,7.4,0135*66
$PYRTM,2024,122.722251212650,13.831898622801
$GNHDT,84.089,T*16
$PYRTM,2024,122.722257053206,13.831904463345
$GNGGA,172003.00,3356.30213629,N,11950.91836590,W,2,11,1.0,7.986,M,-37.386,M,7.0,0135*67
$PYRTM,2024,122.722257053206,13.831904463345
$GNHDT,84.275,T*17
$PYRTM,2024,122.722262787558,13.831910197697
$GNGGA,172003.50,3356.30223889,N,11950.91699657,W,2,11,1.0,7.939,M,-37.386,M,7.4,0135*66
$PYRTM,2024,122.722262787558,13.831910197697
$GNHDT,84.624,T*17
$PYRTM,2024,122.722268627778,13.831916037928
$GNGGA,172004.00,3356.30237293,N,11950.91563925,W,2,11,1.0,7.937,M,-37.386,M,7.0,0135*66
$PYRTM,2024,122.722268627778,13.831916037928
$GNHDT,84.815,T*1B
$PYRTM,2024,122.722274360093,13.831921770243
$GNGGA,172004.50,3356.30252147,N,11950.91428178,W,2,11,1.0,7.968,M,-37.386,M,7.4,0135*6A
$PYRTM,2024,122.722274360093,13.831921770243
$GNHDT,84.862,T*1B
$PYRTM,2024,122.722280199850,13.831927609988
$GNGGA,172005.00,3356.30267139,N,11950.91291601,W,2,11,1.0,7.985,M,-37.386,M,4.0,0135*68
$PYRTM,2024,122.722280199850,13.831927609988
$GNHDT,85.044,T*16
$PYRTM,2024,122.722285935081,13.831933345220
$GNGGA,172005.50,3356.30281522,N,11950.91154499,W,2,11,1.0,7.951,M,-37.386,M,4.4,0135*6F
$PYRTM,2024,122.722285935081,13.831933345220
$GNHDT,85.256,T*17
$PYRTM,2024,122.722291773681,13.831939183819
$GNGGA,172006.00,3356.30295083,N,11950.91017007,W,2,11,1.0,7.852,M,-37.386,M,5.0,0135*60
$PYRTM,2024,122.722291773681,13.831939183819
$GNHDT,85.251,T*10
$PYRTM,2024,122.722297512245,13.831944922384
$GNGGA,172006.50,3356.30307974,N,11950.90879896,W,2,11,1.0,7.735,M,-37.386,M,5.4,0135*65
$PYRTM,2024,122.722297512245,13.831944922384
$GNHDT,85.310,T*14
$PYRTM,2024,122.722303349815,13.831950759954
$GNGGA,172007.00,3356.30320705,N,11950.90744243,W,2,11,1.0,7.629,M,-37.386,M,6.0,0135*64
$PYRTM,2024,122.722303349815,13.831950759954
$GNHDT,85.169,T*18
$PYRTM,2024,122.722309083507,13.831956493646
$GNGGA,172007.50,3356.30333182,N,11950.90610458,W,2,11,1.0,7.569,M,-37.386,M,6.4,0135*65
$PYRTM,2024,122.722309083507,13.831956493646
$GNHDT,84.890,T*16
$PYRTM,2024,122.722314926701,13.831962336840
$GNGGA,172008.00,3356.30344890,N,11950.90477918,W,2,11,1.0,7.567,M,-37.386,M,7.0,0135*64
$PYRTM,2024,122.722314926701,13.831962336840
$GNHDT,84.818,T*16
$PYRTM,2024,122.722320657616,13.831968067766
$GNGGA,172008.50,3356.30356491,N,11950.90344809,W,2,11,1.0,7.596,M,-37.386,M,7.4,0135*63
$PYRTM,2024,122.722320657616,13.831968067766
$GNHDT,84.629,T*1A
$PYRTM,2024,122.722326498113,13.831973908252
$GNGGA,172009.00,3356.30367188,N,11950.90210242,W,2,11,1.0,7.631,M,-37.386,M,7.0,0135*67
$PYRTM,2024,122.722326498113,13.831973908252
$GNHDT,84.381,T*1D
$PYRTM,2024,122.722332236713,13.831979646852
$GNGGA,172009.50,3356.30377802,N,11950.90073967,W,2,11,1.0,7.656,M,-37.386,M,7.4,0135*66
$PYRTM,2024,122.722332236713,13.831979646852
$GNHDT,84.224,T*13
$PYRTM,2024,122.722338070567,13.831985480718
$GNGGA,172010.00,3356.30389315,N,11950.89936209,W,2,11,1.0,7.683,M,-37.386,M,7.0,0135*68
$PYRTM,2024,122.722338070567,13.831985480718
$GNHDT,83.974,T*1A
$PYRTM,2024,122.722343804919,13.831991215058
$GNGGA,172010.50,3356.30402020,N,11950.89797915,W,2,11,1.0,7.727,M,-37.386,M,7.4,0135*64
$PYRTM,2024,122.722343804919,13.831991215058
$GNHDT,83.778,T*18
$PYRTM,2024,122.722349643762,13.831997053900
$GNGGA,172011.00,3356.30415161,N,11950.89659166,W,2,11,1.0,7.775,M,-37.386,M,4.0,0135*6D
$PYRTM,2024,122.722349643762,13.831997053900
$GNHDT,83.560,T*13
$PYRTM,2024,122.722355380174,13.832002790312
$GNGGA,172011.50,3356.30427009,N,11950.89520554,W,2,11,1.0,7.836,M,-37.386,M,4.4,0135*62
$PYRTM,2024,122.722355380174,13.832002790312
$GNHDT,83.605,T*13
$PYRTM,2024,122.722361218368,13.832008628507
$GNGGA,172012.00,3356.30436276,N,11950.89381669,W,2,11,1.0,7.876,M,-37.386,M,5.0,0135*6F
$PYRTM,2024,122.722361218368,13.832008628507
$GNHDT,83.518,T*1C
$PYRTM,2024,122.722366955463,13.832014365602
$GNGGA,172012.50,3356.30443160,N,11950.89242322,W,2,11,1.0,7.900,M,-37.386,M,5.4,0135*6C
$PYRTM,2024,122.722366955463,13.832014365602
$GNHDT,83.593,T*1F
$PYRTM,2024,122.722372797234,13.832020207384
$GNGGA,172013.00,3356.30448464,N,11950.89102237,W,2,11,1.0,7.890,M,-37.386,M,6.0,0135*6F
$PYRTM,2024,122.722372797234,13.832020207384
$GNHDT,83.764,T*15
$PYRTM,2024,122.722378528565,13.832025938704
$GNGGA,172013.50,3356.30453933,N,11950.88962217,W,2,11,1.0,7.849,M,-37.386,M,6.4,0135*62
$PYRTM,2024,122.722378528565,13.832025938704
$GNHDT,83.992,T*12
$PYRTM,2024,122.722384372234,13.832031782373
$GNGGA,172014.00,3356.30461129,N,11950.88822658,W,2,11,1.0,7.793,M,-37.386,M,7.0,0135*65
$PYRTM,2024,122.722384372234,13.832031782373
$GNHDT,84.300,T*14
$PYRTM,2024,122.722390101933,13.832037512072
$GNGGA,172014.50,3356.30469400,N,11950.88685413,W,2,11,1.0,7.750,M,-37.386,M,7.4,0135*63
$PYRTM,2024,122.722390101933,13.832037512072
$GNHDT,84.629,T*1A
$PYRTM,2024,122.722395945764,13.832043355903
$GNGGA,172015.00,3356.30480338,N,11950.88549710,W,2,11,1.0,7.713,M,-37.386,M,7.0,0135*6C
$PYRTM,2024,122.722395945764,13.832043355903
$GNHDT,85.002,T*14
$PYRTM,2024,122.722401675845,13.832049085984
$GNGGA,172015.50,3356.30493221,N,11950.88414848,W,2,11,1.0,7.689,M,-37.386,M,7.4,0135*6F
$PYRTM,2024,122.722401675845,13.832049085984
$GNHDT,85.288,T*14
$PYRTM,2024,122.722407519815,13.832054929954
$GNGGA,172016.00,3356.30506904,N,11950.88280755,W,2,11,1.0,7.659,M,-37.386,M,7.0,0135*69
$PYRTM,2024,122.722407519815,13.832054929954
$GNHDT,85.587,T*1C
$PYRTM,2024,122.722413248970,13.832060659109
$GNGGA,172016.50,3356.30520645,N,11950.88147617,W,2,11,1.0,7.643,M,-37.386,M,7.4,0135*62
$PYRTM,2024,122.722413248970,13.832060659109
$GNHDT,85.603,T*13
$PYRTM,2024,122.722419091539,13.832066501678
$GNGGA,172017.00,3356.30533265,N,11950.88015519,W,2,11,1.0,7.639,M,-37.386,M,4.0,0135*63
$PYRTM,2024,122.722419091539,13.832066501678
$GNHDT,85.554,T*12
$PYRTM,2024,122.722424824583,13.832072234734
$GNGGA,172017.50,3356.30546554,N,11950.87882074,W,2,11,1.0,7.642,M,-37.386,M,4.4,0135*6E
$PYRTM,2024,122.722424824583,13.832072234734
$GNHDT,85.390,T*1C
$PYRTM,2024,122.722430665069,13.832078075208
$GNGGA,172018.00,3356.30560072,N,11950.87748285,W,2,11,1.0,7.667,M,-37.386,M,5.0,0135*66
$PYRTM,2024,122.722430665069,13.832078075208
$GNHDT,85.127,T*12
$PYRTM,2024,122.722436396771,13.832083806910
$GNGGA,172018.50,3356.30574912,N,11950.87612188,W,2,11,1.0,7.694,M,-37.386,M,5.4,0135*61
$PYRTM,2024,122.722436396771,13.832083806910
$GNHDT,84.786,T*1E
$PYRTM,2024,122.722442237928,13.832089648067
$GNGGA,172019.00,3356.30588711,N,11950.87475978,W,2,11,1.0,7.731,M,-37.386,M,6.0,0135*66
$PYRTM,2024,122.722442237928,13.832089648067
$GNHDT,84.432,T*12
$PYRTM,2024,122.722447973762,13.832095383900
$GNGGA,172019.50,3356.30601270,N,11950.87340170,W,2,11,1.0,7.776,M,-37.386,M,6.4,0135*65
$PYRTM,2024,122.722447973762,13.832095383900
$GNHDT,84.083,T*1C
$PYRTM,2024,122.722453812153,13.832101222292
$GNGGA,172020.00,3356.30613889,N,11950.87203838,W,2,11,1.0,7.823,M,-37.386,M,7.0,0135*6C
$PYRTM,2024,122.722453812153,13.832101222292
$GNHDT,83.920,T*1B
$PYRTM,2024,122.722459547454,13.832106957593
$GNGGA,172020.50,3356.30625792,N,11950.87067875,W,2,11,1.0,7.887,M,-37.386,M,7.4,0135*6A
$PYRTM,2024,122.722459547454,13.832106957593
$GNHDT,83.745,T*16
$PYRTM,2024,122.722465385822,13.832112795961
$GNGGA,172021.00,3356.30637643,N,11950.86931223,W,2,11,1.0,7.936,M,-37.386,M,7.0,0135*6D
$PYRTM,2024,122.722465385822,13.832112795961
$GNHDT,83.587,T*1A
$PYRTM,2024,122.722471119120,13.832118529259
$GNGGA,172021.50,3356.30649147,N,11950.86793809,W,2,11,1.0,7.976,M,-37.386,M,7.4,0135*66
$PYRTM,2024,122.722471119120,13.832118529259
$GNHDT,83.868,T*16
$PYRTM,2024,122.722476961875,13.832124372014
$GNGGA,172022.00,3356.30660301,N,11950.86655399,W,2,11,1.0,7.990,M,-37.386,M,7.0,0135*6E
$PYRTM,2024,122.722476961875,13.832124372014
$GNHDT,83.956,T*1A
$PYRTM,2024,122.722482693646,13.832130103785
$GNGGA,172022.50,3356.30671370,N,11950.86516028,W,2,11,1.0,7.980,M,-37.386,M,7.4,0135*65
$PYRTM,2024,122.722482693646,13.832130103785
$GNHDT,84.076,T*16
$PYRTM,2024,122.722488536296,13.832135946447
$GNGGA,172023.00,3356.30681913,N,11950.86374849,W,2,11,1.0,7.942,M,-37.386,M,4.0,0135*65
$PYRTM,2024,122.722488536296,13.832135946447
$GNHDT,84.154,T*17
$PYRTM,2024,122.722494272049,13.832141682187
$GNGGA,172023.50,3356.30691915,N,11950.86232809,W,2,11,1.0,7.876,M,-37.386,M,4.4,0135*62
$PYRTM,2024,122.722494272049,13.832141682187
$GNHDT,84.433,T*13
$PYRTM,2024,122.722500109803,13.832147519942
$GNGGA,172024.00,3356.30702335,N,11950.86089454,W,2,11,1.0,7.799,M,-37.386,M,5.0,0135*6E
$PYRTM,2024,122.722500109803,13.832147519942
$GNHDT,84.579,T*1C
$PYRTM,2024,122.722505842234,13.832153252373
$GNGGA,172024.50,3356.30713338,N,11950.85946246,W,2,11,1.0,7.749,M,-37.386,M,5.4,0135*63
$PYRTM,2024,122.722505842234,13.832153252373
$GNHDT,84.597,T*1C
$PYRTM,2024,122.722511685336,13.832159095475
$GNGGA,172025.00,3356.30725921,N,11950.85803640,W,2,11,1.0,7.720,M,-37.386,M,6.0,0135*6A
$PYRTM,2024,122.722511685336,13.832159095475
$GNHDT,84.599,T*12
$PYRTM,2024,122.722517415556,13.832164825694
$GNGGA,172025.50,3356.30736923,N,11950.85664979,W,2,11,1.0,7.749,M,-37.387,M,6.4,0135*6F
$PYRTM,2024,122.722517415556,13.832164825694
$GNHDT,84.557,T*10
$PYRTM,2024,122.722523258553,13.832170668692
$GNGGA,172026.00,3356.30749805,N,11950.85526218,W,2,11,1.0,7.804,M,-37.387,M,7.0,0135*6E
$PYRTM,2024,122.722523258553,13.832170668692
$GNHDT,84.264,T*17
$PYRTM,2024,122.722528992812,13.832176402951
$GNGGA,172026.50,3356.30762608,N,11950.85388256,W,2,11,1.0,7.854,M,-37.387,M,7.4,0135*68
$PYRTM,2024,122.722528992812,13.832176402951
$GNHDT,84.352,T*13
$PYRTM,2024,122.722534830833,13.832182240972
$GNGGA,172027.00,3356.30777665,N,11950.85248174,W,2,11,1.0,7.853,M,-37.387,M,7.0,0135*6E
$PYRTM,2024,122.722534830833,13.832182240972
$GNHDT,84.061,T*10
$PYRTM,2024,122.722540565220,13.832187975370
$GNGGA,172027.50,3356.30791208,N,11950.85109055,W,2,11,1.0,7.805,M,-37.387,M,7.4,0135*6F
$PYRTM,2024,122.722540565220,13.832187975370
$GNHDT,83.879,T*16
$PYRTM,2024,122.722546403657,13.832193813808
$GNGGA,172028.00,3356.30803044,N,11950.84971574,W,2,11,1.0,7.706,M,-37.387,M,7.0,0135*63
$PYRTM,2024,122.722546403657,13.832193813808
$GNHDT,83.804,T*1C
$PYRTM,2024,122.722552143565,13.832199553715
$GNGGA,172028.50,3356.30812302,N,11950.84836700,W,2,11,1.0,7.602,M,-37.387,M,7.4,0135*65
$PYRTM,2024,122.722552143565,13.832199553715
$GNHDT,83.971,T*1F
$PYRTM,2024,122.722557980544,13.832205390683
$GNGGA,172029.00,3356.30820584,N,11950.84703785,W,2,11,1.0,7.506,M,-37.387,M,4.0,0135*6C
$PYRTM,2024,122.722557980544,13.832205390683
$GNHDT,84.192,T*1D
$PYRTM,2024,122.722563710741,13.832211120880
$GNGGA,172029.50,3356.30828894,N,11950.84572409,W,2,11,1.0,7.452,M,-37.387,M,4.4,0135*6A
$PYRTM,2024,122.722563710741,13.832211120880
$GNHDT,84.108,T*1E
$PYRTM,2024,122.722569553461,13.832216963600
$GNGGA,172030.00,3356.30839183,N,11950.84441042,W,2,11,1.0,7.421,M,-37.387,M,5.0,0135*63
$PYRTM,2024,122.722569553461,13.832216963600
$GNHDT,84.211,T*15
$PYRTM,2024,122.722575288368,13.832222698507
$GNGGA,172030.50,3356.30851261,N,11950.84309541,W,2,11,1.0,7.443,M,-37.387,M,5.4,0135*6A
$PYRTM,2024,122.722575288368,13.832222698507
$GNHDT,84.408,T*1B
$PYRTM,2024,122.722581130000,13.832228540150
$GNGGA,172031.00,3356.30864860,N,11950.84177238,W,2,11,1.0,7.490,M,-37.387,M,6.0,0135*68
$PYRTM,2024,122.722581130000,13.832228540150
$GNHDT,84.629,T*1A
$PYRTM,2024,122.722586864826,13.832234274965
$GNGGA,172031.50,3356.30877100,N,11950.84046273,W,2,11,1.0,7.576,M,-37.387,M,6.4,0135*61
$PYRTM,2024,122.722586864826,13.832234274965
$GNHDT,84.632,T*10
$PYRTM,2024,122.722592705301,13.832240115440
$GNGGA,172032.00,3356.30888922,N,11950.83913798,W,2,11,1.0,7.680,M,-37.387,M,7.0,0135*6E
$PYRTM,2024,122.722592705301,13.832240115440
$GNHDT,84.661,T*16
$PYRTM,2024,122.722598435949,13.832245846088
$GNGGA,172032.50,3356.30903281,N,11950.83776079,W,2,11,1.0,7.762,M,-37.387,M,7.4,0135*67
$PYRTM,2024,122.722598435949,13.832245846088
$GNHDT,84.882,T*15
$PYRTM,2024,122.722604277824,13.832251687963
$GNGGA,172033.00,3356.30915139,N,11950.83637266,W,2,11,1.0,7.840,M,-37.387,M,7.0,0135*67
$PYRTM,2024,122.722604277824,13.832251687963
$GNHDT,84.775,T*12
$PYRTM,2024,122.722610007025,13.832257417164
$GNGGA,172033.50,3356.30926881,N,11950.83496143,W,2,11,1.0,7.914,M,-37.387,M,7.4,0135*61
$PYRTM,2024,122.722610007025,13.832257417164
$GNHDT,84.429,T*18
$PYRTM,2024,122.722615850613,13.832263260752
$GNGGA,172034.00,3356.30937443,N,11950.83354861,W,2,11,1.0,7.971,M,-37.387,M,7.0,0135*66
$PYRTM,2024,122.722615850613,13.832263260752
$GNHDT,84.197,T*18
$PYRTM,2024,122.722621583461,13.832268993611
$GNGGA,172034.50,3356.30947431,N,11950.83213303,W,2,11,1.0,8.019,M,-37.387,M,7.4,0135*60
$PYRTM,2024,122.722621583461,13.832268993611
$GNHDT,84.182,T*1C
$PYRTM,2024,122.722627422095,13.832274832234
$GNGGA,172035.00,3356.30957913,N,11950.83070771,W,2,11,1.0,8.033,M,-37.387,M,4.0,0135*61
$PYRTM,2024,122.722627422095,13.832274832234
$GNHDT,84.143,T*11
$PYRTM,2024,122.722633158380,13.832280568519
$GNGGA,172035.50,3356.30969675,N,11950.82927619,W,2,11,1.0,8.021,M,-37.387,M,4.4,0135*64
$PYRTM,2024,122.722633158380,13.832280568519
$GNHDT,83.918,T*10
$PYRTM,2024,122.722638999850,13.832286409988
$GNGGA,172036.00,3356.30983402,N,11950.82784491,W,2,11,1.0,7.981,M,-37.387,M,5.0,0135*68
$PYRTM,2024,122.722638999850,13.832286409988
$GNHDT,84.037,T*13
$PYRTM,2024,122.722644736285,13.832292146424
$GNGGA,172036.50,3356.30997796,N,11950.82643989,W,2,11,1.0,7.962,M,-37.387,M,5.4,0135*61
$PYRTM,2024,122.722644736285,13.832292146424
$GNHDT,84.148,T*1A
$PYRTM,2024,122.722650571852,13.832297981991
$GNGGA,172037.00,3356.31011623,N,11950.82505161,W,2,11,1.0,7.965,M,-37.387,M,6.0,0135*63
$PYRTM,2024,122.722650571852,13.832297981991
$GNHDT,84.386,T*1A
$PYRTM,2024,122.722656305556,13.832303715694
$GNGGA,172037.50,3356.31023000,N,11950.82369228,W,2,11,1.0,7.965,M,-37.387,M,6.4,0135*66
$PYRTM,2024,122.722656305556,13.832303715694
$GNHDT,84.775,T*12
$PYRTM,2024,122.722662145023,13.832309555174
$GNGGA,172038.00,3356.31032639,N,11950.82232412,W,2,11,1.0,7.924,M,-37.387,M,7.0,0135*60
$PYRTM,2024,122.722662145023,13.832309555174
$GNHDT,85.133,T*17
$PYRTM,2024,122.722667885081,13.832315295220
$GNGGA,172038.50,3356.31039928,N,11950.82096258,W,2,11,1.0,7.836,M,-37.387,M,7.4,0135*63
$PYRTM,2024,122.722667885081,13.832315295220
$GNHDT,85.326,T*11
$PYRTM,2024,122.722673723495,13.832321133634
$GNGGA,172039.00,3356.31044955,N,11950.81961729,W,2,11,1.0,7.716,M,-37.387,M,7.0,0135*6F
$PYRTM,2024,122.722673723495,13.832321133634
$GNHDT,85.330,T*16
$PYRTM,2024,122.722679459815,13.832326869954
$GNGGA,172039.50,3356.31050191,N,11950.81828000,W,2,11,1.0,7.602,M,-37.387,M,7.4,0135*6F
$PYRTM,2024,122.722679459815,13.832326869954
$GNHDT,85.766,T*11
$PYRTM,2024,122.722685296713,13.832332706852
$GNGGA,172040.00,3356.31056306,N,11950.81694588,W,2,11,1.0,7.540,M,-37.387,M,7.0,0135*63
$PYRTM,2024,122.722685296713,13.832332706852
$GNHDT,85.771,T*17
$PYRTM,2024,122.722691027361,13.832338437500
$GNGGA,172040.50,3356.31066127,N,11950.81560058,W,2,11,1.0,7.545,M,-37.387,M,7.4,0135*65
$PYRTM,2024,122.722691027361,13.832338437500
$GNHDT,85.541,T*16
$PYRTM,2024,122.722696866597,13.832344276736
$GNGGA,172041.00,3356.31079215,N,11950.81424415,W,2,11,1.0,7.596,M,-37.387,M,4.0,0135*68
$PYRTM,2024,122.722696866597,13.832344276736
$GNHDT,85.491,T*1A
$PYRTM,2024,122.722702603750,13.832350013889
$GNGGA,172041.50,3356.31095225,N,11950.81287280,W,2,11,1.0,7.692,M,-37.387,M,4.4,0135*6A
$PYRTM,2024,122.722702603750,13.832350013889
$GNHDT,85.203,T*17
$PYRTM,2024,122.722708442500,13.832355852639
$GNGGA,172042.00,3356.31111947,N,11950.81148718,W,2,11,1.0,7.803,M,-37.387,M,5.0,0135*69
$PYRTM,2024,122.722708442500,13.832355852639
$GNHDT,84.968,T*10
$PYRTM,2024,122.722714175451,13.832361585590
$GNGGA,172042.50,3356.31127238,N,11950.81010565,W,2,11,1.0,7.913,M,-37.387,M,5.4,0135*6A
$PYRTM,2024,122.722714175451,13.832361585590
$GNHDT,84.789,T*11
$PYRTM,2024,122.722720015359,13.832367425498
$GNGGA,172043.00,3356.31140446,N,11950.80871837,W,2,11,1.0,8.027,M,-37.387,M,6.0,0135*62
$PYRTM,2024,122.722720015359,13.832367425498
$GNHDT,84.395,T*18
$PYRTM,2024,122.722725751979,13.832373162130
$GNGGA,172043.50,3356.31151278,N,11950.80732197,W,2,11,1.0,8.102,M,-37.387,M,6.4,0135*65
$PYRTM,2024,122.722725751979,13.832373162130
$GNHDT,84.329,T*1F
$PYRTM,2024,122.722731589005,13.832378999144
$GNGGA,172044.00,3356.31159942,N,11950.80591413,W,2,11,1.0,8.116,M,-37.387,M,7.0,0135*6F
$PYRTM,2024,122.722731589005,13.832378999144
$GNHDT,84.307,T*13
$PYRTM,2024,122.722737324699,13.832384734838
$GNGGA,172044.50,3356.31167795,N,11950.80450831,W,2,11,1.0,8.071,M,-37.387,M,7.4,0135*67
$PYRTM,2024,122.722737324699,13.832384734838
$GNHDT,84.291,T*1D
$PYRTM,2024,122.722743167060,13.832390577211
$GNGGA,172045.00,3356.31175201,N,11950.80310027,W,2,11,1.0,7.968,M,-37.387,M,7.0,0135*6E
$PYRTM,2024,122.722743167060,13.832390577211
$GNHDT,84.358,T*19
$PYRTM,2024,122.722748896979,13.832396307118
$GNGGA,172045.50,3356.31182075,N,11950.80171668,W,2,11,1.0,7.859,M,-37.387,M,7.4,0135*6D
$PYRTM,2024,122.722748896979,13.832396307118
$GNHDT,84.233,T*15
$PYRTM,2024,122.722754741076,13.832402151227
$GNGGA,172046.00,3356.31189492,N,11950.80035340,W,2,11,1.0,7.749,M,-37.387,M,7.0,0135*69
$PYRTM,2024,122.722754741076,13.832402151227
$GNHDT,84.536,T*17
$PYRTM,2024,122.722760472245,13.832407882384
$GNGGA,172046.50,3356.31198071,N,11950.79900927,W,2,11,1.0,7.669,M,-37.387,M,7.4,0135*60
$PYRTM,2024,122.722760472245,13.832407882384
$GNHDT,84.883,T*14
$PYRTM,2024,122.722766311748,13.832413721898
$GNGGA,172047.00,3356.31208569,N,11950.79767045,W,2,11,1.0,7.610,M,-37.387,M,4.0,0135*69
$PYRTM,2024,122.722766311748,13.832413721898
$GNHDT,85.119,T*1F
$PYRTM,2024,122.722772045255,13.832419455394
$GNGGA,172047.50,3356.31220433,N,11950.79633180,W,2,11,1.0,7.584,M,-37.387,M,4.4,0135*6A
$PYRTM,2024,122.722772045255,13.832419455394
$GNHDT,85.410,T*13
$PYRTM,2024,122.722777887141,13.832425297280
$GNGGA,172048.00,3356.31232163,N,11950.79498709,W,2,11,1.0,7.555,M,-37.387,M,5.0,0135*6E
$PYRTM,2024,122.722777887141,13.832425297280
$GNHDT,85.750,T*14
$PYRTM,2024,122.722783618762,13.832431028900
$GNGGA,172048.50,3356.31242585,N,11950.79364298,W,2,11,1.0,7.548,M,-37.387,M,5.4,0135*61
$PYRTM,2024,122.722783618762,13.832431028900
$GNHDT,85.689,T*11
$PYRTM,2024,122.722789461562,13.832436871701
$GNGGA,172049.00,3356.31250741,N,11950.79229842,W,2,11,1.0,7.578,M,-37.387,M,6.0,0135*6D
$PYRTM,2024,122.722789461562,13.832436871701
$GNHDT,85.574,T*10
$PYRTM,2024,122.722795199514,13.832442609653
$GNGGA,172049.50,3356.31259203,N,11950.79094197,W,2,11,1.0,7.652,M,-37.387,M,6.4,0135*68
$PYRTM,2024,122.722795199514,13.832442609653
$GNHDT,85.736,T*14
$PYRTM,2024,122.722801032847,13.832448442986
$GNGGA,172050.00,3356.31267098,N,11950.78958287,W,2,11,1.0,7.771,M,-37.387,M,7.0,0135*67
$PYRTM,2024,122.722801032847,13.832448442986
$GNHDT,85.571,T*15
$PYRTM,2024,122.722806769468,13.832454179618
$GNGGA,172050.50,3356.31275856,N,11950.78820553,W,2,11,1.0,7.919,M,-37.387,M,7.4,0135*6F
$PYRTM,2024,122.722806769468,13.832454179618
$GNHDT,85.301,T*14
$PYRTM,2024,122.722812610833,13.832460020972
$GNGGA,172051.00,3356.31286958,N,11950.78679712,W,2,11,1.0,8.062,M,-37.387,M,7.0,0135*63
$PYRTM,2024,122.722812610833,13.832460020972
$GNHDT,85.127,T*12
$PYRTM,2024,122.722818341493,13.832465751632
$GNGGA,172051.50,3356.31298407,N,11950.78538108,W,2,11,1.0,8.174,M,-37.387,M,7.4,0135*67
$PYRTM,2024,122.722818341493,13.832465751632
$GNHDT,84.922,T*1E
$PYRTM,2024,122.722824181690,13.832471591829
$GNGGA,172052.00,3356.31310631,N,11950.78395581,W,2,11,1.0,8.230,M,-37.387,M,7.0,0135*64
$PYRTM,2024,122.722824181690,13.832471591829
$GNHDT,84.807,T*18
$PYRTM,2024,122.722829918032,13.832477328171
$GNGGA,172052.50,3356.31322798,N,11950.78254360,W,2,11,1.0,8.247,M,-37.387,M,7.4,0135*63
$PYRTM,2024,122.722829918032,13.832477328171
$GNHDT,84.713,T*12
$PYRTM,2024,122.722835755787,13.832483165926
$GNGGA,172053.00,3356.31335332,N,11950.78114100,W,2,11,1.0,8.230,M,-37.387,M,4.0,0135*61
$PYRTM,2024,122.722835755787,13.832483165926
$GNHDT,84.771,T*16
$PYRTM,2024,122.722841490579,13.832488900718
$GNGGA,172053.50,3356.31347336,N,11950.77975629,W,2,11,1.0,8.182,M,-37.387,M,4.4,0135*67
$PYRTM,2024,122.722841490579,13.832488900718
$GNHDT,84.749,T*1D
$PYRTM,2024,122.722847333322,13.832494743461
$GNGGA,172054.00,3356.31359360,N,11950.77837889,W,2,11,1.0,8.098,M,-37.387,M,5.0,0135*65
$PYRTM,2024,122.722847333322,13.832494743461
$GNHDT,84.823,T*1E
$PYRTM,2024,122.722853064421,13.832500474560
$GNGGA,172054.50,3356.31370432,N,11950.77700832,W,2,11,1.0,7.975,M,-37.387,M,5.4,0135*61
$PYRTM,2024,122.722853064421,13.832500474560
$GNHDT,85.030,T*15
$PYRTM,2024,122.722858905382,13.832506315521
$GNGGA,172055.00,3356.31380066,N,11950.77564966,W,2,11,1.0,7.796,M,-37.387,M,6.0,0135*6B
$PYRTM,2024,122.722858905382,13.832506315521
$GNHDT,85.091,T*1E
$PYRTM,2024,122.722864638461,13.832512048600
$GNGGA,172055.50,3356.31387850,N,11950.77431378,W,2,11,1.0,7.626,M,-37.387,M,6.4,0135*6E
$PYRTM,2024,122.722864638461,13.832512048600
$GNHDT,85.098,T*17
$PYRTM,2024,122.722870479317,13.832517889456
$GNGGA,172056.00,3356.31394829,N,11950.77300310,W,2,11,1.0,7.471,M,-37.387,M,7.0,0135*6A
$PYRTM,2024,122.722870479317,13.832517889456
$GNHDT,85.130,T*14
$PYRTM,2024,122.722876218819,13.832523628970
$GNGGA,172056.50,3356.31402433,N,11950.77169545,W,2,11,1.0,7.358,M,-37.387,M,7.4,0135*63
$PYRTM,2024,122.722876218819,13.832523628970
$GNHDT,85.249,T*19
$PYRTM,2024,122.722882056123,13.832529466262
$GNGGA,172057.00,3356.31411451,N,11950.77039459,W,2,11,1.0,7.300,M,-37.387,M,7.0,0135*60
$PYRTM,2024,122.722882056123,13.832529466262
$GNHDT,85.188,T*17
$PYRTM,2024,122.722887787604,13.832535197743
$GNGGA,172057.50,3356.31422217,N,11950.76907604,W,2,11,1.0,7.292,M,-37.387,M,7.4,0135*60
$PYRTM,2024,122.722887787604,13.832535197743
$GNHDT,85.261,T*13
$PYRTM,2024,122.722893627500,13.832541037639
$GNGGA,172058.00,3356.31433477,N,11950.76774996,W,2,11,1.0,7.328,M,-37.387,M,7.0,0135*60
$PYRTM,2024,122.722893627500,13.832541037639
$GNHDT,85.353,T*13
$PYRTM,2024,122.722899362569,13.832546772708
$GNGGA,172058.50,3356.31446016,N,11950.76639485,W,2,11,1.0,7.387,M,-37.387,M,7.4,0135*62
$PYRTM,2024,122.722899362569,13.832546772708
$GNHDT,85.062,T*12
$PYRTM,2024,122.722905204757,13.832552614907
$GNGGA,172059.00,3356.31457750,N,11950.76501790,W,2,11,1.0,7.458,M,-37.387,M,4.0,0135*6E
$PYRTM,2024,122.722905204757,13.832552614907
$GNHDT,84.844,T*1F
$PYRTM,2024,122.722910936725,13.832558346852
$GNGGA,172059.50,3356.31467326,N,11950.76363461,W,2,11,1.0,7.546,M,-37.387,M,4.4,0135*68
$PYRTM,2024,122.722910936725,13.832558346852
$GNHDT,84.513,T*10
$PYRTM,2024,122.722916780255,13.832564190394
$GNGGA,172100.00,3356.31476965,N,11950.76222990,W,2,11,1.0,7.654,M,-37.387,M,5.0,0135*6F
$PYRTM,2024,122.722916780255,13.832564190394
$GNHDT,84.388,T*14
$PYRTM,2024,122.722922511470,13.832569921620
$GNGGA,172100.50,3356.31486241,N,11950.76082199,W,2,11,1.0,7.780,M,-37.387,M,5.4,0135*6D
$PYRTM,2024,122.722922511470,13.832569921620
$GNHDT,84.249,T*18
$PYRTM,2024,122.722928347708,13.832575757847
$GNGGA,172101.00,3356.31495561,N,11950.75940501,W,2,11,1.0,7.907,M,-37.387,M,6.0,0135*69
$PYRTM,2024,122.722928347708,13.832575757847
$GNHDT,84.007,T*10
$PYRTM,2024,122.722934083067,13.832581493206
$GNGGA,172101.50,3356.31504297,N,11950.75798374,W,2,11,1.0,8.016,M,-37.387,M,6.4,0135*66
$PYRTM,2024,122.722934083067,13.832581493206
$GNHDT,83.881,T*11
$PYRTM,2024,122.722939924271,13.832587334410
$GNGGA,172102.00,3356.31514131,N,11950.75655136,W,2,11,1.0,8.094,M,-37.387,M,7.0,0135*65
$PYRTM,2024,122.722939924271,13.832587334410
$GNHDT,83.799,T*17
$PYRTM,2024,122.722945656343,13.832593066481
$GNGGA,172102.50,3356.31524840,N,11950.75512637,W,2,11,1.0,8.134,M,-37.387,M,7.4,0135*65
$PYRTM,2024,122.722945656343,13.832593066481
$GNHDT,83.830,T*1B
$PYRTM,2024,122.722951500197,13.832598910336
$GNGGA,172103.00,3356.31536354,N,11950.75371002,W,2,11,1.0,8.118,M,-37.387,M,7.0,0135*65
$PYRTM,2024,122.722951500197,13.832598910336
$GNHDT,83.806,T*1E
$PYRTM,2024,122.722957232118,13.832604642257
$GNGGA,172103.50,3356.31547905,N,11950.75231032,W,2,11,1.0,8.084,M,-37.387,M,7.4,0135*6E
$PYRTM,2024,122.722957232118,13.832604642257
$GNHDT,83.838,T*13
$PYRTM,2024,122.722963070486,13.832610480625
$GNGGA,172104.00,3356.31559703,N,11950.75093160,W,2,11,1.0,8.023,M,-37.388,M,7.0,0135*61
$PYRTM,2024,122.722963070486,13.832610480625
$GNHDT,83.940,T*1D
$PYRTM,2024,122.722968806539,13.832616216678
$GNGGA,172104.50,3356.31571367,N,11950.74957052,W,2,11,1.0,7.957,M,-37.388,M,7.4,0135*69
$PYRTM,2024,122.722968806539,13.832616216678
$GNHDT,84.128,T*1C
$PYRTM,2024,122.722974651609,13.832622061748
$GNGGA,172105.00,3356.31583668,N,11950.74822556,W,2,11,1.0,7.870,M,-37.388,M,4.0,0135*6B
$PYRTM,2024,122.722974651609,13.832622061748
$GNHDT,84.363,T*11
$PYRTM,2024,122.722980378218,13.832627788356
$GNGGA,172105.50,3356.31596690,N,11950.74688838,W,2,11,1.0,7.787,M,-37.388,M,4.4,0135*65
$PYRTM,2024,122.722980378218,13.832627788356
$GNHDT,84.294,T*18
$PYRTM,2024,122.722986223426,13.832633633565
$GNGGA,172106.00,3356.31611272,N,11950.74555421,W,2,11,1.0,7.681,M,-37.388,M,5.0,0135*62
$PYRTM,2024,122.722986223426,13.832633633565
$GNHDT,84.544,T*12
$PYRTM,2024,122.722991955694,13.832639365833
$GNGGA,172106.50,3356.31627012,N,11950.74421994,W,2,11,1.0,7.574,M,-37.388,M,5.4,0135*6A
$PYRTM,2024,122.722991955694,13.832639365833
$GNHDT,84.518,T*1B
$PYRTM,2024,122.722997793102,13.832645203241
$GNGGA,172107.00,3356.31643372,N,11950.74288921,W,2,11,1.0,7.485,M,-37.388,M,6.0,0135*6A
$PYRTM,2024,122.722997793102,13.832645203241
$GNHDT,84.351,T*10
$PYRTM,2024,122.723003525949,13.832650936088
$GNGGA,172107.50,3356.31659474,N,11950.74156608,W,2,11,1.0,7.438,M,-37.388,M,6.4,0135*63
$PYRTM,2024,122.723003525949,13.832650936088
$GNHDT,84.142,T*10
$PYRTM,2024,122.723009368322,13.832656778461
$GNGGA,172108.00,3356.31675306,N,11950.74023812,W,2,11,1.0,7.423,M,-37.388,M,7.0,0135*6C
$PYRTM,2024,122.723009368322,13.832656778461
$GNHDT,83.824,T*1E
$PYRTM,2024,122.723015102882,13.832662513021
$GNGGA,172108.50,3356.31690730,N,11950.73889781,W,2,11,1.0,7.448,M,-37.388,M,7.4,0135*60
$PYRTM,2024,122.723015102882,13.832662513021
$GNHDT,83.440,T*10
$PYRTM,2024,122.723020946100,13.832668356238
$GNGGA,172109.00,3356.31705657,N,11950.73753198,W,2,11,1.0,7.476,M,-37.388,M,7.0,0135*66
$PYRTM,2024,122.723020946100,13.832668356238
$GNHDT,82.943,T*1F
