$PYRTM,2024,127.000005723472,18.109653133611
$GNGGA,000000.50,3357.69377237,N,11922.56377267,W,2,12,0.8,8.036,M,-37.540,M,4.4,0131*67
$PYRTM,2024,127.000005723472,18.109653133611
$GNHDT,233.419,T*25
$PYRTM,2024,127.000011576852,18.109658987002
$GNGGA,000001.00,3357.69358628,N,11922.56395296,W,2,12,0.8,7.919,M,-37.540,M,5.0,0131*68
$PYRTM,2024,127.000011576852,18.109658987002
$GNHDT,233.392,T*21
$PYRTM,2024,127.000017302604,18.109664712743
$GNGGA,000001.50,3357.69338007,N,11922.56413533,W,2,12,0.8,7.801,M,-37.540,M,5.4,0131*6D
$PYRTM,2024,127.000017302604,18.109664712743
$GNHDT,233.038,T*22
$PYRTM,2024,127.000023151944,18.109670562083
$GNGGA,000002.00,3357.69313565,N,11922.56428294,W,2,12,0.8,7.683,M,-37.540,M,6.0,0131*62
$PYRTM,2024,127.000023151944,18.109670562083
$GNHDT,232.907,T*26
$PYRTM,2024,127.000028875428,18.109676285567
$GNGGA,000002.50,3357.69285787,N,11922.56439604,W,2,12,0.8,7.643,M,-37.540,M,6.4,0131*62
$PYRTM,2024,127.000028875428,18.109676285567
$GNHDT,232.530,T*2E
$PYRTM,2024,127.000034719005,18.109682129144
$GNGGA,000003.00,3357.69256814,N,11922.56449939,W,2,12,0.8,7.662,M,-37.540,M,7.0,0131*6D
$PYRTM,2024,127.000034719005,18.109682129144
$GNHDT,232.596,T*22
$PYRTM,2024,127.000040444769,18.109687854907
$GNGGA,000003.50,3357.69230580,N,11922.56462170,W,2,12,0.8,7.715,M,-37.540,M,7.4,0131*61
$PYRTM,2024,127.000040444769,18.109687854907
$GNHDT,232.875,T*22
$PYRTM,2024,127.000046292558,18.109693702697
$GNGGA,000004.00,3357.69208005,N,11922.56476767,W,2,12,0.8,7.785,M,-37.540,M,7.0,0131*68
$PYRTM,2024,127.000046292558,18.109693702697
$GNHDT,232.840,T*24
$PYRTM,2024,127.000052024479,18.109699434618
$GNGGA,000004.50,3357.69190862,N,11922.56495020,W,2,12,0.8,7.831,M,-37.540,M,7.4,0131*6B
$PYRTM,2024,127.000052024479,18.109699434618
$GNHDT,232.900,T*21
$PYRTM,2024,127.000057873970,18.109705284120
$GNGGA,000005.00,3357.69177374,N,11922.56514810,W,2,12,0.8,7.877,M,-37.540,M,7.0,0131*6F
$PYRTM,2024,127.000057873970,18.109705284120
$GNHDT,232.635,T*28
$PYRTM,2024,127.000063599306,18.109711009444
$GNGGA,000005.50,3357.69163685,N,11922.56533972,W,2,12,0.8,7.924,M,-37.540,M,7.4,0131*67
$PYRTM,2024,127.000063599306,18.109711009444
$GNHDT,232.264,T*28
$PYRTM,2024,127.000069441447,18.109716851586
$GNGGA,000006.00,3357.69145934,N,11922.56549768,W,2,12,0.8,7.955,M,-37.540,M,4.0,0131*69
$PYRTM,2024,127.000069441447,18.109716851586
$GNHDT,231.947,T*21
$PYRTM,2024,127.000075173565,18.109722583704
$GNGGA,000006.50,3357.69122983,N,11922.56564548,W,2,12,0.8,7.945,M,-37.540,M,4.4,0131*6B
$PYRTM,2024,127.000075173565,18.109722583704
$GNHDT,231.800,T*23
$PYRTM,2024,127.000081015694,18.109728425833
$GNGGA,000007.00,3357.69096455,N,11922.56579319,W,2,12,0.8,7.883,M,-37.540,M,5.0,0131*67
$PYRTM,2024,127.000081015694,18.109728425833
$GNHDT,231.763,T*29
$PYRTM,2024,127.000086747535,18.109734157674
$GNGGA,000007.50,3357.69069758,N,11922.56597174,W,2,12,0.8,7.769,M,-37.540,M,5.4,0131*6A
$PYRTM,2024,127.000086747535,18.109734157674
$GNHDT,231.619,T*25
$PYRTM,2024,127.000092589016,18.109739999155
$GNGGA,000008.00,3357.69045382,N,11922.56616231,W,2,12,0.8,7.652,M,-37.540,M,6.0,0131*6B
$PYRTM,2024,127.000092589016,18.109739999155
$GNHDT,231.583,T*25
$PYRTM,2024,127.000098318657,18.109745728796
$GNGGA,000008.50,3357.69025208,N,11922.56632451,W,2,12,0.8,7.620,M,-37.540,M,6.4,0131*6C
$PYRTM,2024,127.000098318657,18.109745728796
$GNHDT,231.784,T*20
$PYRTM,2024,127.000104160093,18.109751570231
$GNGGA,000009.00,3357.69009552,N,11922.56646997,W,2,12,0.8,7.700,M,-37.540,M,7.0,0131*6C
$PYRTM,2024,127.000104160093,18.109751570231
$GNHDT,231.632,T*2C
$PYRTM,2024,127.000109897963,18.109757308102
$GNGGA,000009.50,3357.68996800,N,11922.56659703,W,2,12,0.8,7.897,M,-37.540,M,7.4,0131*65
$PYRTM,2024,127.000109897963,18.109757308102
$GNHDT,231.555,T*2E
$PYRTM,2024,127.000115740845,18.109763150984
$GNGGA,000010.00,3357.68984346,N,11922.56673704,W,2,12,0.8,8.100,M,-37.540,M,7.0,0131*61
$PYRTM,2024,127.000115740845,18.109763150984
$GNHDT,230.967,T*22
$PYRTM,2024,127.000121469549,18.109768879688
$GNGGA,000010.50,3357.68969097,N,11922.56690862,W,2,12,0.8,8.201,M,-37.540,M,7.4,0131*6C
$PYRTM,2024,127.000121469549,18.109768879688
$GNHDT,230.746,T*2F
$PYRTM,2024,127.000127312685,18.109774722824
$GNGGA,000011.00,3357.68948716,N,11922.56709622,W,2,12,0.8,8.166,M,-37.540,M,7.0,0131*68
$PYRTM,2024,127.000127312685,18.109774722824
$GNHDT,230.338,T*22
$PYRTM,2024,127.000133038218,18.109780448368
$GNGGA,000011.50,3357.68923135,N,11922.56726306,W,2,12,0.8,8.020,M,-37.540,M,7.4,0131*6E
$PYRTM,2024,127.000133038218,18.109780448368
$GNHDT,230.124,T*2D
$PYRTM,2024,127.000138889005,18.109786299144
$GNGGA,000012.00,3357.68895020,N,11922.56739954,W,2,12,0.8,7.820,M,-37.540,M,4.0,0131*62
$PYRTM,2024,127.000138889005,18.109786299144
$GNHDT,230.136,T*2E
$PYRTM,2024,127.000144618183,18.109792028322
$GNGGA,000012.50,3357.68868364,N,11922.56751878,W,2,12,0.8,7.628,M,-37.540,M,4.4,0131*65
$PYRTM,2024,127.000144618183,18.109792028322
$GNHDT,230.268,T*26
$PYRTM,2024,127.000150458704,18.109797868843
$GNGGA,000013.00,3357.68846534,N,11922.56763850,W,2,12,0.8,7.465,M,-37.540,M,5.0,0131*6B
$PYRTM,2024,127.000150458704,18.109797868843
$GNHDT,230.442,T*28
$PYRTM,2024,127.000156195567,18.109803605706
$GNGGA,000013.50,3357.68829842,N,11922.56777938,W,2,12,0.8,7.391,M,-37.540,M,5.4,0131*69
$PYRTM,2024,127.000156195567,18.109803605706
$GNHDT,230.120,T*29
$PYRTM,2024,127.000162031782,18.109809441921
$GNGGA,000014.00,3357.68815974,N,11922.56793288,W,2,12,0.8,7.419,M,-37.540,M,6.0,0131*6A
$PYRTM,2024,127.000162031782,18.109809441921
$GNHDT,229.878,T*25
$PYRTM,2024,127.000167763565,18.109815173704
$GNGGA,000014.50,3357.68801288,N,11922.56809186,W,2,12,0.8,7.528,M,-37.540,M,6.4,0131*64
$PYRTM,2024,127.000167763565,18.109815173704
$GNHDT,229.852,T*2D
$PYRTM,2024,127.000173613507,18.109821023646
$GNGGA,000015.00,3357.68781728,N,11922.56823226,W,2,12,0.8,7.720,M,-37.540,M,7.0,0131*66
$PYRTM,2024,127.000173613507,18.109821023646
$GNHDT,229.408,T*2E
$PYRTM,2024,127.000179338785,18.109826748924
$GNGGA,000015.50,3357.68757203,N,11922.56836095,W,2,12,0.8,7.912,M,-37.540,M,7.4,0131*61
$PYRTM,2024,127.000179338785,18.109826748924
$GNHDT,229.035,T*24
$PYRTM,2024,127.000185185995,18.109832596134
$GNGGA,000016.00,3357.68728407,N,11922.56846703,W,2,12,0.8,8.057,M,-37.540,M,7.0,0131*61
$PYRTM,2024,127.000185185995,18.109832596134
$GNHDT,228.814,T*2E
$PYRTM,2024,127.000190907766,18.109838317905
$GNGGA,000016.50,3357.68699487,N,11922.56857813,W,2,12,0.8,8.105,M,-37.540,M,7.4,0131*6B
$PYRTM,2024,127.000190907766,18.109838317905
$GNHDT,228.852,T*2C
$PYRTM,2024,127.000196756748,18.109844166887
$GNGGA,000017.00,3357.68673223,N,11922.56869239,W,2,12,0.8,8.080,M,-37.540,M,7.0,0131*64
$PYRTM,2024,127.000196756748,18.109844166887
$GNHDT,228.605,T*20
$PYRTM,2024,127.000202483530,18.109849893669
$GNGGA,000017.50,3357.68651741,N,11922.56882666,W,2,12,0.8,7.986,M,-37.540,M,7.4,0131*6F
$PYRTM,2024,127.000202483530,18.109849893669
$GNHDT,228.833,T*2B
$PYRTM,2024,127.000208331574,18.109855741713
$GNGGA,000018.00,3357.68633154,N,11922.56897717,W,2,12,0.8,7.882,M,-37.540,M,4.0,0131*62
$PYRTM,2024,127.000208331574,18.109855741713
$GNHDT,228.716,T*23
$PYRTM,2024,127.000214057407,18.109861467546
$GNGGA,000018.50,3357.68615328,N,11922.56914325,W,2,12,0.8,7.813,M,-37.540,M,4.4,0131*69
$PYRTM,2024,127.000214057407,18.109861467546
$GNHDT,228.561,T*21
$PYRTM,2024,127.000219901771,18.109867311921
$GNGGA,000019.00,3357.68596341,N,11922.56932308,W,2,12,0.8,7.782,M,-37.540,M,5.0,0131*63
$PYRTM,2024,127.000219901771,18.109867311921
$GNHDT,228.148,T*2E
$PYRTM,2024,127.000225635856,18.109873045995
$GNGGA,000019.50,3357.68575159,N,11922.56948858,W,2,12,0.8,7.805,M,-37.540,M,5.4,0131*67
$PYRTM,2024,127.000225635856,18.109873045995
$GNHDT,228.179,T*2C
$PYRTM,2024,127.000231476007,18.109878886157
$GNGGA,000020.00,3357.68554006,N,11922.56966948,W,2,12,0.8,7.854,M,-37.540,M,6.0,0131*6F
$PYRTM,2024,127.000231476007,18.109878886157
$GNHDT,228.072,T*26
$PYRTM,2024,127.000237210810,18.109884620949
$GNGGA,000020.50,3357.68533794,N,11922.56984495,W,2,12,0.8,7.930,M,-37.540,M,6.4,0131*61
$PYRTM,2024,127.000237210810,18.109884620949
$GNHDT,227.795,T*27
$PYRTM,2024,127.000243058981,18.109890469132
$GNGGA,000021.00,3357.68514649,N,11922.57000068,W,2,12,0.8,8.046,M,-37.540,M,7.0,0131*61
$PYRTM,2024,127.000243058981,18.109890469132
$GNHDT,227.736,T*2E
$PYRTM,2024,127.000248784259,18.109896194398
$GNGGA,000021.50,3357.68494711,N,11922.57012057,W,2,12,0.8,8.202,M,-37.540,M,7.4,0131*68
$PYRTM,2024,127.000248784259,18.109896194398
$GNHDT,227.526,T*2D
$PYRTM,2024,127.000254626586,18.109902036725
$GNGGA,000022.00,3357.68472900,N,11922.57022222,W,2,12,0.8,8.364,M,-37.540,M,7.0,0131*6E
$PYRTM,2024,127.000254626586,18.109902036725
$GNHDT,227.389,T*2E
$PYRTM,2024,127.000260353530,18.109907763669
$GNGGA,000022.50,3357.68448487,N,11922.57030339,W,2,12,0.8,8.456,M,-37.540,M,7.4,0131*6A
$PYRTM,2024,127.000260353530,18.109907763669
$GNHDT,227.133,T*2D
$PYRTM,2024,127.000266197234,18.109913607373
$GNGGA,000023.00,3357.68422030,N,11922.57038958,W,2,12,0.8,8.441,M,-37.540,M,7.0,0131*6D
$PYRTM,2024,127.000266197234,18.109913607373
$GNHDT,226.785,T*27
$PYRTM,2024,127.000271930741,18.109919340880
$GNGGA,000023.50,3357.68396027,N,11922.57050855,W,2,12,0.8,8.279,M,-37.540,M,7.4,0131*6D
$PYRTM,2024,127.000271930741,18.109919340880
$GNHDT,226.803,T*26
$PYRTM,2024,127.000277780243,18.109925190382
$GNGGA,000024.00,3357.68373557,N,11922.57068002,W,2,12,0.8,8.003,M,-37.540,M,4.0,0131*6F
$PYRTM,2024,127.000277780243,18.109925190382
$GNHDT,226.771,T*2C
$PYRTM,2024,127.000283506586,18.109930916725
$GNGGA,000024.50,3357.68355081,N,11922.57087246,W,2,12,0.8,7.710,M,-37.540,M,4.4,0131*6D
$PYRTM,2024,127.000283506586,18.109930916725
$GNHDT,226.675,T*29
$PYRTM,2024,127.000289352442,18.109936762581
$GNGGA,000025.00,3357.68339297,N,11922.57105312,W,2,12,0.8,7.495,M,-37.540,M,5.0,0131*66
$PYRTM,2024,127.000289352442,18.109936762581
$GNHDT,226.572,T*2D
$PYRTM,2024,127.000295078657,18.109942488796
$GNGGA,000025.50,3357.68323693,N,11922.57120748,W,2,12,0.8,7.448,M,-37.540,M,5.4,0131*60
$PYRTM,2024,127.000295078657,18.109942488796
$GNHDT,226.542,T*2E
$PYRTM,2024,127.000300923229,18.109948333368
$GNGGA,000026.00,3357.68306151,N,11922.57132892,W,2,12,0.8,7.567,M,-37.540,M,6.0,0131*68
$PYRTM,2024,127.000300923229,18.109948333368
$GNHDT,226.335,T*28
$PYRTM,2024,127.000306652211,18.109954062350
$GNGGA,000026.50,3357.68284865,N,11922.57143480,W,2,12,0.8,7.757,M,-37.540,M,6.4,0131*64
$PYRTM,2024,127.000306652211,18.109954062350
$GNHDT,225.568,T*25
$PYRTM,2024,127.000312501308,18.109959911447
$GNGGA,000027.00,3357.68259577,N,11922.57153529,W,2,12,0.8,7.971,M,-37.540,M,7.0,0131*62
$PYRTM,2024,127.000312501308,18.109959911447
$GNHDT,225.435,T*2C
$PYRTM,2024,127.000318224259,18.109965634398
$GNGGA,000027.50,3357.68231982,N,11922.57163846,W,2,12,0.8,8.104,M,-37.540,M,7.4,0131*69
$PYRTM,2024,127.000318224259,18.109965634398
$GNHDT,225.450,T*2F
$PYRTM,2024,127.000324075116,18.109971485255
$GNGGA,000028.00,3357.68202594,N,11922.57173924,W,2,12,0.8,8.175,M,-37.540,M,7.0,0131*6E
$PYRTM,2024,127.000324075116,18.109971485255
$GNHDT,225.220,T*2E
$PYRTM,2024,127.000329796285,18.109977206424
$GNGGA,000028.50,3357.68174159,N,11922.57187033,W,2,12,0.8,8.131,M,-37.540,M,7.4,0131*6C
$PYRTM,2024,127.000329796285,18.109977206424
$GNHDT,225.276,T*2D
$PYRTM,2024,127.000335641667,18.109983051806
$GNGGA,000029.00,3357.68146616,N,11922.57200796,W,2,12,0.8,8.023,M,-37.540,M,7.0,0131*67
$PYRTM,2024,127.000335641667,18.109983051806
$GNHDT,225.059,T*22
$PYRTM,2024,127.000341377674,18.109988787812
$GNGGA,000029.50,3357.68121021,N,11922.57215039,W,2,12,0.8,7.862,M,-37.540,M,7.4,0131*61
$PYRTM,2024,127.000341377674,18.109988787812
$GNHDT,225.189,T*2E
$PYRTM,2024,127.000347217720,18.109994627859
$GNGGA,000030.00,3357.68097922,N,11922.57230680,W,2,12,0.8,7.680,M,-37.540,M,4.0,0131*6C
$PYRTM,2024,127.000347217720,18.109994627859
$GNHDT,225.203,T*2F
$PYRTM,2024,127.000352954525,18.110000364664
$GNGGA,000030.50,3357.68079681,N,11922.57253271,W,2,12,0.8,7.502,M,-37.540,M,4.4,0131*6D
$PYRTM,2024,127.000352954525,18.110000364664
$GNHDT,225.023,T*2F
$PYRTM,2024,127.000358795405,18.110006205544
$GNGGA,000031.00,3357.68064344,N,11922.57276788,W,2,12,0.8,7.427,M,-37.540,M,5.0,0131*6E
$PYRTM,2024,127.000358795405,18.110006205544
$GNHDT,224.955,T*26
$PYRTM,2024,127.000364531343,18.110011941481
$GNGGA,000031.50,3357.68048122,N,11922.57294937,W,2,12,0.8,7.514,M,-37.540,M,5.4,0131*64
$PYRTM,2024,127.000364531343,18.110011941481
$GNHDT,224.850,T*22
$PYRTM,2024,127.000370370995,18.110017781146
$GNGGA,000032.00,3357.68028325,N,11922.57304972,W,2,12,0.8,7.791,M,-37.540,M,6.0,0131*60
$PYRTM,2024,127.000370370995,18.110017781146
$GNHDT,224.576,T*2B
$PYRTM,2024,127.000376093738,18.110023503877
$GNGGA,000032.50,3357.68004438,N,11922.57308182,W,2,12,0.8,8.172,M,-37.540,M,6.4,0131*6B
$PYRTM,2024,127.000376093738,18.110023503877
$GNHDT,223.701,T*2E
$PYRTM,2024,127.000381941470,18.110029351609
$GNGGA,000033.00,3357.67975193,N,11922.57307075,W,2,12,0.8,8.542,M,-37.540,M,7.0,0131*6F
$PYRTM,2024,127.000381941470,18.110029351609
$GNHDT,223.298,T*2B
$PYRTM,2024,127.000387672396,18.110035082535
$GNGGA,000033.50,3357.67942682,N,11922.57306126,W,2,12,0.8,8.729,M,-37.540,M,7.4,0131*64
$PYRTM,2024,127.000387672396,18.110035082535
$GNHDT,222.743,T*29
$PYRTM,2024,127.000393518519,18.110040928657
$GNGGA,000034.00,3357.67908646,N,11922.57311738,W,2,12,0.8,8.620,M,-37.540,M,7.0,0131*63
$PYRTM,2024,127.000393518519,18.110040928657
$GNHDT,222.578,T*23
$PYRTM,2024,127.000399243611,18.110046653750
$GNGGA,000034.50,3357.67879505,N,11922.57324399,W,2,12,0.8,8.300,M,-37.540,M,7.4,0131*6F
$PYRTM,2024,127.000399243611,18.110046653750
$GNHDT,223.027,T*2D
$PYRTM,2024,127.000405091030,18.110052501169
$GNGGA,000035.00,3357.67854320,N,11922.57340851,W,2,12,0.8,7.877,M,-37.540,M,7.0,0131*68
$PYRTM,2024,127.000405091030,18.110052501169
$GNHDT,223.438,T*27
$PYRTM,2024,127.000410820984,18.110058231123
$GNGGA,000035.50,3357.67837056,N,11922.57362099,W,2,12,0.8,7.489,M,-37.540,M,7.4,0131*6F
$PYRTM,2024,127.000410820984,18.110058231123
$GNHDT,223.836,T*25
$PYRTM,2024,127.000416669826,18.110064079977
$GNGGA,000036.00,3357.67826662,N,11922.57384108,W,2,12,0.8,7.266,M,-37.540,M,4.0,0131*69
$PYRTM,2024,127.000416669826,18.110064079977
$GNHDT,223.827,T*25
$PYRTM,2024,127.000422400706,18.110069810845
$GNGGA,000036.50,3357.67818436,N,11922.57401716,W,2,12,0.8,7.303,M,-37.540,M,4.4,0131*67
$PYRTM,2024,127.000422400706,18.110069810845
$GNHDT,223.324,T*2D
$PYRTM,2024,127.000428247477,18.110075657627
$GNGGA,000037.00,3357.67806931,N,11922.57412172,W,2,12,0.8,7.600,M,-37.540,M,5.0,0131*63
$PYRTM,2024,127.000428247477,18.110075657627
$GNHDT,222.981,T*29
$PYRTM,2024,127.000433977801,18.110081387940
$GNGGA,000037.50,3357.67785245,N,11922.57415428,W,2,12,0.8,7.983,M,-37.540,M,5.4,0131*67
$PYRTM,2024,127.000433977801,18.110081387940
$GNHDT,222.541,T*29
$PYRTM,2024,127.000439816736,18.110087226875
$GNGGA,000038.00,3357.67754307,N,11922.57414878,W,2,12,0.8,8.337,M,-37.540,M,6.0,0131*63
$PYRTM,2024,127.000439816736,18.110087226875
$GNHDT,222.235,T*2D
$PYRTM,2024,127.000445552569,18.110092962708
$GNGGA,000038.50,3357.67716547,N,11922.57414229,W,2,12,0.8,8.546,M,-37.540,M,6.4,0131*68
$PYRTM,2024,127.000445552569,18.110092962708
$GNHDT,222.211,T*2B
$PYRTM,2024,127.000451390324,18.110098800463
$GNGGA,000039.00,3357.67677324,N,11922.57415438,W,2,12,0.8,8.547,M,-37.541,M,7.0,0131*6B
$PYRTM,2024,127.000451390324,18.110098800463
$GNHDT,221.841,T*27
$PYRTM,2024,127.000457119931,18.110104530069
$GNGGA,000039.50,3357.67642491,N,11922.57419558,W,2,12,0.8,8.441,M,-37.541,M,7.4,0131*69
$PYRTM,2024,127.000457119931,18.110104530069
$GNHDT,222.298,T*2A
$PYRTM,2024,127.000462960752,18.110110370891
$GNGGA,000040.00,3357.67619490,N,11922.57429625,W,2,12,0.8,8.236,M,-37.541,M,7.0,0131*65
$PYRTM,2024,127.000462960752,18.110110370891
$GNHDT,222.400,T*2D
$PYRTM,2024,127.000468693588,18.110116103727
$GNGGA,000040.50,3357.67606180,N,11922.57445590,W,2,12,0.8,8.034,M,-37.541,M,7.4,0131*69
$PYRTM,2024,127.000468693588,18.110116103727
$GNHDT,222.813,T*23
$PYRTM,2024,127.000474535891,18.110121946030
$GNGGA,000041.00,3357.67598615,N,11922.57465092,W,2,12,0.8,7.912,M,-37.541,M,7.0,0131*61
$PYRTM,2024,127.000474535891,18.110121946030
$GNHDT,222.778,T*21
$PYRTM,2024,127.000480262940,18.110127673079
$GNGGA,000041.50,3357.67588180,N,11922.57481157,W,2,12,0.8,7.872,M,-37.541,M,7.4,0131*6F
$PYRTM,2024,127.000480262940,18.110127673079
$GNHDT,222.640,T*2B
$PYRTM,2024,127.000486112257,18.110133522407
$GNGGA,000042.00,3357.67571465,N,11922.57492724,W,2,12,0.8,7.917,M,-37.541,M,4.0,0131*64
$PYRTM,2024,127.000486112257,18.110133522407
$GNHDT,222.636,T*2A
$PYRTM,2024,127.000491843414,18.110139253553
$GNGGA,000042.50,3357.67548416,N,11922.57501261,W,2,12,0.8,8.012,M,-37.541,M,4.4,0131*67
$PYRTM,2024,127.000491843414,18.110139253553
$GNHDT,222.629,T*24
$PYRTM,2024,127.000497684155,18.110145094306
$GNGGA,000043.00,3357.67521927,N,11922.57508581,W,2,12,0.8,8.098,M,-37.541,M,5.0,0131*64
$PYRTM,2024,127.000497684155,18.110145094306
$GNHDT,222.668,T*21
$PYRTM,2024,127.000503413600,18.110150823738
$GNGGA,000043.50,3357.67495453,N,11922.57517140,W,2,12,0.8,8.153,M,-37.541,M,5.4,0131*64
$PYRTM,2024,127.000503413600,18.110150823738
$GNHDT,222.987,T*2F
$PYRTM,2024,127.000509257060,18.110156667211
$GNGGA,000044.00,3357.67470976,N,11922.57524739,W,2,12,0.8,8.233,M,-37.541,M,6.0,0131*6D
$PYRTM,2024,127.000509257060,18.110156667211
$GNHDT,222.883,T*2A
$PYRTM,2024,127.000514985845,18.110162395995
$GNGGA,000044.50,3357.67448966,N,11922.57529535,W,2,12,0.8,8.362,M,-37.541,M,6.4,0131*60
$PYRTM,2024,127.000514985845,18.110162395995
$GNHDT,223.023,T*29
$PYRTM,2024,127.000520832801,18.110168242951
$GNGGA,000045.00,3357.67427937,N,11922.57531402,W,2,12,0.8,8.524,M,-37.541,M,7.0,0131*64
$PYRTM,2024,127.000520832801,18.110168242951
$GNHDT,222.696,T*20
$PYRTM,2024,127.000526563252,18.110173973391
$GNGGA,000045.50,3357.67406184,N,11922.57534051,W,2,12,0.8,8.656,M,-37.541,M,7.4,0131*67
$PYRTM,2024,127.000526563252,18.110173973391
$GNHDT,222.631,T*2D
$PYRTM,2024,127.000532403553,18.110179813692
$GNGGA,000046.00,3357.67382312,N,11922.57539455,W,2,12,0.8,8.662,M,-37.541,M,7.0,0131*69
$PYRTM,2024,127.000532403553,18.110179813692
$GNHDT,222.354,T*2B
$PYRTM,2024,127.000538132685,18.110185542824
$GNGGA,000046.50,3357.67358359,N,11922.57550415,W,2,12,0.8,8.486,M,-37.541,M,7.4,0131*63
$PYRTM,2024,127.000538132685,18.110185542824
$GNHDT,222.622,T*2F
$PYRTM,2024,127.000543983507,18.110191393646
$GNGGA,000047.00,3357.67334921,N,11922.57565537,W,2,12,0.8,8.155,M,-37.541,M,7.0,0131*60
$PYRTM,2024,127.000543983507,18.110191393646
$GNHDT,222.845,T*20
$PYRTM,2024,127.000549710544,18.110197120683
$GNGGA,000047.50,3357.67313289,N,11922.57582393,W,2,12,0.8,7.760,M,-37.541,M,7.4,0131*63
$PYRTM,2024,127.000549710544,18.110197120683
$GNHDT,223.045,T*29
$PYRTM,2024,127.000555555752,18.110202965891
$GNGGA,000048.00,3357.67293940,N,11922.57599505,W,2,12,0.8,7.428,M,-37.541,M,4.0,0131*65
$PYRTM,2024,127.000555555752,18.110202965891
$GNHDT,223.605,T*2B
$PYRTM,2024,127.000561284051,18.110208694190
$GNGGA,000048.50,3357.67276168,N,11922.57614367,W,2,12,0.8,7.261,M,-37.541,M,4.4,0131*62
$PYRTM,2024,127.000561284051,18.110208694190
$GNHDT,223.852,T*27
$PYRTM,2024,127.000567123958,18.110214534097
$GNGGA,000049.00,3357.67257715,N,11922.57624819,W,2,12,0.8,7.328,M,-37.541,M,5.0,0131*61
$PYRTM,2024,127.000567123958,18.110214534097
$GNHDT,223.991,T*29
$PYRTM,2024,127.000572855567,18.110220265706
$GNGGA,000049.50,3357.67237188,N,11922.57631086,W,2,12,0.8,7.571,M,-37.541,M,5.4,0131*64
$PYRTM,2024,127.000572855567,18.110220265706
$GNHDT,224.034,T*28
$PYRTM,2024,127.000578699699,18.110226109826
$GNGGA,000050.00,3357.67213059,N,11922.57634992,W,2,12,0.8,7.884,M,-37.541,M,6.0,0131*6B
$PYRTM,2024,127.000578699699,18.110226109826
$GNHDT,223.858,T*2D
$PYRTM,2024,127.000584429444,18.110231839583
$GNGGA,000050.50,3357.67185255,N,11922.57639688,W,2,12,0.8,8.159,M,-37.541,M,6.4,0131*67
$PYRTM,2024,127.000584429444,18.110231839583
$GNHDT,223.493,T*26
$PYRTM,2024,127.000590272593,18.110237682731
$GNGGA,000051.00,3357.67154444,N,11922.57647305,W,2,12,0.8,8.290,M,-37.541,M,7.0,0131*63
$PYRTM,2024,127.000590272593,18.110237682731
$GNHDT,223.355,T*2B
$PYRTM,2024,127.000596003900,18.110243414039
$GNGGA,000051.50,3357.67123181,N,11922.57657697,W,2,12,0.8,8.276,M,-37.541,M,7.4,0131*69
$PYRTM,2024,127.000596003900,18.110243414039
$GNHDT,223.543,T*2A
$PYRTM,2024,127.000601854062,18.110249264201
$GNGGA,000052.00,3357.67093378,N,11922.57667760,W,2,12,0.8,8.169,M,-37.541,M,7.0,0131*62
$PYRTM,2024,127.000601854062,18.110249264201
$GNHDT,223.359,T*27
$PYRTM,2024,127.000607577766,18.110254987905
$GNGGA,000052.50,3357.67069273,N,11922.57676307,W,2,12,0.8,8.056,M,-37.541,M,7.4,0131*64
$PYRTM,2024,127.000607577766,18.110254987905
$GNHDT,224.019,T*27
$PYRTM,2024,127.000613439977,18.110260850116
$GNGGA,000053.00,3357.67052195,N,11922.57684922,W,2,12,0.8,7.948,M,-37.541,M,7.0,0131*6E
$PYRTM,2024,127.000613439977,18.110260850116
$GNHDT,224.119,T*26
$PYRTM,2024,127.000619157153,18.110266567292
$GNGGA,000053.50,3357.67039354,N,11922.57694968,W,2,12,0.8,7.855,M,-37.541,M,7.4,0131*6F
$PYRTM,2024,127.000619157153,18.110266567292
$GNHDT,223.953,T*27
$PYRTM,2024,127.000624996470,18.110272406609
$GNGGA,000054.00,3357.67025773,N,11922.57707703,W,2,12,0.8,7.753,M,-37.541,M,4.0,0131*67
$PYRTM,2024,127.000624996470,18.110272406609
$GNHDT,223.911,T*21
$PYRTM,2024,127.000630723356,18.110278133495
$GNGGA,000054.50,3357.67008546,N,11922.57722640,W,2,12,0.8,7.658,M,-37.541,M,4.4,0131*66
$PYRTM,2024,127.000630723356,18.110278133495
$GNHDT,224.268,T*23
$PYRTM,2024,127.000636567176,18.110283977326
$GNGGA,000055.00,3357.66983335,N,11922.57733854,W,2,12,0.8,7.616,M,-37.541,M,5.0,0131*6F
$PYRTM,2024,127.000636567176,18.110283977326
$GNHDT,224.381,T*25
$PYRTM,2024,127.000642298264,18.110289708403
$GNGGA,000055.50,3357.66953301,N,11922.57738950,W,2,12,0.8,7.704,M,-37.541,M,5.4,0131*68
$PYRTM,2024,127.000642298264,18.110289708403
$GNHDT,224.620,T*2B
$PYRTM,2024,127.000648144792,18.110295554931
$GNGGA,000056.00,3357.66920481,N,11922.57738022,W,2,12,0.8,7.936,M,-37.541,M,6.0,0131*61
$PYRTM,2024,127.000648144792,18.110295554931
$GNHDT,224.231,T*2F
$PYRTM,2024,127.000653880104,18.110301290243
$GNGGA,000056.50,3357.66891415,N,11922.57736804,W,2,12,0.8,8.187,M,-37.541,M,6.4,0131*69
$PYRTM,2024,127.000653880104,18.110301290243
$GNHDT,225.032,T*2F
$PYRTM,2024,127.000659719097,18.110307129236
$GNGGA,000057.00,3357.66866404,N,11922.57739250,W,2,12,0.8,8.388,M,-37.541,M,7.0,0131*69
$PYRTM,2024,127.000659719097,18.110307129236
$GNHDT,224.867,T*26
$PYRTM,2024,127.000665450359,18.110312860498
$GNGGA,000057.50,3357.66846707,N,11922.57748627,W,2,12,0.8,8.473,M,-37.541,M,7.4,0131*6B
$PYRTM,2024,127.000665450359,18.110312860498
$GNHDT,224.737,T*2C
$PYRTM,2024,127.000671294352,18.110318704491
$GNGGA,000058.00,3357.66829807,N,11922.57763438,W,2,12,0.8,8.444,M,-37.541,M,7.0,0131*62
$PYRTM,2024,127.000671294352,18.110318704491
$GNHDT,224.913,T*24
$PYRTM,2024,127.000677021100,18.110324431238
$GNGGA,000058.50,3357.66814679,N,11922.57782171,W,2,12,0.8,8.351,M,-37.541,M,7.4,0131*6E
$PYRTM,2024,127.000677021100,18.110324431238
$GNHDT,225.256,T*2F
$PYRTM,2024,127.000682867442,18.110330277581
$GNGGA,000059.00,3357.66798920,N,11922.57800172,W,2,12,0.8,8.235,M,-37.541,M,7.0,0131*63
$PYRTM,2024,127.000682867442,18.110330277581
$GNHDT,225.469,T*25
$PYRTM,2024,127.000688596655,18.110336006794
$GNGGA,000059.50,3357.66781802,N,11922.57814520,W,2,12,0.8,8.177,M,-37.541,M,7.4,0131*68
$PYRTM,2024,127.000688596655,18.110336006794
$GNHDT,225.295,T*20
$PYRTM,2024,127.000694443565,18.110341853704
$GNGGA,000100.00,3357.66762142,N,11922.57823358,W,2,12,0.8,8.200,M,-37.541,M,4.0,0131*69
$PYRTM,2024,127.000694443565,18.110341853704
$GNHDT,225.268,T*22
$PYRTM,2024,127.000700174734,18.110347584873
$GNGGA,000100.50,3357.66739460,N,11922.57827077,W,2,12,0.8,8.296,M,-37.541,M,4.4,0131*66
$PYRTM,2024,127.000700174734,18.110347584873
$GNHDT,225.065,T*2D
$PYRTM,2024,127.000706020104,18.110353430243
$GNGGA,000101.00,3357.66714345,N,11922.57827319,W,2,12,0.8,8.391,M,-37.541,M,5.0,0131*65
$PYRTM,2024,127.000706020104,18.110353430243
$GNHDT,225.052,T*29
$PYRTM,2024,127.000711746597,18.110359156736
$GNGGA,000101.50,3357.66687691,N,11922.57827868,W,2,12,0.8,8.418,M,-37.541,M,5.4,0131*68
$PYRTM,2024,127.000711746597,18.110359156736
$GNHDT,225.075,T*2C
$PYRTM,2024,127.000717590428,18.110365000567
$GNGGA,000102.00,3357.66659463,N,11922.57829623,W,2,12,0.8,8.363,M,-37.541,M,6.0,0131*61
$PYRTM,2024,127.000717590428,18.110365000567
$GNHDT,225.041,T*2B
$PYRTM,2024,127.000723314213,18.110370724352
$GNGGA,000102.50,3357.66632796,N,11922.57837897,W,2,12,0.8,8.225,M,-37.541,M,6.4,0131*69
$PYRTM,2024,127.000723314213,18.110370724352
$GNHDT,225.157,T*2D
$PYRTM,2024,127.000729159444,18.110376569583
$GNGGA,000103.00,3357.66609701,N,11922.57852680,W,2,12,0.8,8.042,M,-37.541,M,7.0,0131*66
$PYRTM,2024,127.000729159444,18.110376569583
$GNHDT,225.187,T*20
$PYRTM,2024,127.000734892535,18.110382302674
$GNGGA,000103.50,3357.66590835,N,11922.57869715,W,2,12,0.8,7.869,M,-37.541,M,7.4,0131*67
$PYRTM,2024,127.000734892535,18.110382302674
$GNHDT,225.256,T*2F
$PYRTM,2024,127.000740741389,18.110388151528
$GNGGA,000104.00,3357.66576299,N,11922.57887838,W,2,12,0.8,7.734,M,-37.541,M,7.0,0131*62
$PYRTM,2024,127.000740741389,18.110388151528
$GNHDT,225.136,T*2A
$PYRTM,2024,127.000746471146,18.110393881285
$GNGGA,000104.50,3357.66563452,N,11922.57904210,W,2,12,0.8,7.667,M,-37.541,M,7.4,0131*6B
$PYRTM,2024,127.000746471146,18.110393881285
$GNHDT,225.319,T*25
$PYRTM,2024,127.000752309248,18.110399719387
$GNGGA,000105.00,3357.66548661,N,11922.57918289,W,2,12,0.8,7.663,M,-37.541,M,7.0,0131*69
$PYRTM,2024,127.000752309248,18.110399719387
$GNHDT,225.363,T*28
$PYRTM,2024,127.000758037593,18.110405447743
$GNGGA,000105.50,3357.66528363,N,11922.57928681,W,2,12,0.8,7.711,M,-37.541,M,7.4,0131*62
$PYRTM,2024,127.000758037593,18.110405447743
$GNHDT,225.231,T*2E
$PYRTM,2024,127.000763888125,18.110411298264
$GNGGA,000106.00,3357.66502031,N,11922.57935588,W,2,12,0.8,7.787,M,-37.541,M,4.0,0131*66
$PYRTM,2024,127.000763888125,18.110411298264
$GNHDT,225.195,T*23
$PYRTM,2024,127.000769615301,18.110417025440
$GNGGA,000106.50,3357.66472023,N,11922.57940279,W,2,12,0.8,7.890,M,-37.541,M,4.4,0131*60
$PYRTM,2024,127.000769615301,18.110417025440
$GNHDT,225.453,T*2C
$PYRTM,2024,127.000775461852,18.110422871991
$GNGGA,000107.00,3357.66441423,N,11922.57943710,W,2,12,0.8,7.978,M,-37.541,M,5.0,0131*6B
$PYRTM,2024,127.000775461852,18.110422871991
$GNHDT,225.414,T*2F
$PYRTM,2024,127.000781189259,18.110428599398
$GNGGA,000107.50,3357.66414139,N,11922.57948762,W,2,12,0.8,8.038,M,-37.541,M,5.4,0131*68
$PYRTM,2024,127.000781189259,18.110428599398
$GNHDT,225.282,T*26
$PYRTM,2024,127.000787033993,18.110434444132
$GNGGA,000108.00,3357.66391624,N,11922.57956264,W,2,12,0.8,8.054,M,-37.541,M,6.0,0131*62
$PYRTM,2024,127.000787033993,18.110434444132
$GNHDT,225.264,T*2E
$PYRTM,2024,127.000792760532,18.110440170671
$GNGGA,000108.50,3357.66372875,N,11922.57966139,W,2,12,0.8,8.026,M,-37.541,M,6.4,0131*69
$PYRTM,2024,127.000792760532,18.110440170671
$GNHDT,225.328,T*27
$PYRTM,2024,127.000798604641,18.110446014780
$GNGGA,000109.00,3357.66356795,N,11922.57978767,W,2,12,0.8,7.957,M,-37.541,M,7.0,0131*6D
$PYRTM,2024,127.000798604641,18.110446014780
$GNHDT,225.239,T*26
$PYRTM,2024,127.000804337917,18.110451748056
$GNGGA,000109.50,3357.66341084,N,11922.57991756,W,2,12,0.8,7.863,M,-37.541,M,7.4,0131*6E
$PYRTM,2024,127.000804337917,18.110451748056
$GNHDT,224.972,T*23
$PYRTM,2024,127.000810182326,18.110457592465
$GNGGA,000110.00,3357.66324044,N,11922.58004644,W,2,12,0.8,7.760,M,-37.541,M,7.0,0131*6C
$PYRTM,2024,127.000810182326,18.110457592465
$GNHDT,225.213,T*2E
$PYRTM,2024,127.000815912014,18.110463322164
$GNGGA,000110.50,3357.66304536,N,11922.58016930,W,2,12,0.8,7.667,M,-37.541,M,7.4,0131*66
$PYRTM,2024,127.000815912014,18.110463322164
$GNHDT,225.164,T*2D
$PYRTM,2024,127.000821757303,18.110469167442
$GNGGA,000111.00,3357.66282356,N,11922.58029221,W,2,12,0.8,7.581,M,-37.541,M,7.0,0131*65
$PYRTM,2024,127.000821757303,18.110469167442
$GNHDT,225.289,T*2D
$PYRTM,2024,127.000827485370,18.110474895509
$GNGGA,000111.50,3357.66257967,N,11922.58039399,W,2,12,0.8,7.558,M,-37.541,M,7.4,0131*63
$PYRTM,2024,127.000827485370,18.110474895509
$GNHDT,225.332,T*2C
$PYRTM,2024,127.000833327766,18.110480737917
$GNGGA,000112.00,3357.66231761,N,11922.58045416,W,2,12,0.8,7.613,M,-37.541,M,4.0,0131*6D
$PYRTM,2024,127.000833327766,18.110480737917
$GNHDT,225.272,T*29
$PYRTM,2024,127.000839059456,18.110486469595
$GNGGA,000112.50,3357.66205860,N,11922.58047786,W,2,12,0.8,7.792,M,-37.541,M,4.4,0131*65
$PYRTM,2024,127.000839059456,18.110486469595
$GNHDT,225.536,T*2E
$PYRTM,2024,127.000844903681,18.110492313831
$GNGGA,000113.00,3357.66180827,N,11922.58046996,W,2,12,0.8,8.026,M,-37.541,M,5.0,0131*60
$PYRTM,2024,127.000844903681,18.110492313831
$GNHDT,225.289,T*2D
$PYRTM,2024,127.000850635116,18.110498045255
$GNGGA,000113.50,3357.66158147,N,11922.58050576,W,2,12,0.8,8.195,M,-37.541,M,5.4,0131*67
$PYRTM,2024,127.000850635116,18.110498045255
$GNHDT,225.056,T*2D
$PYRTM,2024,127.000856477720,18.110503887859
$GNGGA,000114.00,3357.66137071,N,11922.58060383,W,2,12,0.8,8.227,M,-37.541,M,6.0,0131*6A
$PYRTM,2024,127.000856477720,18.110503887859
$GNHDT,224.880,T*2F
$PYRTM,2024,127.000862213461,18.110509623600
$GNGGA,000114.50,3357.66117633,N,11922.58078975,W,2,12,0.8,8.073,M,-37.541,M,6.4,0131*60
$PYRTM,2024,127.000862213461,18.110509623600
$GNHDT,225.155,T*2F
$PYRTM,2024,127.000868056065,18.110515466204
$GNGGA,000115.00,3357.66098987,N,11922.58102077,W,2,12,0.8,7.803,M,-37.541,M,7.0,0131*60
$PYRTM,2024,127.000868056065,18.110515466204
$GNHDT,225.195,T*23
$PYRTM,2024,127.000873783275,18.110521193414
$GNGGA,000115.50,3357.66080319,N,11922.58122399,W,2,12,0.8,7.550,M,-37.541,M,7.4,0131*6F
$PYRTM,2024,127.000873783275,18.110521193414
$GNHDT,225.051,T*2A
$PYRTM,2024,127.000879625185,18.110527035324
$GNGGA,000116.00,3357.66059731,N,11922.58135548,W,2,12,0.8,7.462,M,-37.541,M,7.0,0131*6B
$PYRTM,2024,127.000879625185,18.110527035324
$GNHDT,225.060,T*28
$PYRTM,2024,127.000885359722,18.110532769861
$GNGGA,000116.50,3357.66036450,N,11922.58139742,W,2,12,0.8,7.563,M,-37.541,M,7.4,0131*63
$PYRTM,2024,127.000885359722,18.110532769861
$GNHDT,224.821,T*24
$PYRTM,2024,127.000891197245,18.110538607384
$GNGGA,000117.00,3357.66010735,N,11922.58138538,W,2,12,0.8,7.828,M,-37.541,M,7.0,0131*6B
$PYRTM,2024,127.000891197245,18.110538607384
$GNHDT,224.682,T*23
$PYRTM,2024,127.000896937280,18.110544347419
$GNGGA,000117.50,3357.65983803,N,11922.58136561,W,2,12,0.8,8.087,M,-37.541,M,7.4,0131*60
$PYRTM,2024,127.000896937280,18.110544347419
$GNHDT,224.406,T*2D
$PYRTM,2024,127.000902772998,18.110550183137
$GNGGA,000118.00,3357.65956644,N,11922.58140149,W,2,12,0.8,8.194,M,-37.541,M,4.0,0131*64
$PYRTM,2024,127.000902772998,18.110550183137
$GNHDT,224.271,T*2B
$PYRTM,2024,127.000908503137,18.110555913275
$GNGGA,000118.50,3357.65930978,N,11922.58150739,W,2,12,0.8,8.148,M,-37.541,M,4.4,0131*64
$PYRTM,2024,127.000908503137,18.110555913275
$GNHDT,224.438,T*20
$PYRTM,2024,127.000914349549,18.110561759687
$GNGGA,000119.00,3357.65907152,N,11922.58164828,W,2,12,0.8,7.998,M,-37.541,M,5.0,0131*63
$PYRTM,2024,127.000914349549,18.110561759687
$GNHDT,224.408,T*23
$PYRTM,2024,127.000920081146,18.110567491285
$GNGGA,000119.50,3357.65886310,N,11922.58179469,W,2,12,0.8,7.864,M,-37.541,M,5.4,0131*69
$PYRTM,2024,127.000920081146,18.110567491285
$GNHDT,224.111,T*2E
$PYRTM,2024,127.000925921169,18.110573331308
$GNGGA,000120.00,3357.65867266,N,11922.58190371,W,2,12,0.8,7.817,M,-37.541,M,6.0,0131*63
$PYRTM,2024,127.000925921169,18.110573331308
$GNHDT,224.107,T*29
$PYRTM,2024,127.000931649016,18.110579059155
$GNGGA,000120.50,3357.65847896,N,11922.58196387,W,2,12,0.8,7.869,M,-37.541,M,6.4,0131*63
$PYRTM,2024,127.000931649016,18.110579059155
$GNHDT,223.922,T*21
$PYRTM,2024,127.000937497812,18.110584907951
$GNGGA,000121.00,3357.65826928,N,11922.58199289,W,2,12,0.8,7.956,M,-37.541,M,7.0,0131*6C
$PYRTM,2024,127.000937497812,18.110584907951
$GNHDT,223.801,T*21
$PYRTM,2024,127.000943228113,18.110590638241
$GNGGA,000121.50,3357.65804742,N,11922.58203992,W,2,12,0.8,7.988,M,-37.541,M,7.4,0131*6D
$PYRTM,2024,127.000943228113,18.110590638241
$GNHDT,223.614,T*2B
$PYRTM,2024,127.000949070162,18.110596480301
$GNGGA,000122.00,3357.65781947,N,11922.58211635,W,2,12,0.8,7.908,M,-37.541,M,7.0,0131*6F
$PYRTM,2024,127.000949070162,18.110596480301
$GNHDT,223.661,T*29
$PYRTM,2024,127.000954799248,18.110602209387
$GNGGA,000122.50,3357.65760048,N,11922.58223025,W,2,12,0.8,7.745,M,-37.541,M,7.4,0131*66
$PYRTM,2024,127.000954799248,18.110602209387
$GNHDT,223.733,T*2F
$PYRTM,2024,127.000960645532,18.110608055671
$GNGGA,000123.00,3357.65738584,N,11922.58234531,W,2,12,0.8,7.589,M,-37.541,M,7.0,0131*6A
$PYRTM,2024,127.000960645532,18.110608055671
$GNHDT,223.704,T*2B
$PYRTM,2024,127.000966373981,18.110613784120
$GNGGA,000123.50,3357.65716736,N,11922.58243682,W,2,12,0.8,7.558,M,-37.541,M,7.4,0131*6B
$PYRTM,2024,127.000966373981,18.110613784120
$GNHDT,223.337,T*2F
$PYRTM,2024,127.000972221424,18.110619631562
$GNGGA,000124.00,3357.65692637,N,11922.58247691,W,2,12,0.8,7.684,M,-37.541,M,4.0,0131*67
$PYRTM,2024,127.000972221424,18.110619631562
$GNHDT,223.192,T*22
$PYRTM,2024,127.000977948565,18.110625358704
$GNGGA,000124.50,3357.65666526,N,11922.58249377,W,2,12,0.8,7.912,M,-37.541,M,4.4,0131*6D
$PYRTM,2024,127.000977948565,18.110625358704
$GNHDT,223.069,T*27
$PYRTM,2024,127.000983796516,18.110631206655
$GNGGA,000125.00,3357.65638340,N,11922.58251954,W,2,12,0.8,8.132,M,-37.541,M,5.0,0131*66
$PYRTM,2024,127.000983796516,18.110631206655
$GNHDT,223.185,T*24
$PYRTM,2024,127.000989520243,18.110636930394
$GNGGA,000125.50,3357.65611720,N,11922.58257979,W,2,12,0.8,8.231,M,-37.542,M,5.4,0131*64
$PYRTM,2024,127.000989520243,18.110636930394
$GNHDT,223.076,T*29
$PYRTM,2024,127.000995369444,18.110642779583
$GNGGA,000126.00,3357.65587632,N,11922.58269532,W,2,12,0.8,8.176,M,-37.542,M,6.0,0131*65
$PYRTM,2024,127.000995369444,18.110642779583
$GNHDT,223.300,T*2B
$PYRTM,2024,127.001001097569,18.110648507708
$GNGGA,000126.50,3357.65568440,N,11922.58282277,W,2,12,0.8,8.062,M,-37.542,M,6.4,0131*65
$PYRTM,2024,127.001001097569,18.110648507708
$GNHDT,223.210,T*2B
$PYRTM,2024,127.001006942975,18.110654353125
$GNGGA,000127.00,3357.65551267,N,11922.58293451,W,2,12,0.8,7.953,M,-37.542,M,7.0,0131*6B
$PYRTM,2024,127.001006942975,18.110654353125
$GNHDT,223.114,T*2C
$PYRTM,2024,127.001012670856,18.110660080995
$GNGGA,000127.50,3357.65533157,N,11922.58301807,W,2,12,0.8,7.916,M,-37.542,M,7.4,0131*6A
$PYRTM,2024,127.001012670856,18.110660080995
$GNHDT,223.286,T*24
$PYRTM,2024,127.001018522894,18.110665933032
$GNGGA,000128.00,3357.65511828,N,11922.58306726,W,2,12,0.8,7.930,M,-37.542,M,7.0,0131*6A
$PYRTM,2024,127.001018522894,18.110665933032
$GNHDT,223.067,T*29
$PYRTM,2024,127.001024245752,18.110671655891
$GNGGA,000128.50,3357.65487022,N,11922.58311148,W,2,12,0.8,7.943,M,-37.542,M,7.4,0131*6B
$PYRTM,2024,127.001024245752,18.110671655891
$GNHDT,222.830,T*22
$PYRTM,2024,127.001030095405,18.110677505544
$GNGGA,000129.00,3357.65459785,N,11922.58317133,W,2,12,0.8,7.889,M,-37.542,M,7.0,0131*6F
$PYRTM,2024,127.001030095405,18.110677505544
$GNHDT,222.788,T*2E
$PYRTM,2024,127.001035818600,18.110683228738
$GNGGA,000129.50,3357.65432303,N,11922.58325036,W,2,12,0.8,7.788,M,-37.542,M,7.4,0131*62
$PYRTM,2024,127.001035818600,18.110683228738
$GNHDT,222.834,T*26
$PYRTM,2024,127.001041661227,18.110689071366
$GNGGA,000130.00,3357.65405524,N,11922.58333208,W,2,12,0.8,7.680,M,-37.542,M,4.0,0131*6E
$PYRTM,2024,127.001041661227,18.110689071366
$GNHDT,223.207,T*2D
$PYRTM,2024,127.001047389572,18.110694799711
$GNGGA,000130.50,3357.65380852,N,11922.58341641,W,2,12,0.8,7.616,M,-37.542,M,4.4,0131*6A
$PYRTM,2024,127.001047389572,18.110694799711
$GNHDT,223.126,T*2D
$PYRTM,2024,127.001053237176,18.110700647315
$GNGGA,000131.00,3357.65358284,N,11922.58349954,W,2,12,0.8,7.635,M,-37.542,M,5.0,0131*6D
$PYRTM,2024,127.001053237176,18.110700647315
$GNHDT,223.076,T*29
$PYRTM,2024,127.001058967940,18.110706378079
$GNGGA,000131.50,3357.65336595,N,11922.58358966,W,2,12,0.8,7.722,M,-37.542,M,5.4,0131*65
$PYRTM,2024,127.001058967940,18.110706378079
$GNHDT,222.999,T*20
$PYRTM,2024,127.001064814086,18.110712224225
$GNGGA,000132.00,3357.65313877,N,11922.58366936,W,2,12,0.8,7.856,M,-37.542,M,6.0,0131*66
$PYRTM,2024,127.001064814086,18.110712224225
$GNHDT,222.795,T*22
$PYRTM,2024,127.001070538171,18.110717948310
$GNGGA,000132.50,3357.65289272,N,11922.58374737,W,2,12,0.8,7.963,M,-37.542,M,6.4,0131*61
$PYRTM,2024,127.001070538171,18.110717948310
$GNHDT,222.598,T*2D
$PYRTM,2024,127.001076386308,18.110723796447
$GNGGA,000133.00,3357.65261116,N,11922.58383884,W,2,12,0.8,8.000,M,-37.542,M,7.0,0131*6B
$PYRTM,2024,127.001076386308,18.110723796447
$GNHDT,222.653,T*29
$PYRTM,2024,127.001082115394,18.110729525532
$GNGGA,000133.50,3357.65232235,N,11922.58393356,W,2,12,0.8,7.953,M,-37.542,M,7.4,0131*6B
$PYRTM,2024,127.001082115394,18.110729525532
$GNHDT,222.695,T*23
$PYRTM,2024,127.001087961250,18.110735371389
$GNGGA,000134.00,3357.65203148,N,11922.58402918,W,2,12,0.8,7.868,M,-37.542,M,7.0,0131*60
$PYRTM,2024,127.001087961250,18.110735371389
$GNHDT,222.839,T*2B
$PYRTM,2024,127.001093690856,18.110741101007
$GNGGA,000134.50,3357.65176713,N,11922.58410780,W,2,12,0.8,7.814,M,-37.542,M,7.4,0131*6F
$PYRTM,2024,127.001093690856,18.110741101007
$GNHDT,222.911,T*20
$PYRTM,2024,127.001099534549,18.110746944687
$GNGGA,000135.00,3357.65153310,N,11922.58415249,W,2,12,0.8,7.842,M,-37.542,M,7.0,0131*69
$PYRTM,2024,127.001099534549,18.110746944687
$GNHDT,222.851,T*25
$PYRTM,2024,127.001105264051,18.110752674190
$GNGGA,000135.50,3357.65132715,N,11922.58418878,W,2,12,0.8,7.947,M,-37.542,M,7.4,0131*6F
$PYRTM,2024,127.001105264051,18.110752674190
$GNHDT,222.496,T*22
$PYRTM,2024,127.001111110475,18.110758520613
$GNGGA,000136.00,3357.65113305,N,11922.58422644,W,2,12,0.8,8.074,M,-37.542,M,4.0,0131*66
$PYRTM,2024,127.001111110475,18.110758520613
$GNHDT,222.440,T*29
$PYRTM,2024,127.001116837072,18.110764247211
$GNGGA,000136.50,3357.65093007,N,11922.58428999,W,2,12,0.8,8.171,M,-37.542,M,4.4,0131*6E
$PYRTM,2024,127.001116837072,18.110764247211
$GNHDT,222.559,T*20
$PYRTM,2024,127.001122681528,18.110770091678
$GNGGA,000137.00,3357.65070114,N,11922.58437262,W,2,12,0.8,8.198,M,-37.542,M,5.0,0131*67
$PYRTM,2024,127.001122681528,18.110770091678
$GNHDT,222.548,T*20
$PYRTM,2024,127.001128410764,18.110775820903
$GNGGA,000137.50,3357.65045348,N,11922.58446124,W,2,12,0.8,8.176,M,-37.542,M,5.4,0131*6C
$PYRTM,2024,127.001128410764,18.110775820903
$GNHDT,222.784,T*22
$PYRTM,2024,127.001134253993,18.110781664132
$GNGGA,000138.00,3357.65020104,N,11922.58454618,W,2,12,0.8,8.119,M,-37.542,M,6.0,0131*6A
$PYRTM,2024,127.001134253993,18.110781664132
$GNHDT,222.979,T*2E
$PYRTM,2024,127.001139982708,18.110787392847
$GNGGA,000138.50,3357.64996137,N,11922.58463557,W,2,12,0.8,8.049,M,-37.542,M,6.4,0131*66
$PYRTM,2024,127.001139982708,18.110787392847
$GNHDT,223.090,T*21
$PYRTM,2024,127.001145826551,18.110793236690
$GNGGA,000139.00,3357.64974932,N,11922.58474702,W,2,12,0.8,7.979,M,-37.542,M,7.0,0131*67
$PYRTM,2024,127.001145826551,18.110793236690
$GNHDT,223.221,T*29
$PYRTM,2024,127.001151562569,18.110798972708
$GNGGA,000139.50,3357.64957106,N,11922.58486981,W,2,12,0.8,7.943,M,-37.542,M,7.4,0131*69
$PYRTM,2024,127.001151562569,18.110798972708
$GNHDT,223.421,T*2F
$PYRTM,2024,127.001157402940,18.110804813079
$GNGGA,000140.00,3357.64941542,N,11922.58498875,W,2,12,0.8,7.969,M,-37.542,M,7.0,0131*68
$PYRTM,2024,127.001157402940,18.110804813079
$GNHDT,223.442,T*2A
$PYRTM,2024,127.001163134375,18.110810544514
$GNGGA,000140.50,3357.64924799,N,11922.58509028,W,2,12,0.8,8.086,M,-37.542,M,7.4,0131*60
$PYRTM,2024,127.001163134375,18.110810544514
$GNHDT,223.415,T*28
$PYRTM,2024,127.001168975394,18.110816385532
$GNGGA,000141.00,3357.64904890,N,11922.58515629,W,2,12,0.8,8.268,M,-37.542,M,7.0,0131*6C
$PYRTM,2024,127.001168975394,18.110816385532
$GNHDT,223.180,T*21
$PYRTM,2024,127.001174710336,18.110822120475
$GNGGA,000141.50,3357.64880454,N,11922.58519361,W,2,12,0.8,8.449,M,-37.542,M,7.4,0131*64
$PYRTM,2024,127.001174710336,18.110822120475
$GNHDT,223.107,T*2E
$PYRTM,2024,127.001180555903,18.110827966042
$GNGGA,000142.00,3357.64852000,N,11922.58521950,W,2,12,0.8,8.574,M,-37.542,M,4.0,0131*63
$PYRTM,2024,127.001180555903,18.110827966042
$GNHDT,222.996,T*2F
$PYRTM,2024,127.001186281736,18.110833691875
$GNGGA,000142.50,3357.64821342,N,11922.58525438,W,2,12,0.8,8.589,M,-37.542,M,4.4,0131*66
$PYRTM,2024,127.001186281736,18.110833691875
$GNHDT,222.982,T*2A
$PYRTM,2024,127.001192124757,18.110839534896
$GNGGA,000143.00,3357.64791369,N,11922.58533337,W,2,12,0.8,8.415,M,-37.542,M,5.0,0131*61
$PYRTM,2024,127.001192124757,18.110839534896
$GNHDT,223.539,T*27
$PYRTM,2024,127.001197854676,18.110845264815
$GNGGA,000143.50,3357.64765235,N,11922.58544814,W,2,12,0.8,8.136,M,-37.542,M,5.4,0131*6D
$PYRTM,2024,127.001197854676,18.110845264815
$GNHDT,223.606,T*28
$PYRTM,2024,127.001203698310,18.110851108449
$GNGGA,000144.00,3357.64745014,N,11922.58559317,W,2,12,0.8,7.824,M,-37.542,M,6.0,0131*6A
$PYRTM,2024,127.001203698310,18.110851108449
$GNHDT,223.781,T*26
$PYRTM,2024,127.001209426701,18.110856836840
$GNGGA,000144.50,3357.64729440,N,11922.58574541,W,2,12,0.8,7.603,M,-37.542,M,6.4,0131*65
$PYRTM,2024,127.001209426701,18.110856836840
$GNHDT,223.749,T*22
$PYRTM,2024,127.001215279248,18.110862689398
$GNGGA,000145.00,3357.64716150,N,11922.58587587,W,2,12,0.8,7.537,M,-37.542,M,7.0,0131*6E
$PYRTM,2024,127.001215279248,18.110862689398
$GNHDT,223.854,T*21
$PYRTM,2024,127.001221000417,18.110868410567
$GNGGA,000145.50,3357.64701497,N,11922.58598330,W,2,12,0.8,7.642,M,-37.542,M,7.4,0131*62
$PYRTM,2024,127.001221000417,18.110868410567
$GNHDT,223.772,T*2A
$PYRTM,2024,127.001226851748,18.110874261887
$GNGGA,000146.00,3357.64681962,N,11922.58604340,W,2,12,0.8,7.879,M,-37.542,M,7.0,0131*69
$PYRTM,2024,127.001226851748,18.110874261887
$GNHDT,223.793,T*25
$PYRTM,2024,127.001232586678,18.110879996817
$GNGGA,000146.50,3357.64656185,N,11922.58606753,W,2,12,0.8,8.132,M,-37.542,M,7.4,0131*6E
$PYRTM,2024,127.001232586678,18.110879996817
$GNHDT,223.801,T*21
$PYRTM,2024,127.001238422882,18.110885833021
$GNGGA,000147.00,3357.64624772,N,11922.58606326,W,2,12,0.8,8.353,M,-37.542,M,7.0,0131*66
$PYRTM,2024,127.001238422882,18.110885833021
$GNHDT,223.782,T*25
$PYRTM,2024,127.001244157546,18.110891567685
$GNGGA,000147.50,3357.64592074,N,11922.58606509,W,2,12,0.8,8.454,M,-37.542,M,7.4,0131*63
$PYRTM,2024,127.001244157546,18.110891567685
$GNHDT,223.692,T*25
$PYRTM,2024,127.001249997894,18.110897408032
$GNGGA,000148.00,3357.64561828,N,11922.58611649,W,2,12,0.8,8.381,M,-37.542,M,4.0,0131*6D
$PYRTM,2024,127.001249997894,18.110897408032
$GNHDT,223.744,T*2F
$PYRTM,2024,127.001255728924,18.110903139063
$GNGGA,000148.50,3357.64537702,N,11922.58623793,W,2,12,0.8,8.116,M,-37.542,M,4.4,0131*63
$PYRTM,2024,127.001255728924,18.110903139063
$GNHDT,224.313,T*2E
$PYRTM,2024,127.001261571806,18.110908981944
$GNGGA,000149.00,3357.64519820,N,11922.58644034,W,2,12,0.8,7.730,M,-37.542,M,5.0,0131*67
$PYRTM,2024,127.001261571806,18.110908981944
$GNHDT,224.509,T*23
$PYRTM,2024,127.001267296620,18.110914706759
$GNGGA,000149.50,3357.64506732,N,11922.58667382,W,2,12,0.8,7.349,M,-37.542,M,5.4,0131*61
$PYRTM,2024,127.001267296620,18.110914706759
$GNHDT,224.498,T*2A
$PYRTM,2024,127.001273144109,18.110920554248
$GNGGA,000150.00,3357.64494457,N,11922.58689191,W,2,12,0.8,7.126,M,-37.542,M,6.0,0131*6A
$PYRTM,2024,127.001273144109,18.110920554248
$GNHDT,224.976,T*27
$PYRTM,2024,127.001278877234,18.110926287373
$GNGGA,000150.50,3357.64478221,N,11922.58701804,W,2,12,0.8,7.207,M,-37.542,M,6.4,0131*6A
$PYRTM,2024,127.001278877234,18.110926287373
$GNHDT,224.746,T*2A
$PYRTM,2024,127.001284725938,18.110932136076
$GNGGA,000151.00,3357.64456008,N,11922.58704624,W,2,12,0.8,7.535,M,-37.542,M,7.0,0131*61
$PYRTM,2024,127.001284725938,18.110932136076
$GNHDT,224.785,T*25
$PYRTM,2024,127.001290452188,18.110937862326
$GNGGA,000151.50,3357.64428790,N,11922.58702122,W,2,12,0.8,7.970,M,-37.542,M,7.4,0131*65
$PYRTM,2024,127.001290452188,18.110937862326
$GNHDT,224.598,T*2B
$PYRTM,2024,127.001296296100,18.110943706238
$GNGGA,000152.00,3357.64397834,N,11922.58698197,W,2,12,0.8,8.338,M,-37.542,M,7.0,0131*60
$PYRTM,2024,127.001296296100,18.110943706238
$GNHDT,224.409,T*22
$PYRTM,2024,127.001302019178,18.110949429317
$GNGGA,000152.50,3357.64366038,N,11922.58700643,W,2,12,0.8,8.444,M,-37.542,M,7.4,0131*69
$PYRTM,2024,127.001302019178,18.110949429317
$GNHDT,224.074,T*2C
$PYRTM,2024,127.001307871528,18.110955281667
$GNGGA,000153.00,3357.64335963,N,11922.58710025,W,2,12,0.8,8.292,M,-37.542,M,7.0,0131*62
$PYRTM,2024,127.001307871528,18.110955281667
$GNHDT,223.965,T*22
$PYRTM,2024,127.001313594236,18.110961004375
$GNGGA,000153.50,3357.64309327,N,11922.58724407,W,2,12,0.8,7.993,M,-37.542,M,7.4,0131*60
$PYRTM,2024,127.001313594236,18.110961004375
$GNHDT,224.235,T*2B
$PYRTM,2024,127.001319438414,18.110966848553
$GNGGA,000154.00,3357.64286883,N,11922.58738962,W,2,12,0.8,7.668,M,-37.542,M,4.0,0131*6E
$PYRTM,2024,127.001319438414,18.110966848553
$GNHDT,224.645,T*28
$PYRTM,2024,127.001325170486,18.110972580637
$GNGGA,000154.50,3357.64268462,N,11922.58751253,W,2,12,0.8,7.447,M,-37.542,M,4.4,0131*65
$PYRTM,2024,127.001325170486,18.110972580637
$GNHDT,224.868,T*29
$PYRTM,2024,127.001331015498,18.110978425637
$GNGGA,000155.00,3357.64252758,N,11922.58759338,W,2,12,0.8,7.409,M,-37.542,M,5.0,0131*69
$PYRTM,2024,127.001331015498,18.110978425637
$GNHDT,224.995,T*2A
$PYRTM,2024,127.001336744734,18.110984154873
$GNGGA,000155.50,3357.64237836,N,11922.58765517,W,2,12,0.8,7.520,M,-37.542,M,5.4,0131*62
$PYRTM,2024,127.001336744734,18.110984154873
$GNHDT,224.789,T*29
$PYRTM,2024,127.001342587766,18.110989997905
$GNGGA,000156.00,3357.64221240,N,11922.58771729,W,2,12,0.8,7.673,M,-37.542,M,6.0,0131*60
$PYRTM,2024,127.001342587766,18.110989997905
$GNHDT,224.502,T*28
$PYRTM,2024,127.001348316690,18.110995726829
$GNGGA,000156.50,3357.64201133,N,11922.58781018,W,2,12,0.8,7.766,M,-37.542,M,6.4,0131*6B
$PYRTM,2024,127.001348316690,18.110995726829
$GNHDT,224.125,T*29
$PYRTM,2024,127.001354159537,18.111001569676
$GNGGA,000157.00,3357.64178263,N,11922.58796855,W,2,12,0.8,7.764,M,-37.542,M,7.0,0131*64
$PYRTM,2024,127.001354159537,18.111001569676
$GNHDT,223.724,T*29
$PYRTM,2024,127.001359892338,18.111007302477
$GNGGA,000157.50,3357.64150207,N,11922.58808785,W,2,12,0.8,7.757,M,-37.542,M,7.4,0131*67
$PYRTM,2024,127.001359892338,18.111007302477
$GNHDT,223.824,T*26
$PYRTM,2024,127.001365737072,18.111013147211
$GNGGA,000158.00,3357.64119248,N,11922.58814793,W,2,12,0.8,7.782,M,-37.542,M,7.0,0131*6D
$PYRTM,2024,127.001365737072,18.111013147211
$GNHDT,223.544,T*2D
$PYRTM,2024,127.001371466169,18.111018876308
$GNGGA,000158.50,3357.64089143,N,11922.58814316,W,2,12,0.8,7.882,M,-37.542,M,7.4,0131*6A
$PYRTM,2024,127.001371466169,18.111018876308
$GNHDT,223.789,T*2E
$PYRTM,2024,127.001377310752,18.111024720891
$GNGGA,000159.00,3357.64062432,N,11922.58813050,W,2,12,0.8,8.013,M,-37.543,M,7.0,0131*64
$PYRTM,2024,127.001377310752,18.111024720891
$GNHDT,223.524,T*2B
$PYRTM,2024,127.001383041111,18.111030451262
$GNGGA,000159.50,3357.64040380,N,11922.58814612,W,2,12,0.8,8.100,M,-37.543,M,7.4,0131*6F
$PYRTM,2024,127.001383041111,18.111030451262
$GNHDT,223.888,T*20
$PYRTM,2024,127.001388884433,18.111036294583
$GNGGA,000200.00,3357.64021590,N,11922.58822394,W,2,12,0.8,8.050,M,-37.543,M,4.0,0131*68
$PYRTM,2024,127.001388884433,18.111036294583
$GNHDT,223.652,T*29
$PYRTM,2024,127.001394616296,18.111042026447
$GNGGA,000200.50,3357.64004332,N,11922.58836618,W,2,12,0.8,7.874,M,-37.543,M,4.4,0131*65
$PYRTM,2024,127.001394616296,18.111042026447
$GNHDT,223.500,T*2D
$PYRTM,2024,127.001400460926,18.111047871076
$GNGGA,000201.00,3357.63985988,N,11922.58851908,W,2,12,0.8,7.619,M,-37.543,M,5.0,0131*62
$PYRTM,2024,127.001400460926,18.111047871076
$GNHDT,223.529,T*26
$PYRTM,2024,127.001406189167,18.111053599317
$GNGGA,000201.50,3357.63965597,N,11922.58864744,W,2,12,0.8,7.410,M,-37.543,M,5.4,0131*64
$PYRTM,2024,127.001406189167,18.111053599317
$GNHDT,223.222,T*2A
$PYRTM,2024,127.001412035394,18.111059445532
$GNGGA,000202.00,3357.63941062,N,11922.58871571,W,2,12,0.8,7.317,M,-37.543,M,6.0,0131*6C
$PYRTM,2024,127.001412035394,18.111059445532
$GNHDT,223.193,T*23
$PYRTM,2024,127.001417759769,18.111065169907
$GNGGA,000202.50,3357.63913785,N,11922.58874769,W,2,12,0.8,7.349,M,-37.543,M,6.4,0131*61
$PYRTM,2024,127.001417759769,18.111065169907
$GNHDT,223.316,T*2C
$PYRTM,2024,127.001423608183,18.111071018322
$GNGGA,000203.00,3357.63884520,N,11922.58875008,W,2,12,0.8,7.470,M,-37.543,M,7.0,0131*6E
$PYRTM,2024,127.001423608183,18.111071018322
$GNHDT,223.216,T*2D
$PYRTM,2024,127.001429345567,18.111076755706
$GNGGA,000203.50,3357.63855535,N,11922.58875014,W,2,12,0.8,7.619,M,-37.543,M,7.4,0131*67
$PYRTM,2024,127.001429345567,18.111076755706
$GNHDT,223.040,T*2C
$PYRTM,2024,127.001435181701,18.111082591840
$GNGGA,000204.00,3357.63828695,N,11922.58876085,W,2,12,0.8,7.757,M,-37.543,M,7.0,0131*62
$PYRTM,2024,127.001435181701,18.111082591840
$GNHDT,222.989,T*21
$PYRTM,2024,127.001440907187,18.111088317326
$GNGGA,000204.50,3357.63805024,N,11922.58882062,W,2,12,0.8,7.840,M,-37.543,M,7.4,0131*6B
$PYRTM,2024,127.001440907187,18.111088317326
$GNHDT,222.679,T*21
$PYRTM,2024,127.001446757292,18.111094167431
$GNGGA,000205.00,3357.63785396,N,11922.58893141,W,2,12,0.8,7.856,M,-37.543,M,7.0,0131*61
$PYRTM,2024,127.001446757292,18.111094167431
$GNHDT,222.685,T*22
$PYRTM,2024,127.001452481227,18.111099891366
$GNGGA,000205.50,3357.63767429,N,11922.58907117,W,2,12,0.8,7.825,M,-37.543,M,7.4,0131*64
$PYRTM,2024,127.001452481227,18.111099891366
$GNHDT,222.241,T*2E
$PYRTM,2024,127.001458327778,18.111105737928
$GNGGA,000206.00,3357.63749713,N,11922.58920996,W,2,12,0.8,7.799,M,-37.543,M,4.0,0131*6F
$PYRTM,2024,127.001458327778,18.111105737928
$GNHDT,222.171,T*2E
$PYRTM,2024,127.001464061713,18.111111471852
$GNGGA,000206.50,3357.63730343,N,11922.58930676,W,2,12,0.8,7.817,M,-37.543,M,4.4,0131*68
$PYRTM,2024,127.001464061713,18.111111471852
$GNHDT,221.778,T*22
$PYRTM,2024,127.001469909896,18.111117320035
$GNGGA,000207.00,3357.63707256,N,11922.58934377,W,2,12,0.8,7.878,M,-37.543,M,5.0,0131*61
$PYRTM,2024,127.001469909896,18.111117320035
$GNHDT,221.734,T*2A
$PYRTM,2024,127.001475631875,18.111123042014
$GNGGA,000207.50,3357.63681447,N,11922.58934853,W,2,12,0.8,7.935,M,-37.543,M,5.4,0131*6C
$PYRTM,2024,127.001475631875,18.111123042014
$GNHDT,221.789,T*2C
$PYRTM,2024,127.001481482778,18.111128892928
$GNGGA,000208.00,3357.63655298,N,11922.58935035,W,2,12,0.8,7.948,M,-37.543,M,6.0,0131*6F
$PYRTM,2024,127.001481482778,18.111128892928
$GNHDT,221.713,T*2F
$PYRTM,2024,127.001487204850,18.111134614988
$GNGGA,000208.50,3357.63630096,N,11922.58938094,W,2,12,0.8,7.885,M,-37.543,M,6.4,0131*67
$PYRTM,2024,127.001487204850,18.111134614988
$GNHDT,221.481,T*27
$PYRTM,2024,127.001493049375,18.111140459514
$GNGGA,000209.00,3357.63608118,N,11922.58944662,W,2,12,0.8,7.783,M,-37.543,M,7.0,0131*67
$PYRTM,2024,127.001493049375,18.111140459514
$GNHDT,221.536,T*2A
$PYRTM,2024,127.001498781632,18.111146191782
$GNGGA,000209.50,3357.63587807,N,11922.58953085,W,2,12,0.8,7.686,M,-37.543,M,7.4,0131*68
$PYRTM,2024,127.001498781632,18.111146191782
$GNHDT,221.281,T*21
$PYRTM,2024,127.001504627454,18.111152037593
$GNGGA,000210.00,3357.63568348,N,11922.58964028,W,2,12,0.8,7.619,M,-37.543,M,7.0,0131*65
$PYRTM,2024,127.001504627454,18.111152037593
$GNHDT,220.971,T*24
$PYRTM,2024,127.001510360417,18.111157770556
$GNGGA,000210.50,3357.63546603,N,11922.58975550,W,2,12,0.8,7.558,M,-37.543,M,7.4,0131*6E
$PYRTM,2024,127.001510360417,18.111157770556
$GNHDT,220.862,T*27
$PYRTM,2024,127.001516204236,18.111163614375
$GNGGA,000211.00,3357.63522263,N,11922.58989179,W,2,12,0.8,7.487,M,-37.543,M,7.0,0131*61
$PYRTM,2024,127.001516204236,18.111163614375
$GNHDT,220.640,T*29
$PYRTM,2024,127.001521935671,18.111169345810
$GNGGA,000211.50,3357.63496031,N,11922.59003911,W,2,12,0.8,7.384,M,-37.543,M,7.4,0131*63
$PYRTM,2024,127.001521935671,18.111169345810
$GNHDT,220.468,T*21
$PYRTM,2024,127.001527771736,18.111175181875
$GNGGA,000212.00,3357.63469753,N,11922.59020233,W,2,12,0.8,7.296,M,-37.543,M,4.0,0131*69
$PYRTM,2024,127.001527771736,18.111175181875
$GNHDT,220.587,T*21
$PYRTM,2024,127.001533501366,18.111180911505
$GNGGA,000212.50,3357.63443159,N,11922.59033923,W,2,12,0.8,7.257,M,-37.543,M,4.4,0131*69
$PYRTM,2024,127.001533501366,18.111180911505
$GNHDT,220.322,T*28
$PYRTM,2024,127.001539345394,18.111186755544
$GNGGA,000213.00,3357.63415854,N,11922.59042890,W,2,12,0.8,7.340,M,-37.543,M,5.0,0131*67
$PYRTM,2024,127.001539345394,18.111186755544
$GNHDT,220.249,T*24
$PYRTM,2024,127.001545078542,18.111192488692
$GNGGA,000213.50,3357.63387970,N,11922.59048314,W,2,12,0.8,7.529,M,-37.543,M,5.4,0131*69
$PYRTM,2024,127.001545078542,18.111192488692
$GNHDT,220.248,T*25
$PYRTM,2024,127.001550921713,18.111198331863
$GNGGA,000214.00,3357.63358679,N,11922.59048500,W,2,12,0.8,7.814,M,-37.543,M,6.0,0131*68
$PYRTM,2024,127.001550921713,18.111198331863
$GNHDT,219.886,T*27
$PYRTM,2024,127.001556651285,18.111204061424
$GNGGA,000214.50,3357.63330156,N,11922.59046836,W,2,12,0.8,8.079,M,-37.543,M,6.4,0131*67
$PYRTM,2024,127.001556651285,18.111204061424
$GNHDT,219.271,T*25
$PYRTM,2024,127.001562496389,18.111209906528
$GNGGA,000215.00,3357.63302476,N,11922.59047998,W,2,12,0.8,8.270,M,-37.543,M,7.0,0131*6F
$PYRTM,2024,127.001562496389,18.111209906528
$GNHDT,218.788,T*27
$PYRTM,2024,127.001568225532,18.111215635671
$GNGGA,000215.50,3357.63276039,N,11922.59054061,W,2,12,0.8,8.277,M,-37.543,M,7.4,0131*69
$PYRTM,2024,127.001568225532,18.111215635671
$GNHDT,218.508,T*2D
$PYRTM,2024,127.001574069838,18.111221479977
$GNGGA,000216.00,3357.63249476,N,11922.59061612,W,2,12,0.8,8.116,M,-37.543,M,7.0,0131*68
$PYRTM,2024,127.001574069838,18.111221479977
$GNHDT,218.314,T*26
$PYRTM,2024,127.001579804190,18.111227214340
$GNGGA,000216.50,3357.63224523,N,11922.59072816,W,2,12,0.8,7.879,M,-37.543,M,7.4,0131*64
$PYRTM,2024,127.001579804190,18.111227214340
$GNHDT,218.479,T*2A
$PYRTM,2024,127.001585645544,18.111233055683
$GNGGA,000217.00,3357.63199976,N,11922.59082205,W,2,12,0.8,7.640,M,-37.543,M,7.0,0131*6E
$PYRTM,2024,127.001585645544,18.111233055683
$GNHDT,218.739,T*2D
$PYRTM,2024,127.001591372431,18.111238782569
$GNGGA,000217.50,3357.63176883,N,11922.59091095,W,2,12,0.8,7.516,M,-37.543,M,7.4,0131*6C
$PYRTM,2024,127.001591372431,18.111238782569
$GNHDT,218.886,T*26
$PYRTM,2024,127.001597217025,18.111244627164
$GNGGA,000218.00,3357.63154089,N,11922.59096335,W,2,12,0.8,7.594,M,-37.543,M,4.0,0131*67
$PYRTM,2024,127.001597217025,18.111244627164
$GNHDT,218.629,T*2D
$PYRTM,2024,127.001602949687,18.111250359826
$GNGGA,000218.50,3357.63129275,N,11922.59097464,W,2,12,0.8,7.824,M,-37.543,M,4.4,0131*69
$PYRTM,2024,127.001602949687,18.111250359826
$GNHDT,218.697,T*28
$PYRTM,2024,127.001608792222,18.111256202361
$GNGGA,000219.00,3357.63102073,N,11922.59095536,W,2,12,0.8,8.145,M,-37.543,M,5.0,0131*60
$PYRTM,2024,127.001608792222,18.111256202361
$GNHDT,218.170,T*26
$PYRTM,2024,127.001614525556,18.111261935694
$GNGGA,000219.50,3357.63076721,N,11922.59095465,W,2,12,0.8,8.453,M,-37.543,M,5.4,0131*66
$PYRTM,2024,127.001614525556,18.111261935694
$GNHDT,217.806,T*21
$PYRTM,2024,127.001620373160,18.111267783299
$GNGGA,000220.00,3357.63048071,N,11922.59096865,W,2,12,0.8,8.678,M,-37.543,M,6.0,0131*65
$PYRTM,2024,127.001620373160,18.111267783299
$GNHDT,217.294,T*20
$PYRTM,2024,127.001626097824,18.111273507963
$GNGGA,000220.50,3357.63019039,N,11922.59101618,W,2,12,0.8,8.746,M,-37.543,M,6.4,0131*6B
$PYRTM,2024,127.001626097824,18.111273507963
$GNHDT,217.026,T*2B
$PYRTM,2024,127.001631936968,18.111279347106
$GNGGA,000221.00,3357.62990652,N,11922.59109524,W,2,12,0.8,8.655,M,-37.543,M,7.0,0131*6F
$PYRTM,2024,127.001631936968,18.111279347106
$GNHDT,216.837,T*22
$PYRTM,2024,127.001637673113,18.111285083252
$GNGGA,000221.50,3357.62963517,N,11922.59118270,W,2,12,0.8,8.468,M,-37.543,M,7.4,0131*6A
$PYRTM,2024,127.001637673113,18.111285083252
$GNHDT,217.118,T*27
$PYRTM,2024,127.001643510856,18.111290920995
$GNGGA,000222.00,3357.62939386,N,11922.59128032,W,2,12,0.8,8.225,M,-37.543,M,7.0,0131*61
$PYRTM,2024,127.001643510856,18.111290920995
$GNHDT,217.110,T*2F
$PYRTM,2024,127.001649244931,18.111296655069
$GNGGA,000222.50,3357.62917998,N,11922.59137761,W,2,12,0.8,8.006,M,-37.543,M,7.4,0131*65
$PYRTM,2024,127.001649244931,18.111296655069
$GNHDT,216.760,T*2F
$PYRTM,2024,127.001655091424,18.111302501574
$GNGGA,000223.00,3357.62898639,N,11922.59148602,W,2,12,0.8,7.829,M,-37.543,M,7.0,0131*61
$PYRTM,2024,127.001655091424,18.111302501574
$GNHDT,216.892,T*2D
$PYRTM,2024,127.001660818553,18.111308228692
$GNGGA,000223.50,3357.62879209,N,11922.59158513,W,2,12,0.8,7.756,M,-37.543,M,7.4,0131*6D
$PYRTM,2024,127.001660818553,18.111308228692
$GNHDT,216.451,T*2E
$PYRTM,2024,127.001666664907,18.111314075046
$GNGGA,000224.00,3357.62858350,N,11922.59166735,W,2,12,0.8,7.807,M,-37.543,M,4.0,0131*66
$PYRTM,2024,127.001666664907,18.111314075046
$GNHDT,216.383,T*26
$PYRTM,2024,127.001672389502,18.111319799641
$GNGGA,000224.50,3357.62834510,N,11922.59171142,W,2,12,0.8,7.931,M,-37.543,M,4.4,0131*6B
$PYRTM,2024,127.001672389502,18.111319799641
$GNHDT,216.361,T*2A
$PYRTM,2024,127.001678237662,18.111325647801
$GNGGA,000225.00,3357.62808106,N,11922.59173503,W,2,12,0.8,8.099,M,-37.543,M,5.0,0131*61
$PYRTM,2024,127.001678237662,18.111325647801
$GNHDT,216.101,T*2E
$PYRTM,2024,127.001683968368,18.111331378507
$GNGGA,000225.50,3357.62780216,N,11922.59175526,W,2,12,0.8,8.244,M,-37.543,M,5.4,0131*6E
$PYRTM,2024,127.001683968368,18.111331378507
$GNHDT,216.121,T*2C
$PYRTM,2024,127.001689810289,18.111337220428
$GNGGA,000226.00,3357.62751872,N,11922.59179004,W,2,12,0.8,8.319,M,-37.543,M,6.0,0131*6B
$PYRTM,2024,127.001689810289,18.111337220428
$GNHDT,215.855,T*25
$PYRTM,2024,127.001695540544,18.111342950683
$GNGGA,000226.50,3357.62723919,N,11922.59184070,W,2,12,0.8,8.310,M,-37.543,M,6.4,0131*6B
$PYRTM,2024,127.001695540544,18.111342950683
$GNHDT,215.903,T*27
$PYRTM,2024,127.001701388669,18.111348798819
$GNGGA,000227.00,3357.62695727,N,11922.59190755,W,2,12,0.8,8.201,M,-37.543,M,7.0,0131*61
$PYRTM,2024,127.001701388669,18.111348798819
$GNHDT,215.686,T*25
$PYRTM,2024,127.001707112014,18.111354522153
$GNGGA,000227.50,3357.62668881,N,11922.59200771,W,2,12,0.8,8.012,M,-37.543,M,7.4,0131*6D
$PYRTM,2024,127.001707112014,18.111354522153
$GNHDT,215.782,T*20
$PYRTM,2024,127.001712963067,18.111360373206
$GNGGA,000228.00,3357.62642776,N,11922.59212993,W,2,12,0.8,7.765,M,-37.543,M,7.0,0131*65
$PYRTM,2024,127.001712963067,18.111360373206
$GNHDT,215.797,T*24
$PYRTM,2024,127.001718696123,18.111366106262
$GNGGA,000228.50,3357.62617471,N,11922.59225970,W,2,12,0.8,7.533,M,-37.543,M,7.4,0131*68
$PYRTM,2024,127.001718696123,18.111366106262
$GNHDT,215.852,T*22
$PYRTM,2024,127.001724535428,18.111371945567
$GNGGA,000229.00,3357.62593962,N,11922.59239918,W,2,12,0.8,7.355,M,-37.543,M,7.0,0131*6D
$PYRTM,2024,127.001724535428,18.111371945567
$GNHDT,215.886,T*2B
$PYRTM,2024,127.001730262975,18.111377673113
