$PYRTM,2024,125.000000173970,16.109647584109
$GNGGA,000000.00,3510.80525925,N,12128.59592070,W,2,12,0.8,6.400,M,-37.384,M,5.0,0131*6A
$PYRTM,2024,125.000000173970,16.109647584109
$GNHDT,334.147,T*2D
$PYRTM,2024,125.000005911944,16.109653322083
$GNGGA,000000.50,3510.80536027,N,12128.59593998,W,2,12,0.8,6.387,M,-37.384,M,5.4,0131*64
$PYRTM,2024,125.000005911944,16.109653322083
$GNHDT,334.732,T*29
$PYRTM,2024,125.000011742928,16.109659153067
$GNGGA,000001.00,3510.80542408,N,12128.59591312,W,2,12,0.8,6.413,M,-37.384,M,6.0,0131*6D
$PYRTM,2024,125.000011742928,16.109659153067
$GNHDT,334.996,T*29
$PYRTM,2024,125.000017490775,16.109664900914
$GNGGA,000001.50,3510.80549257,N,12128.59587771,W,2,12,0.8,6.449,M,-37.384,M,6.4,0131*62
$PYRTM,2024,125.000017490775,16.109664900914
$GNHDT,335.127,T*2A
$PYRTM,2024,125.000023319884,16.109670730023
$GNGGA,000002.00,3510.80557290,N,12128.59584879,W,2,12,0.8,6.481,M,-37.384,M,7.0,0131*65
$PYRTM,2024,125.000023319884,16.109670730023
$GNHDT,335.296,T*23
$PYRTM,2024,125.000029057025,16.109676467164
$GNGGA,000002.50,3510.80567273,N,12128.59585146,W,2,12,0.8,6.506,M,-37.384,M,7.4,0131*60
$PYRTM,2024,125.000029057025,16.109676467164
$GNHDT,335.150,T*2A
$PYRTM,2024,125.000034891944,16.109682302083
$GNGGA,000003.00,3510.80577272,N,12128.59588504,W,2,12,0.8,6.508,M,-37.384,M,7.0,0131*61
$PYRTM,2024,125.000034891944,16.109682302083
$GNHDT,335.224,T*2A
$PYRTM,2024,125.000040634051,16.109688044190
$GNGGA,000003.50,3510.80586783,N,12128.59595476,W,2,12,0.8,6.500,M,-37.384,M,7.4,0131*65
$PYRTM,2024,125.000040634051,16.109688044190
$GNHDT,335.126,T*2B
$PYRTM,2024,125.000046466493,16.109693876632
$GNGGA,000004.00,3510.80595704,N,12128.59606331,W,2,12,0.8,6.472,M,-37.384,M,7.0,0131*67
$PYRTM,2024,125.000046466493,16.109693876632
$GNHDT,335.164,T*2D
$PYRTM,2024,125.000052210625,16.109699620775
$GNGGA,000004.50,3510.80603579,N,12128.59617127,W,2,12,0.8,6.457,M,-37.384,M,7.4,0131*60
$PYRTM,2024,125.000052210625,16.109699620775
$GNHDT,335.366,T*2D
$PYRTM,2024,125.000058044178,16.109705454329
$GNGGA,000005.00,3510.80610580,N,12128.59624856,W,2,12,0.8,6.462,M,-37.384,M,4.0,0131*6E
$PYRTM,2024,125.000058044178,16.109705454329
$GNHDT,335.673,T*2C
$PYRTM,2024,125.000063778160,16.109711188310
$GNGGA,000005.50,3510.80617958,N,12128.59628118,W,2,12,0.8,6.520,M,-37.384,M,4.4,0131*69
$PYRTM,2024,125.000063778160,16.109711188310
$GNHDT,335.406,T*2C
$PYRTM,2024,125.000069615127,16.109717025266
$GNGGA,000006.00,3510.80625613,N,12128.59624896,W,2,12,0.8,6.564,M,-37.384,M,5.0,0131*68
$PYRTM,2024,125.000069615127,16.109717025266
$GNHDT,335.566,T*2B
$PYRTM,2024,125.000075355486,16.109722765625
$GNGGA,000006.50,3510.80635691,N,12128.59619401,W,2,12,0.8,6.570,M,-37.384,M,5.4,0131*6B
$PYRTM,2024,125.000075355486,16.109722765625
$GNHDT,335.981,T*2E
$PYRTM,2024,125.000081194479,16.109728604618
$GNGGA,000007.00,3510.80648222,N,12128.59615653,W,2,12,0.8,6.503,M,-37.384,M,6.0,0131*63
$PYRTM,2024,125.000081194479,16.109728604618
$GNHDT,335.900,T*27
$PYRTM,2024,125.000086933669,16.109734343808
$GNGGA,000007.50,3510.80661388,N,12128.59615150,W,2,12,0.8,6.408,M,-37.384,M,6.4,0131*66
$PYRTM,2024,125.000086933669,16.109734343808
$GNHDT,336.161,T*2B
$PYRTM,2024,125.000092765231,16.109740175370
$GNGGA,000008.00,3510.80671073,N,12128.59622200,W,2,12,0.8,6.299,M,-37.384,M,7.0,0131*63
$PYRTM,2024,125.000092765231,16.109740175370
$GNHDT,336.322,T*2E
$PYRTM,2024,125.000098501470,16.109745911609
$GNGGA,000008.50,3510.80677261,N,12128.59633163,W,2,12,0.8,6.239,M,-37.384,M,7.4,0131*69
$PYRTM,2024,125.000098501470,16.109745911609
$GNHDT,336.435,T*2F
$PYRTM,2024,125.000104336667,16.109751746817
$GNGGA,000009.00,3510.80680638,N,12128.59645855,W,2,12,0.8,6.200,M,-37.384,M,7.0,0131*6E
$PYRTM,2024,125.000104336667,16.109751746817
$GNHDT,336.646,T*29
$PYRTM,2024,125.000110078403,16.109757488542
$GNGGA,000009.50,3510.80684472,N,12128.59656254,W,2,12,0.8,6.198,M,-37.384,M,7.4,0131*6C
$PYRTM,2024,125.000110078403,16.109757488542
$GNHDT,336.731,T*28
$PYRTM,2024,125.000115916354,16.109763326493
$GNGGA,000010.00,3510.80690900,N,12128.59664339,W,2,12,0.8,6.237,M,-37.384,M,7.0,0131*65
$PYRTM,2024,125.000115916354,16.109763326493
$GNHDT,336.719,T*22
$PYRTM,2024,125.000121648704,16.109769058843
$GNGGA,000010.50,3510.80697960,N,12128.59665620,W,2,12,0.8,6.269,M,-37.384,M,7.4,0131*62
$PYRTM,2024,125.000121648704,16.109769058843
$GNHDT,337.056,T*2F
$PYRTM,2024,125.000127489271,16.109774899410
$GNGGA,000011.00,3510.80707083,N,12128.59663389,W,2,12,0.8,6.283,M,-37.384,M,4.0,0131*69
$PYRTM,2024,125.000127489271,16.109774899410
$GNHDT,337.012,T*2F
$PYRTM,2024,125.000133224421,16.109780634572
$GNGGA,000011.50,3510.80718171,N,12128.59660209,W,2,12,0.8,6.253,M,-37.384,M,4.4,0131*6D
$PYRTM,2024,125.000133224421,16.109780634572
$GNHDT,337.107,T*2A
$PYRTM,2024,125.000139061134,16.109786471273
$GNGGA,000012.00,3510.80729707,N,12128.59660120,W,2,12,0.8,6.165,M,-37.384,M,5.0,0131*65
$PYRTM,2024,125.000139061134,16.109786471273
$GNHDT,337.353,T*29
$PYRTM,2024,125.000144804780,16.109792214919
$GNGGA,000012.50,3510.80741038,N,12128.59665289,W,2,12,0.8,6.047,M,-37.384,M,5.4,0131*65
$PYRTM,2024,125.000144804780,16.109792214919
$GNHDT,337.191,T*25
$PYRTM,2024,125.000150639271,16.109798049410
$GNGGA,000013.00,3510.80749878,N,12128.59674323,W,2,12,0.8,5.981,M,-37.384,M,6.0,0131*63
$PYRTM,2024,125.000150639271,16.109798049410
$GNHDT,337.318,T*26
$PYRTM,2024,125.000156373449,16.109803783588
$GNGGA,000013.50,3510.80754968,N,12128.59684150,W,2,12,0.8,6.038,M,-37.384,M,6.4,0131*6F
$PYRTM,2024,125.000156373449,16.109803783588
$GNHDT,337.380,T*27
$PYRTM,2024,125.000162213831,16.109809623970
$GNGGA,000014.00,3510.80757167,N,12128.59690860,W,2,12,0.8,6.208,M,-37.384,M,7.0,0131*62
$PYRTM,2024,125.000162213831,16.109809623970
$GNHDT,337.744,T*2B
$PYRTM,2024,125.000167947951,16.109815358090
$GNGGA,000014.50,3510.80759459,N,12128.59695101,W,2,12,0.8,6.421,M,-37.384,M,7.4,0131*63
$PYRTM,2024,125.000167947951,16.109815358090
$GNHDT,337.802,T*26
$PYRTM,2024,125.000173782407,16.109821192546
$GNGGA,000015.00,3510.80764179,N,12128.59696056,W,2,12,0.8,6.569,M,-37.384,M,7.0,0131*67
$PYRTM,2024,125.000173782407,16.109821192546
$GNHDT,338.101,T*23
$PYRTM,2024,125.000179528681,16.109826938819
$GNGGA,000015.50,3510.80773270,N,12128.59693692,W,2,12,0.8,6.605,M,-37.384,M,7.4,0131*68
$PYRTM,2024,125.000179528681,16.109826938819
$GNHDT,338.059,T*2F
$PYRTM,2024,125.000185355509,16.109832765648
$GNGGA,000016.00,3510.80785902,N,12128.59689302,W,2,12,0.8,6.500,M,-37.384,M,7.0,0131*6C
$PYRTM,2024,125.000185355509,16.109832765648
$GNHDT,338.059,T*2F
$PYRTM,2024,125.000191098044,16.109838508183
$GNGGA,000016.50,3510.80800341,N,12128.59685755,W,2,12,0.8,6.296,M,-37.384,M,7.4,0131*60
$PYRTM,2024,125.000191098044,16.109838508183
$GNHDT,338.274,T*22
$PYRTM,2024,125.000196929549,16.109844339688
$GNGGA,000017.00,3510.80814279,N,12128.59685607,W,2,12,0.8,6.080,M,-37.384,M,4.0,0131*6F
$PYRTM,2024,125.000196929549,16.109844339688
$GNHDT,338.244,T*21
$PYRTM,2024,125.000202672095,16.109850082234
$GNGGA,000017.50,3510.80825125,N,12128.59690843,W,2,12,0.8,5.936,M,-37.384,M,4.4,0131*6B
$PYRTM,2024,125.000202672095,16.109850082234
$GNHDT,338.099,T*23
$PYRTM,2024,125.000208505938,16.109855916076
$GNGGA,000018.00,3510.80831955,N,12128.59700696,W,2,12,0.8,5.919,M,-37.384,M,5.0,0131*6D
$PYRTM,2024,125.000208505938,16.109855916076
$GNHDT,338.105,T*27
$PYRTM,2024,125.000214243449,16.109861653588
$GNGGA,000018.50,3510.80836291,N,12128.59711299,W,2,12,0.8,6.038,M,-37.384,M,5.4,0131*6A
$PYRTM,2024,125.000214243449,16.109861653588
$GNHDT,338.147,T*21
$PYRTM,2024,125.000220080127,16.109867490266
$GNGGA,000019.00,3510.80839888,N,12128.59719423,W,2,12,0.8,6.240,M,-37.384,M,6.0,0131*66
$PYRTM,2024,125.000220080127,16.109867490266
$GNHDT,338.466,T*27
$PYRTM,2024,125.000225816134,16.109873226273
$GNGGA,000019.50,3510.80845432,N,12128.59724167,W,2,12,0.8,6.443,M,-37.384,M,6.4,0131*6F
$PYRTM,2024,125.000225816134,16.109873226273
$GNHDT,338.560,T*20
$PYRTM,2024,125.000231651273,16.109879061412
$GNGGA,000020.00,3510.80854453,N,12128.59725666,W,2,12,0.8,6.607,M,-37.384,M,7.0,0131*67
$PYRTM,2024,125.000231651273,16.109879061412
$GNHDT,338.649,T*28
$PYRTM,2024,125.000237397477,16.109884807616
$GNGGA,000020.50,3510.80866714,N,12128.59724145,W,2,12,0.8,6.655,M,-37.384,M,7.4,0131*67
$PYRTM,2024,125.000237397477,16.109884807616
$GNHDT,338.932,T*2B
$PYRTM,2024,125.000243230660,16.109890640799
$GNGGA,000021.00,3510.80880605,N,12128.59720424,W,2,12,0.8,6.599,M,-37.384,M,7.0,0131*6B
$PYRTM,2024,125.000243230660,16.109890640799
$GNHDT,338.937,T*2E
$PYRTM,2024,125.000248970000,16.109896380139
$GNGGA,000021.50,3510.80894743,N,12128.59715818,W,2,12,0.8,6.488,M,-37.384,M,7.4,0131*68
$PYRTM,2024,125.000248970000,16.109896380139
$GNHDT,339.127,T*26
$PYRTM,2024,125.000254802211,16.109902212350
$GNGGA,000022.00,3510.80908580,N,12128.59711229,W,2,12,0.8,6.340,M,-37.384,M,7.0,0131*6C
$PYRTM,2024,125.000254802211,16.109902212350
$GNHDT,339.341,T*24
$PYRTM,2024,125.000260542025,16.109907952164
$GNGGA,000022.50,3510.80920643,N,12128.59709368,W,2,12,0.8,6.218,M,-37.384,M,7.4,0131*6A
$PYRTM,2024,125.000260542025,16.109907952164
$GNHDT,339.225,T*27
$PYRTM,2024,125.000266378056,16.109913788194
$GNGGA,000023.00,3510.80929678,N,12128.59712998,W,2,12,0.8,6.164,M,-37.384,M,4.0,0131*6F
$PYRTM,2024,125.000266378056,16.109913788194
$GNHDT,338.909,T*23
$PYRTM,2024,125.000272112720,16.109919522859
$GNGGA,000023.50,3510.80935933,N,12128.59723216,W,2,12,0.8,6.180,M,-37.384,M,4.4,0131*66
$PYRTM,2024,125.000272112720,16.109919522859
$GNHDT,339.275,T*22
$PYRTM,2024,125.000277947766,16.109925357905
$GNGGA,000024.00,3510.80938818,N,12128.59738148,W,2,12,0.8,6.241,M,-37.384,M,5.0,0131*68
$PYRTM,2024,125.000277947766,16.109925357905
$GNHDT,339.414,T*23
$PYRTM,2024,125.000283687199,16.109931097338
$GNGGA,000024.50,3510.80941428,N,12128.59752880,W,2,12,0.8,6.293,M,-37.384,M,5.4,0131*66
$PYRTM,2024,125.000283687199,16.109931097338
$GNHDT,339.500,T*27
$PYRTM,2024,125.000289525521,16.109936935671
$GNGGA,000025.00,3510.80947438,N,12128.59762626,W,2,12,0.8,6.333,M,-37.384,M,6.0,0131*68
$PYRTM,2024,125.000289525521,16.109936935671
$GNHDT,339.588,T*27
$PYRTM,2024,125.000295261343,16.109942671481
$GNGGA,000025.50,3510.80957850,N,12128.59763706,W,2,12,0.8,6.332,M,-37.384,M,6.4,0131*69
$PYRTM,2024,125.000295261343,16.109942671481
$GNHDT,339.559,T*2B
$PYRTM,2024,125.000301099468,16.109948509606
$GNGGA,000026.00,3510.80971924,N,12128.59757890,W,2,12,0.8,6.264,M,-37.384,M,7.0,0131*69
$PYRTM,2024,125.000301099468,16.109948509606
$GNHDT,339.438,T*2D
$PYRTM,2024,125.000306844491,16.109954254641
$GNGGA,000026.50,3510.80987042,N,12128.59749813,W,2,12,0.8,6.154,M,-37.384,M,7.4,0131*6C
$PYRTM,2024,125.000306844491,16.109954254641
$GNHDT,339.054,T*23
$PYRTM,2024,125.000312678380,16.109960088519
$GNGGA,000027.00,3510.80999340,N,12128.59744660,W,2,12,0.8,6.032,M,-37.384,M,7.0,0131*64
$PYRTM,2024,125.000312678380,16.109960088519
$GNHDT,338.977,T*2A
$PYRTM,2024,125.000318409803,16.109965819942
$GNGGA,000027.50,3510.81008217,N,12128.59745234,W,2,12,0.8,5.950,M,-37.384,M,7.4,0131*6C
$PYRTM,2024,125.000318409803,16.109965819942
$GNHDT,339.494,T*2B
$PYRTM,2024,125.000324248681,16.109971658819
$GNGGA,000028.00,3510.81014498,N,12128.59753089,W,2,12,0.8,5.931,M,-37.384,M,7.0,0131*6A
$PYRTM,2024,125.000324248681,16.109971658819
$GNHDT,339.625,T*23
$PYRTM,2024,125.000329983229,16.109977393368
$GNGGA,000028.50,3510.81019643,N,12128.59766763,W,2,12,0.8,6.005,M,-37.384,M,7.4,0131*6A
$PYRTM,2024,125.000329983229,16.109977393368
$GNHDT,339.195,T*2F
$PYRTM,2024,125.000335822639,16.109983232778
$GNGGA,000029.00,3510.81025496,N,12128.59782099,W,2,12,0.8,6.112,M,-37.384,M,4.0,0131*63
$PYRTM,2024,125.000335822639,16.109983232778
$GNHDT,339.028,T*28
$PYRTM,2024,125.000341559977,16.109988970116
$GNGGA,000029.50,3510.81033212,N,12128.59793169,W,2,12,0.8,6.256,M,-37.384,M,4.4,0131*62
$PYRTM,2024,125.000341559977,16.109988970116
$GNHDT,339.082,T*28
$PYRTM,2024,125.000347393356,16.109994803495
$GNGGA,000030.00,3510.81042171,N,12128.59797508,W,2,12,0.8,6.384,M,-37.384,M,5.0,0131*63
$PYRTM,2024,125.000347393356,16.109994803495
$GNHDT,338.875,T*29
$PYRTM,2024,125.000353133611,16.110000543750
$GNGGA,000030.50,3510.81052108,N,12128.59795372,W,2,12,0.8,6.474,M,-37.384,M,5.4,0131*6C
$PYRTM,2024,125.000353133611,16.110000543750
$GNHDT,338.969,T*25
$PYRTM,2024,125.000358972882,16.110006383021
$GNGGA,000031.00,3510.81062776,N,12128.59789033,W,2,12,0.8,6.492,M,-37.384,M,6.0,0131*60
$PYRTM,2024,125.000358972882,16.110006383021
$GNHDT,339.027,T*27
$PYRTM,2024,125.000364710023,16.110012120162
$GNGGA,000031.50,3510.81074518,N,12128.59781442,W,2,12,0.8,6.431,M,-37.384,M,6.4,0131*6F
$PYRTM,2024,125.000364710023,16.110012120162
$GNHDT,338.950,T*2F
$PYRTM,2024,125.000370545671,16.110017955822
$GNGGA,000032.00,3510.81087247,N,12128.59776437,W,2,12,0.8,6.323,M,-37.384,M,7.0,0131*63
$PYRTM,2024,125.000370545671,16.110017955822
$GNHDT,338.917,T*2C
$PYRTM,2024,125.000376281678,16.110023691817
$GNGGA,000032.50,3510.81100608,N,12128.59776616,W,2,12,0.8,6.197,M,-37.384,M,7.4,0131*6F
$PYRTM,2024,125.000376281678,16.110023691817
$GNHDT,338.611,T*25
$PYRTM,2024,125.000382125475,16.110029535613
$GNGGA,000033.00,3510.81112913,N,12128.59782009,W,2,12,0.8,6.105,M,-37.384,M,7.0,0131*61
$PYRTM,2024,125.000382125475,16.110029535613
$GNHDT,338.124,T*24
$PYRTM,2024,125.000387865046,16.110035275185
$GNGGA,000033.50,3510.81122418,N,12128.59789788,W,2,12,0.8,6.101,M,-37.384,M,7.4,0131*64
$PYRTM,2024,125.000387865046,16.110035275185
$GNHDT,338.337,T*24
$PYRTM,2024,125.000393693669,16.110041103808
$GNGGA,000034.00,3510.81128840,N,12128.59796904,W,2,12,0.8,6.216,M,-37.384,M,7.0,0131*68
$PYRTM,2024,125.000393693669,16.110041103808
$GNHDT,338.344,T*20
$PYRTM,2024,125.000399433391,16.110046843530
$GNGGA,000034.50,3510.81134545,N,12128.59802702,W,2,12,0.8,6.361,M,-37.384,M,7.4,0131*67
$PYRTM,2024,125.000399433391,16.110046843530
$GNHDT,338.605,T*20
$PYRTM,2024,125.000405268183,16.110052678322
$GNGGA,000035.00,3510.81142775,N,12128.59808091,W,2,12,0.8,6.464,M,-37.384,M,4.0,0131*61
$PYRTM,2024,125.000405268183,16.110052678322
$GNHDT,338.545,T*27
$PYRTM,2024,125.000411004931,16.110058415069
$GNGGA,000035.50,3510.81155431,N,12128.59812494,W,2,12,0.8,6.454,M,-37.384,M,4.4,0131*6C
$PYRTM,2024,125.000411004931,16.110058415069
$GNHDT,338.373,T*24
$PYRTM,2024,125.000416844803,16.110064254954
$GNGGA,000036.00,3510.81171024,N,12128.59815668,W,2,12,0.8,6.349,M,-37.384,M,5.0,0131*64
$PYRTM,2024,125.000416844803,16.110064254954
$GNHDT,338.135,T*24
$PYRTM,2024,125.000422580475,16.110069990613
$GNGGA,000036.50,3510.81185481,N,12128.59816991,W,2,12,0.8,6.237,M,-37.384,M,5.4,0131*67
$PYRTM,2024,125.000422580475,16.110069990613
$GNHDT,338.182,T*28
$PYRTM,2024,125.000428411042,16.110075821181
$GNGGA,000037.00,3510.81196143,N,12128.59815376,W,2,12,0.8,6.198,M,-37.384,M,6.0,0131*6B
$PYRTM,2024,125.000428411042,16.110075821181
$GNHDT,338.138,T*29
$PYRTM,2024,125.000434151840,16.110081561979
$GNGGA,000037.50,3510.81203555,N,12128.59811484,W,2,12,0.8,6.239,M,-37.384,M,6.4,0131*60
$PYRTM,2024,125.000434151840,16.110081561979
$GNHDT,338.354,T*21
$PYRTM,2024,125.000439989097,16.110087399236
$GNGGA,000038.00,3510.81210867,N,12128.59807251,W,2,12,0.8,6.329,M,-37.384,M,7.0,0131*68
$PYRTM,2024,125.000439989097,16.110087399236
$GNHDT,338.643,T*22
$PYRTM,2024,125.000445725451,16.110093135590
$GNGGA,000038.50,3510.81220423,N,12128.59804897,W,2,12,0.8,6.386,M,-37.384,M,7.4,0131*60
$PYRTM,2024,125.000445725451,16.110093135590
$GNHDT,338.724,T*22
$PYRTM,2024,125.000451562095,16.110098972234
$GNGGA,000039.00,3510.81231904,N,12128.59805709,W,2,12,0.8,6.393,M,-37.384,M,7.0,0131*65
$PYRTM,2024,125.000451562095,16.110098972234
$GNHDT,338.590,T*2F
$PYRTM,2024,125.000457298704,16.110104708843
$GNGGA,000039.50,3510.81244015,N,12128.59808151,W,2,12,0.8,6.351,M,-37.384,M,7.4,0131*67
$PYRTM,2024,125.000457298704,16.110104708843
$GNHDT,338.417,T*21
$PYRTM,2024,125.000463137199,16.110110547350
$GNGGA,000040.00,3510.81255397,N,12128.59813181,W,2,12,0.8,6.262,M,-37.384,M,7.0,0131*67
$PYRTM,2024,125.000463137199,16.110110547350
$GNHDT,338.280,T*29
$PYRTM,2024,125.000468877199,16.110116287338
$GNGGA,000040.50,3510.81265469,N,12128.59822093,W,2,12,0.8,6.138,M,-37.384,M,7.4,0131*6F
$PYRTM,2024,125.000468877199,16.110116287338
$GNHDT,338.470,T*20
$PYRTM,2024,125.000474715162,16.110122125301
$GNGGA,000041.00,3510.81274027,N,12128.59835370,W,2,12,0.8,5.998,M,-37.384,M,4.0,0131*6B
$PYRTM,2024,125.000474715162,16.110122125301
$GNHDT,338.366,T*20
$PYRTM,2024,125.000480454549,16.110127864687
$GNGGA,000041.50,3510.81281343,N,12128.59850050,W,2,12,0.8,5.926,M,-37.384,M,4.4,0131*66
$PYRTM,2024,125.000480454549,16.110127864687
$GNHDT,338.072,T*26
$PYRTM,2024,125.000486282384,16.110133692523
$GNGGA,000042.00,3510.81289023,N,12128.59859711,W,2,12,0.8,5.960,M,-37.384,M,5.0,0131*61
$PYRTM,2024,125.000486282384,16.110133692523
$GNHDT,338.096,T*2C
$PYRTM,2024,125.000492021146,16.110139431285
$GNGGA,000042.50,3510.81294177,N,12128.59858659,W,2,12,0.8,6.106,M,-37.384,M,5.4,0131*6B
$PYRTM,2024,125.000492021146,16.110139431285
$GNHDT,338.412,T*24
$PYRTM,2024,125.000497859317,16.110145269456
$GNGGA,000043.00,3510.81298460,N,12128.59851493,W,2,12,0.8,6.313,M,-37.384,M,6.0,0131*6C
$PYRTM,2024,125.000497859317,16.110145269456
$GNHDT,338.575,T*24
$PYRTM,2024,125.000503594537,16.110151004676
$GNGGA,000043.50,3510.81306778,N,12128.59839948,W,2,12,0.8,6.469,M,-37.384,M,6.4,0131*6E
$PYRTM,2024,125.000503594537,16.110151004676
$GNHDT,338.707,T*23
$PYRTM,2024,125.000509429664,16.110156839803
$GNGGA,000044.00,3510.81318003,N,12128.59829338,W,2,12,0.8,6.531,M,-37.384,M,7.0,0131*6D
$PYRTM,2024,125.000509429664,16.110156839803
$GNHDT,338.877,T*2B
$PYRTM,2024,125.000515169132,16.110162579271
$GNGGA,000044.50,3510.81331273,N,12128.59821322,W,2,12,0.8,6.482,M,-37.384,M,7.4,0131*68
$PYRTM,2024,125.000515169132,16.110162579271
$GNHDT,339.112,T*20
$PYRTM,2024,125.000521003657,16.110168413796
$GNGGA,000045.00,3510.81344276,N,12128.59817526,W,2,12,0.8,6.401,M,-37.384,M,7.0,0131*63
$PYRTM,2024,125.000521003657,16.110168413796
$GNHDT,339.206,T*26
$PYRTM,2024,125.000526750775,16.110174160914
$GNGGA,000045.50,3510.81356170,N,12128.59818983,W,2,12,0.8,6.328,M,-37.384,M,7.4,0131*64
$PYRTM,2024,125.000526750775,16.110174160914
$GNHDT,339.162,T*27
$PYRTM,2024,125.000532579931,16.110179990069
$GNGGA,000046.00,3510.81365146,N,12128.59827594,W,2,12,0.8,6.311,M,-37.384,M,7.0,0131*6F
$PYRTM,2024,125.000532579931,16.110179990069
$GNHDT,338.793,T*2E
$PYRTM,2024,125.000538320081,16.110185730220
$GNGGA,000046.50,3510.81372121,N,12128.59842560,W,2,12,0.8,6.336,M,-37.384,M,7.4,0131*64
$PYRTM,2024,125.000538320081,16.110185730220
$GNHDT,338.448,T*2B
$PYRTM,2024,125.000544156771,16.110191566910
$GNGGA,000047.00,3510.81376232,N,12128.59860561,W,2,12,0.8,6.416,M,-37.384,M,4.0,0131*66
$PYRTM,2024,125.000544156771,16.110191566910
$GNHDT,338.504,T*22
$PYRTM,2024,125.000549896076,16.110197306215
$GNGGA,000047.50,3510.81379537,N,12128.59874406,W,2,12,0.8,6.494,M,-37.384,M,4.4,0131*65
$PYRTM,2024,125.000549896076,16.110197306215
$GNHDT,338.502,T*24
$PYRTM,2024,125.000555729664,16.110203139803
$GNGGA,000048.00,3510.81384294,N,12128.59879764,W,2,12,0.8,6.584,M,-37.384,M,5.0,0131*6C
$PYRTM,2024,125.000555729664,16.110203139803
$GNHDT,338.562,T*22
$PYRTM,2024,125.000561465498,16.110208875637
$GNGGA,000048.50,3510.81394052,N,12128.59874062,W,2,12,0.8,6.615,M,-37.384,M,5.4,0131*63
$PYRTM,2024,125.000561465498,16.110208875637
$GNHDT,338.834,T*2C
$PYRTM,2024,125.000567301562,16.110214711701
$GNGGA,000049.00,3510.81410111,N,12128.59860118,W,2,12,0.8,6.554,M,-37.384,M,6.0,0131*62
$PYRTM,2024,125.000567301562,16.110214711701
$GNHDT,338.750,T*21
$PYRTM,2024,125.000573045046,16.110220455185
$GNGGA,000049.50,3510.81430093,N,12128.59842762,W,2,12,0.8,6.441,M,-37.384,M,6.4,0131*64
$PYRTM,2024,125.000573045046,16.110220455185
$GNHDT,338.711,T*24
$PYRTM,2024,125.000578876331,16.110226286470
$GNGGA,000050.00,3510.81449882,N,12128.59826263,W,2,12,0.8,6.334,M,-37.384,M,7.0,0131*69
$PYRTM,2024,125.000578876331,16.110226286470
$GNHDT,338.660,T*23
$PYRTM,2024,125.000584613044,16.110232023183
$GNGGA,000050.50,3510.81465092,N,12128.59816320,W,2,12,0.8,6.315,M,-37.384,M,7.4,0131*69
$PYRTM,2024,125.000584613044,16.110232023183
$GNHDT,338.405,T*22
$PYRTM,2024,125.000590454005,16.110237864144
$GNGGA,000051.00,3510.81473788,N,12128.59817724,W,2,12,0.8,6.355,M,-37.384,M,7.0,0131*67
$PYRTM,2024,125.000590454005,16.110237864144
$GNHDT,338.520,T*24
$PYRTM,2024,125.000596189201,16.110243599340
$GNGGA,000051.50,3510.81479167,N,12128.59831359,W,2,12,0.8,6.423,M,-37.384,M,7.4,0131*67
$PYRTM,2024,125.000596189201,16.110243599340
$GNHDT,338.824,T*2D
$PYRTM,2024,125.000602026678,16.110249436817
$GNGGA,000052.00,3510.81483254,N,12128.59855668,W,2,12,0.8,6.437,M,-37.384,M,7.0,0131*63
$PYRTM,2024,125.000602026678,16.110249436817
$GNHDT,338.729,T*2F
$PYRTM,2024,125.000607764572,16.110255174711
$GNGGA,000052.50,3510.81488463,N,12128.59881718,W,2,12,0.8,6.423,M,-37.384,M,7.4,0131*61
$PYRTM,2024,125.000607764572,16.110255174711
$GNHDT,338.308,T*28
$PYRTM,2024,125.000613600648,16.110261010787
$GNGGA,000053.00,3510.81495526,N,12128.59898947,W,2,12,0.8,6.399,M,-37.384,M,4.0,0131*64
$PYRTM,2024,125.000613600648,16.110261010787
$GNHDT,338.416,T*20
$PYRTM,2024,125.000619340660,16.110266750799
$GNGGA,000053.50,3510.81501859,N,12128.59904857,W,2,12,0.8,6.449,M,-37.384,M,4.4,0131*62
$PYRTM,2024,125.000619340660,16.110266750799
$GNHDT,337.665,T*29
$PYRTM,2024,125.000625174549,16.110272584688
$GNGGA,000054.00,3510.81510454,N,12128.59896929,W,2,12,0.8,6.521,M,-37.384,M,5.0,0131*69
$PYRTM,2024,125.000625174549,16.110272584688
$GNHDT,337.739,T*21
$PYRTM,2024,125.000630914653,16.110278324792
$GNGGA,000054.50,3510.81522208,N,12128.59880351,W,2,12,0.8,6.559,M,-37.384,M,5.4,0131*6B
$PYRTM,2024,125.000630914653,16.110278324792
$GNHDT,337.555,T*29
$PYRTM,2024,125.000636745891,16.110284156019
$GNGGA,000055.00,3510.81536260,N,12128.59860871,W,2,12,0.8,6.522,M,-37.384,M,6.0,0131*68
$PYRTM,2024,125.000636745891,16.110284156019
$GNHDT,337.693,T*20
$PYRTM,2024,125.000642484468,16.110289894606
$GNGGA,000055.50,3510.81551140,N,12128.59845846,W,2,12,0.8,6.419,M,-37.384,M,6.4,0131*63
$PYRTM,2024,125.000642484468,16.110289894606
$GNHDT,337.981,T*2C
$PYRTM,2024,125.000648317616,16.110295727755
$GNGGA,000056.00,3510.81565679,N,12128.59839010,W,2,12,0.8,6.318,M,-37.384,M,7.0,0131*6C
$PYRTM,2024,125.000648317616,16.110295727755
$GNHDT,338.194,T*2F
$PYRTM,2024,125.000654059734,16.110301469873
$GNGGA,000056.50,3510.81577191,N,12128.59842392,W,2,12,0.8,6.248,M,-37.384,M,7.4,0131*6E
$PYRTM,2024,125.000654059734,16.110301469873
$GNHDT,337.837,T*20
$PYRTM,2024,125.000659892025,16.110307302164
$GNGGA,000057.00,3510.81585627,N,12128.59855609,W,2,12,0.8,6.280,M,-37.384,M,7.0,0131*6C
$PYRTM,2024,125.000659892025,16.110307302164
$GNHDT,337.652,T*2D
$PYRTM,2024,125.000665636424,16.110313046562
$GNGGA,000057.50,3510.81590622,N,12128.59874755,W,2,12,0.8,6.370,M,-37.384,M,7.4,0131*69
$PYRTM,2024,125.000665636424,16.110313046562
$GNHDT,337.463,T*2D
$PYRTM,2024,125.000671470625,16.110318880764
$GNGGA,000058.00,3510.81594219,N,12128.59895975,W,2,12,0.8,6.497,M,-37.384,M,7.0,0131*62
$PYRTM,2024,125.000671470625,16.110318880764
$GNHDT,337.554,T*28
$PYRTM,2024,125.000677208796,16.110324618935
$GNGGA,000058.50,3510.81597562,N,12128.59913507,W,2,12,0.8,6.609,M,-37.384,M,7.4,0131*68
$PYRTM,2024,125.000677208796,16.110324618935
$GNHDT,337.445,T*29
$PYRTM,2024,125.000683045949,16.110330456088
$GNGGA,000059.00,3510.81602962,N,12128.59924623,W,2,12,0.8,6.699,M,-37.384,M,4.0,0131*60
$PYRTM,2024,125.000683045949,16.110330456088
$GNHDT,337.363,T*2A
$PYRTM,2024,125.000688783796,16.110336193935
$GNGGA,000059.50,3510.81610337,N,12128.59923068,W,2,12,0.8,6.714,M,-37.384,M,4.4,0131*62
$PYRTM,2024,125.000688783796,16.110336193935
$GNHDT,337.338,T*24
$PYRTM,2024,125.000694619722,16.110342029861
$GNGGA,000100.00,3510.81621507,N,12128.59912501,W,2,12,0.8,6.672,M,-37.384,M,5.0,0131*61
$PYRTM,2024,125.000694619722,16.110342029861
$GNHDT,337.000,T*2C
$PYRTM,2024,125.000700355104,16.110347765255
$GNGGA,000100.50,3510.81636279,N,12128.59896398,W,2,12,0.8,6.584,M,-37.384,M,5.4,0131*69
$PYRTM,2024,125.000700355104,16.110347765255
$GNHDT,336.848,T*29
$PYRTM,2024,125.000706190833,16.110353600972
$GNGGA,000101.00,3510.81653093,N,12128.59880407,W,2,12,0.8,6.430,M,-37.384,M,6.0,0131*67
$PYRTM,2024,125.000706190833,16.110353600972
$GNHDT,336.858,T*28
$PYRTM,2024,125.000711927616,16.110359337755
$GNGGA,000101.50,3510.81669238,N,12128.59870828,W,2,12,0.8,6.305,M,-37.384,M,6.4,0131*63
$PYRTM,2024,125.000711927616,16.110359337755
$GNHDT,336.918,T*2D
$PYRTM,2024,125.000717763912,16.110365174051
$GNGGA,000102.00,3510.81682464,N,12128.59871333,W,2,12,0.8,6.228,M,-37.384,M,7.0,0131*64
$PYRTM,2024,125.000717763912,16.110365174051
$GNHDT,336.827,T*20
$PYRTM,2024,125.000723508079,16.110370918218
$GNGGA,000102.50,3510.81691423,N,12128.59883648,W,2,12,0.8,6.233,M,-37.384,M,7.4,0131*6A
$PYRTM,2024,125.000723508079,16.110370918218
$GNHDT,336.554,T*29
$PYRTM,2024,125.000729347569,16.110376757708
$GNGGA,000103.00,3510.81696462,N,12128.59905241,W,2,12,0.8,6.274,M,-37.384,M,7.0,0131*69
$PYRTM,2024,125.000729347569,16.110376757708
$GNHDT,337.201,T*2F
$PYRTM,2024,125.000735076701,16.110382486840
$GNGGA,000103.50,3510.81696155,N,12128.59931287,W,2,12,0.8,6.385,M,-37.384,M,7.4,0131*6B
$PYRTM,2024,125.000735076701,16.110382486840
$GNHDT,336.244,T*2F
$PYRTM,2024,125.000740913646,16.110388323785
$GNGGA,000104.00,3510.81696553,N,12128.59948534,W,2,12,0.8,6.476,M,-37.384,M,7.0,0131*65
$PYRTM,2024,125.000740913646,16.110388323785
$GNHDT,336.248,T*23
$PYRTM,2024,125.000746654074,16.110394064213
$GNGGA,000104.50,3510.81701223,N,12128.59954346,W,2,12,0.8,6.595,M,-37.384,M,7.4,0131*69
$PYRTM,2024,125.000746654074,16.110394064213
$GNHDT,336.680,T*23
$PYRTM,2024,125.000752492488,16.110399902627
$GNGGA,000105.00,3510.81709467,N,12128.59949462,W,2,12,0.8,6.707,M,-37.384,M,4.0,0131*60
$PYRTM,2024,125.000752492488,16.110399902627
$GNHDT,336.725,T*2D
$PYRTM,2024,125.000758223600,16.110405633750
$GNGGA,000105.50,3510.81723500,N,12128.59935186,W,2,12,0.8,6.731,M,-37.384,M,4.4,0131*68
$PYRTM,2024,125.000758223600,16.110405633750
$GNHDT,336.221,T*2C
$PYRTM,2024,125.000764062130,16.110411472280
$GNGGA,000106.00,3510.81737996,N,12128.59920385,W,2,12,0.8,6.681,M,-37.384,M,5.0,0131*62
$PYRTM,2024,125.000764062130,16.110411472280
$GNHDT,335.963,T*22
$PYRTM,2024,125.000769800208,16.110417210347
$GNGGA,000106.50,3510.81753525,N,12128.59906825,W,2,12,0.8,6.577,M,-37.384,M,5.4,0131*6A
$PYRTM,2024,125.000769800208,16.110417210347
$GNHDT,335.968,T*29
$PYRTM,2024,125.000775637697,16.110423047847
$GNGGA,000107.00,3510.81766628,N,12128.59900951,W,2,12,0.8,6.442,M,-37.384,M,6.0,0131*62
$PYRTM,2024,125.000775637697,16.110423047847
$GNHDT,335.994,T*2A
$PYRTM,2024,125.000781373912,16.110428784051
$GNGGA,000107.50,3510.81776205,N,12128.59903984,W,2,12,0.8,6.372,M,-37.384,M,6.4,0131*66
$PYRTM,2024,125.000781373912,16.110428784051
$GNHDT,335.629,T*23
$PYRTM,2024,125.000787213785,16.110434623924
$GNGGA,000108.00,3510.81780264,N,12128.59917776,W,2,12,0.8,6.399,M,-37.384,M,7.0,0131*64
$PYRTM,2024,125.000787213785,16.110434623924
$GNHDT,335.687,T*27
$PYRTM,2024,125.000792951586,16.110440361725
$GNGGA,000108.50,3510.81783384,N,12128.59937526,W,2,12,0.8,6.492,M,-37.384,M,7.4,0131*60
$PYRTM,2024,125.000792951586,16.110440361725
$GNHDT,335.675,T*2A
$PYRTM,2024,125.000798786887,16.110446197037
$GNGGA,000109.00,3510.81785636,N,12128.59962921,W,2,12,0.8,6.603,M,-37.384,M,7.0,0131*6B
$PYRTM,2024,125.000798786887,16.110446197037
$GNHDT,335.558,T*26
$PYRTM,2024,125.000804529294,16.110451939433
$GNGGA,000109.50,3510.81790739,N,12128.59984861,W,2,12,0.8,6.693,M,-37.384,M,7.4,0131*64
$PYRTM,2024,125.000804529294,16.110451939433
$GNHDT,335.359,T*21
$PYRTM,2024,125.000810363264,16.110457773403
$GNGGA,000110.00,3510.81798752,N,12128.59998694,W,2,12,0.8,6.742,M,-37.384,M,7.0,0131*6C
$PYRTM,2024,125.000810363264,16.110457773403
$GNHDT,334.984,T*2A
$PYRTM,2024,125.000816094954,16.110463505093
$GNGGA,000110.50,3510.81809527,N,12128.60001109,W,2,12,0.8,6.757,M,-37.384,M,7.4,0131*6E
$PYRTM,2024,125.000816094954,16.110463505093
$GNHDT,334.623,T*28
$PYRTM,2024,125.000821938553,16.110469348692
$GNGGA,000111.00,3510.81824646,N,12128.59991151,W,2,12,0.8,6.752,M,-37.384,M,4.0,0131*64
$PYRTM,2024,125.000821938553,16.110469348692
$GNHDT,334.661,T*2E
$PYRTM,2024,125.000827673785,16.110475083924
$GNGGA,000111.50,3510.81843872,N,12128.59973571,W,2,12,0.8,6.697,M,-37.384,M,4.4,0131*6F
$PYRTM,2024,125.000827673785,16.110475083924
$GNHDT,334.747,T*2B
$PYRTM,2024,125.000833505093,16.110480915243
$GNGGA,000112.00,3510.81862518,N,12128.59957903,W,2,12,0.8,6.670,M,-37.383,M,5.0,0131*6F
$PYRTM,2024,125.000833505093,16.110480915243
$GNHDT,334.541,T*2F
$PYRTM,2024,125.000839243009,16.110486653148
$GNGGA,000112.50,3510.81878440,N,12128.59950137,W,2,12,0.8,6.667,M,-37.383,M,5.4,0131*67
$PYRTM,2024,125.000839243009,16.110486653148
$GNHDT,334.706,T*2E
$PYRTM,2024,125.000845084109,16.110492494259
$GNGGA,000113.00,3510.81886188,N,12128.59956283,W,2,12,0.8,6.761,M,-37.383,M,6.0,0131*69
$PYRTM,2024,125.000845084109,16.110492494259
$GNHDT,334.693,T*23
$PYRTM,2024,125.000850817766,16.110498227905
$GNGGA,000113.50,3510.81891704,N,12128.59968123,W,2,12,0.8,6.855,M,-37.383,M,6.4,0131*60
$PYRTM,2024,125.000850817766,16.110498227905
$GNHDT,334.534,T*2D
$PYRTM,2024,125.000856659803,16.110504069942
$GNGGA,000114.00,3510.81893682,N,12128.59988216,W,2,12,0.8,6.940,M,-37.383,M,7.0,0131*64
$PYRTM,2024,125.000856659803,16.110504069942
$GNHDT,334.364,T*2E
$PYRTM,2024,125.000862391088,16.110509801227
$GNGGA,000114.50,3510.81894774,N,12128.60012136,W,2,12,0.8,6.977,M,-37.383,M,7.4,0131*6F
$PYRTM,2024,125.000862391088,16.110509801227
$GNHDT,334.574,T*29
$PYRTM,2024,125.000868230231,16.110515640370
$GNGGA,000115.00,3510.81896024,N,12128.60033594,W,2,12,0.8,6.965,M,-37.383,M,7.0,0131*63
$PYRTM,2024,125.000868230231,16.110515640370
$GNHDT,334.538,T*21
$PYRTM,2024,125.000873965208,16.110521375347
$GNGGA,000115.50,3510.81900625,N,12128.60046120,W,2,12,0.8,6.883,M,-37.383,M,7.4,0131*6B
$PYRTM,2024,125.000873965208,16.110521375347
$GNHDT,334.359,T*20
$PYRTM,2024,125.000879799861,16.110527210000
$GNGGA,000116.00,3510.81909785,N,12128.60048889,W,2,12,0.8,6.752,M,-37.383,M,7.0,0131*6C
$PYRTM,2024,125.000879799861,16.110527210000
$GNHDT,334.185,T*23
$PYRTM,2024,125.000885539306,16.110532949444
$GNGGA,000116.50,3510.81922930,N,12128.60043739,W,2,12,0.8,6.572,M,-37.383,M,7.4,0131*6B
$PYRTM,2024,125.000885539306,16.110532949444
$GNHDT,334.044,T*2F
$PYRTM,2024,125.000891378657,16.110538788796
$GNGGA,000117.00,3510.81939128,N,12128.60033496,W,2,12,0.8,6.416,M,-37.383,M,4.0,0131*61
$PYRTM,2024,125.000891378657,16.110538788796
$GNHDT,333.699,T*2E
$PYRTM,2024,125.000897120544,16.110544530683
$GNGGA,000117.50,3510.81955156,N,12128.60022942,W,2,12,0.8,6.337,M,-37.383,M,4.4,0131*63
$PYRTM,2024,125.000897120544,16.110544530683
$GNHDT,333.434,T*2B
$PYRTM,2024,125.000902954421,16.110550364560
$GNGGA,000118.00,3510.81968153,N,12128.60015294,W,2,12,0.8,6.410,M,-37.383,M,5.0,0131*61
$PYRTM,2024,125.000902954421,16.110550364560
$GNHDT,333.393,T*21
$PYRTM,2024,125.000908687650,16.110556097801
$GNGGA,000118.50,3510.81977116,N,12128.60012166,W,2,12,0.8,6.605,M,-37.383,M,5.4,0131*60
$PYRTM,2024,125.000908687650,16.110556097801
$GNHDT,333.642,T*28
$PYRTM,2024,125.000914525625,16.110561935764
$GNGGA,000119.00,3510.81982324,N,12128.60015951,W,2,12,0.8,6.858,M,-37.383,M,6.0,0131*67
$PYRTM,2024,125.000914525625,16.110561935764
$GNHDT,333.907,T*26
$PYRTM,2024,125.000920262002,16.110567672141
$GNGGA,000119.50,3510.81986063,N,12128.60025475,W,2,12,0.8,7.087,M,-37.383,M,6.4,0131*61
$PYRTM,2024,125.000920262002,16.110567672141
$GNHDT,333.958,T*2C
$PYRTM,2024,125.000926099167,16.110573509306
$GNGGA,000120.00,3510.81990155,N,12128.60039443,W,2,12,0.8,7.232,M,-37.383,M,7.0,0131*6C
$PYRTM,2024,125.000926099167,16.110573509306
$GNHDT,333.802,T*22
$PYRTM,2024,125.000931835532,16.110579245683
$GNGGA,000120.50,3510.81995635,N,12128.60052871,W,2,12,0.8,7.258,M,-37.383,M,7.4,0131*65
$PYRTM,2024,125.000931835532,16.110579245683
$GNHDT,334.072,T*2A
$PYRTM,2024,125.000937671956,16.110585082095
$GNGGA,000121.00,3510.82003474,N,12128.60063688,W,2,12,0.8,7.193,M,-37.383,M,7.0,0131*69
$PYRTM,2024,125.000937671956,16.110585082095
$GNHDT,333.994,T*2C
$PYRTM,2024,125.000943413264,16.110590823403
$GNGGA,000121.50,3510.82012444,N,12128.60070737,W,2,12,0.8,7.064,M,-37.383,M,7.4,0131*65
$PYRTM,2024,125.000943413264,16.110590823403
$GNHDT,333.748,T*23
$PYRTM,2024,125.000949248623,16.110596658762
$GNGGA,000122.00,3510.82023803,N,12128.60071704,W,2,12,0.8,6.914,M,-37.383,M,7.0,0131*64
$PYRTM,2024,125.000949248623,16.110596658762
$GNHDT,333.425,T*2B
$PYRTM,2024,125.000954986609,16.110602396759
$GNGGA,000122.50,3510.82036154,N,12128.60069710,W,2,12,0.8,6.773,M,-37.383,M,7.4,0131*69
$PYRTM,2024,125.000954986609,16.110602396759
$GNHDT,333.503,T*2E
$PYRTM,2024,125.000960824120,16.110608234259
$GNGGA,000123.00,3510.82050068,N,12128.60064590,W,2,12,0.8,6.640,M,-37.383,M,4.0,0131*62
$PYRTM,2024,125.000960824120,16.110608234259
$GNHDT,333.313,T*29
$PYRTM,2024,125.000966563542,16.110613973681
$GNGGA,000123.50,3510.82063626,N,12128.60060855,W,2,12,0.8,6.551,M,-37.383,M,4.4,0131*6C
$PYRTM,2024,125.000966563542,16.110613973681
$GNHDT,333.228,T*20
$PYRTM,2024,125.000972397361,16.110619807512
$GNGGA,000124.00,3510.82076012,N,12128.60062075,W,2,12,0.8,6.576,M,-37.383,M,5.0,0131*63
$PYRTM,2024,125.000972397361,16.110619807512
$GNHDT,333.353,T*2D
$PYRTM,2024,125.000978134028,16.110625544178
$GNGGA,000124.50,3510.82085257,N,12128.60069271,W,2,12,0.8,6.687,M,-37.383,M,5.4,0131*6D
$PYRTM,2024,125.000978134028,16.110625544178
$GNHDT,333.668,T*20
$PYRTM,2024,125.000983971134,16.110631381273
$GNGGA,000125.00,3510.82092468,N,12128.60080523,W,2,12,0.8,6.887,M,-37.383,M,6.0,0131*6B
$PYRTM,2024,125.000983971134,16.110631381273
$GNHDT,333.956,T*22
$PYRTM,2024,125.000989707176,16.110637117315
$GNGGA,000125.50,3510.82099582,N,12128.60090725,W,2,12,0.8,7.087,M,-37.383,M,6.4,0131*68
$PYRTM,2024,125.000989707176,16.110637117315
$GNHDT,333.829,T*2B
$PYRTM,2024,125.000995541956,16.110642952095
$GNGGA,000126.00,3510.82106968,N,12128.60099864,W,2,12,0.8,7.235,M,-37.383,M,7.0,0131*6C
$PYRTM,2024,125.000995541956,16.110642952095
$GNHDT,333.714,T*2A
$PYRTM,2024,125.001001281806,16.110648691944
$GNGGA,000126.50,3510.82115986,N,12128.60104015,W,2,12,0.8,7.304,M,-37.383,M,7.4,0131*67
$PYRTM,2024,125.001001281806,16.110648691944
$GNHDT,333.970,T*26
$PYRTM,2024,125.001007119502,16.110654529641
$GNGGA,000127.00,3510.82123543,N,12128.60110176,W,2,12,0.8,7.242,M,-37.383,M,7.0,0131*65
$PYRTM,2024,125.001007119502,16.110654529641
$GNHDT,333.917,T*27
$PYRTM,2024,125.001012853634,16.110660263785
$GNGGA,000127.50,3510.82131599,N,12128.60116096,W,2,12,0.8,7.096,M,-37.383,M,7.4,0131*62
$PYRTM,2024,125.001012853634,16.110660263785
$GNHDT,333.774,T*2C
$PYRTM,2024,125.001018692315,16.110666102454
$GNGGA,000128.00,3510.82140253,N,12128.60123467,W,2,12,0.8,6.848,M,-37.383,M,7.0,0131*6D
$PYRTM,2024,125.001018692315,16.110666102454
$GNHDT,333.569,T*22
$PYRTM,2024,125.001024426204,16.110671836354
$GNGGA,000128.50,3510.82150567,N,12128.60130302,W,2,12,0.8,6.571,M,-37.383,M,7.4,0131*6C
$PYRTM,2024,125.001024426204,16.110671836354
$GNHDT,333.820,T*22
$PYRTM,2024,125.001030264375,16.110677674514
$GNGGA,000129.00,3510.82162238,N,12128.60135835,W,2,12,0.8,6.353,M,-37.383,M,4.0,0131*6F
$PYRTM,2024,125.001030264375,16.110677674514
$GNHDT,333.501,T*2C
$PYRTM,2024,125.001036003113,16.110683413264
$GNGGA,000129.50,3510.82173611,N,12128.60142517,W,2,12,0.8,6.237,M,-37.383,M,4.4,0131*6F
$PYRTM,2024,125.001036003113,16.110683413264
$GNHDT,333.289,T*2B
$PYRTM,2024,125.001041842222,16.110689252373
$GNGGA,000130.00,3510.82182385,N,12128.60150656,W,2,12,0.8,6.271,M,-37.383,M,5.0,0131*66
$PYRTM,2024,125.001041842222,16.110689252373
$GNHDT,333.003,T*2B
$PYRTM,2024,125.001047578877,16.110694989016
$GNGGA,000130.50,3510.82187740,N,12128.60159701,W,2,12,0.8,6.456,M,-37.383,M,5.4,0131*66
$PYRTM,2024,125.001047578877,16.110694989016
$GNHDT,333.431,T*2E
$PYRTM,2024,125.001053418646,16.110700828785
$GNGGA,000131.00,3510.82188804,N,12128.60170054,W,2,12,0.8,6.790,M,-37.383,M,6.0,0131*60
$PYRTM,2024,125.001053418646,16.110700828785
$GNHDT,333.658,T*23
$PYRTM,2024,125.001059152569,16.110706562708
$GNGGA,000131.50,3510.82192286,N,12128.60173018,W,2,12,0.8,7.129,M,-37.383,M,6.4,0131*64
$PYRTM,2024,125.001059152569,16.110706562708
$GNHDT,334.075,T*2D
$PYRTM,2024,125.001064989537,16.110712399676
$GNGGA,000132.00,3510.82200764,N,12128.60168747,W,2,12,0.8,7.417,M,-37.383,M,7.0,0131*69
$PYRTM,2024,125.001064989537,16.110712399676
$GNHDT,334.425,T*2C
$PYRTM,2024,125.001070727130,16.110718137269
$GNGGA,000132.50,3510.82212280,N,12128.60162822,W,2,12,0.8,7.563,M,-37.383,M,7.4,0131*60
$PYRTM,2024,125.001070727130,16.110718137269
$GNHDT,334.341,T*29
$PYRTM,2024,125.001076566157,16.110723976296
$GNGGA,000133.00,3510.82227803,N,12128.60155825,W,2,12,0.8,7.534,M,-37.383,M,7.0,0131*66
$PYRTM,2024,125.001076566157,16.110723976296
$GNHDT,334.327,T*29
$PYRTM,2024,125.001082300775,16.110729710914
$GNGGA,000133.50,3510.82243211,N,12128.60155687,W,2,12,0.8,7.353,M,-37.383,M,7.4,0131*6D
$PYRTM,2024,125.001082300775,16.110729710914
$GNHDT,334.069,T*20
$PYRTM,2024,125.001088135069,16.110735545208
$GNGGA,000134.00,3510.82257116,N,12128.60162572,W,2,12,0.8,7.082,M,-37.383,M,7.0,0131*68
$PYRTM,2024,125.001088135069,16.110735545208
$GNHDT,333.690,T*27
$PYRTM,2024,125.001093873889,16.110741284028
$GNGGA,000134.50,3510.82267198,N,12128.60175411,W,2,12,0.8,6.836,M,-37.383,M,7.4,0131*68
$PYRTM,2024,125.001093873889,16.110741284028
$GNHDT,333.154,T*28
$PYRTM,2024,125.001099710833,16.110747120972
$GNGGA,000135.00,3510.82274394,N,12128.60189758,W,2,12,0.8,6.711,M,-37.383,M,4.0,0131*60
$PYRTM,2024,125.001099710833,16.110747120972
$GNHDT,333.052,T*2F
$PYRTM,2024,125.001105450093,16.110752860231
$GNGGA,000135.50,3510.82279782,N,12128.60201865,W,2,12,0.8,6.702,M,-37.383,M,4.4,0131*6F
$PYRTM,2024,125.001105450093,16.110752860231
$GNHDT,333.276,T*2B
$PYRTM,2024,125.001111284850,16.110758694988
$GNGGA,000136.00,3510.82286693,N,12128.60209056,W,2,12,0.8,6.792,M,-37.383,M,5.0,0131*64
$PYRTM,2024,125.001111284850,16.110758694988
$GNHDT,333.575,T*2F
$PYRTM,2024,125.001117027106,16.110764437245
$GNGGA,000136.50,3510.82295858,N,12128.60212118,W,2,12,0.8,6.929,M,-37.383,M,5.4,0131*61
$PYRTM,2024,125.001117027106,16.110764437245
$GNHDT,333.428,T*26
$PYRTM,2024,125.001122868611,16.110770278750
$GNGGA,000137.00,3510.82309110,N,12128.60211900,W,2,12,0.8,7.014,M,-37.383,M,6.0,0131*67
$PYRTM,2024,125.001122868611,16.110770278750
$GNHDT,333.421,T*2F
$PYRTM,2024,125.001128597118,16.110776007257
$GNGGA,000137.50,3510.82324966,N,12128.60209980,W,2,12,0.8,7.035,M,-37.383,M,6.4,0131*62
$PYRTM,2024,125.001128597118,16.110776007257
$GNHDT,333.486,T*22
$PYRTM,2024,125.001134434861,16.110781845012
$GNGGA,000138.00,3510.82340782,N,12128.60208877,W,2,12,0.8,6.968,M,-37.383,M,7.0,0131*63
$PYRTM,2024,125.001134434861,16.110781845012
$GNHDT,333.584,T*21
$PYRTM,2024,125.001140170984,16.110787581134
$GNGGA,000138.50,3510.82353887,N,12128.60212215,W,2,12,0.8,6.877,M,-37.383,M,7.4,0131*60
$PYRTM,2024,125.001140170984,16.110787581134
$GNHDT,333.325,T*2C
$PYRTM,2024,125.001146008322,16.110793418461
$GNGGA,000139.00,3510.82363077,N,12128.60219736,W,2,12,0.8,6.797,M,-37.383,M,7.0,0131*6A
$PYRTM,2024,125.001146008322,16.110793418461
$GNHDT,333.417,T*2A
$PYRTM,2024,125.001151743924,16.110799154063
$GNGGA,000139.50,3510.82369036,N,12128.60230311,W,2,12,0.8,6.784,M,-37.383,M,7.4,0131*6C
$PYRTM,2024,125.001151743924,16.110799154063
$GNHDT,333.716,T*28
$PYRTM,2024,125.001157581100,16.110804991238
$GNGGA,000140.00,3510.82372464,N,12128.60240839,W,2,12,0.8,6.800,M,-37.383,M,7.0,0131*6F
$PYRTM,2024,125.001157581100,16.110804991238
$GNHDT,333.833,T*20
$PYRTM,2024,125.001163319294,16.110810729433
$GNGGA,000140.50,3510.82375803,N,12128.60250400,W,2,12,0.8,6.836,M,-37.383,M,7.4,0131*66
$PYRTM,2024,125.001163319294,16.110810729433
$GNHDT,333.888,T*20
$PYRTM,2024,125.001169152940,16.110816563079
$GNGGA,000141.00,3510.82380438,N,12128.60260367,W,2,12,0.8,6.821,M,-37.383,M,4.0,0131*68
$PYRTM,2024,125.001169152940,16.110816563079
$GNHDT,333.830,T*23
$PYRTM,2024,125.001174892917,16.110822303067
$GNGGA,000141.50,3510.82386388,N,12128.60267007,W,2,12,0.8,6.767,M,-37.383,M,4.4,0131*6C
$PYRTM,2024,125.001174892917,16.110822303067
$GNHDT,333.469,T*23
$PYRTM,2024,125.001180726979,16.110828137118
$GNGGA,000142.00,3510.82393739,N,12128.60271508,W,2,12,0.8,6.659,M,-37.383,M,5.0,0131*64
$PYRTM,2024,125.001180726979,16.110828137118
$GNHDT,333.465,T*2F
$PYRTM,2024,125.001186470521,16.110833880660
$GNGGA,000142.50,3510.82402387,N,12128.60272014,W,2,12,0.8,6.555,M,-37.383,M,5.4,0131*6F
$PYRTM,2024,125.001186470521,16.110833880660
$GNHDT,333.663,T*2B
$PYRTM,2024,125.001192302593,16.110839712731
$GNGGA,000143.00,3510.82409224,N,12128.60272569,W,2,12,0.8,6.501,M,-37.383,M,6.0,0131*61
$PYRTM,2024,125.001192302593,16.110839712731
$GNHDT,333.645,T*2F
$PYRTM,2024,125.001198047269,16.110845457407
$GNGGA,000143.50,3510.82418163,N,12128.60271250,W,2,12,0.8,6.487,M,-37.383,M,6.4,0131*61
$PYRTM,2024,125.001198047269,16.110845457407
$GNHDT,333.699,T*2E
$PYRTM,2024,125.001203877014,16.110851287164
$GNGGA,000144.00,3510.82426965,N,12128.60273011,W,2,12,0.8,6.526,M,-37.383,M,7.0,0131*6A
$PYRTM,2024,125.001203877014,16.110851287164
$GNHDT,333.754,T*2E
$PYRTM,2024,125.001209614201,16.110857024340
$GNGGA,000144.50,3510.82436855,N,12128.60279153,W,2,12,0.8,6.588,M,-37.383,M,7.4,0131*61
$PYRTM,2024,125.001209614201,16.110857024340
$GNHDT,333.616,T*29
$PYRTM,2024,125.001215450521,16.110862860660
$GNGGA,000145.00,3510.82446168,N,12128.60292333,W,2,12,0.8,6.683,M,-37.383,M,7.0,0131*68
$PYRTM,2024,125.001215450521,16.110862860660
$GNHDT,333.531,T*2F
$PYRTM,2024,125.001221187859,16.110868597998
$GNGGA,000145.50,3510.82453526,N,12128.60310783,W,2,12,0.8,6.790,M,-37.383,M,7.4,0131*64
$PYRTM,2024,125.001221187859,16.110868597998
$GNHDT,333.425,T*2B
$PYRTM,2024,125.001227027049,16.110874437188
$GNGGA,000146.00,3510.82458007,N,12128.60331019,W,2,12,0.8,6.943,M,-37.383,M,7.0,0131*6C
$PYRTM,2024,125.001227027049,16.110874437188
$GNHDT,333.531,T*2F
$PYRTM,2024,125.001232766667,16.110880176806
$GNGGA,000146.50,3510.82461647,N,12128.60347579,W,2,12,0.8,7.138,M,-37.383,M,7.4,0131*62
$PYRTM,2024,125.001232766667,16.110880176806
$GNHDT,333.328,T*21
$PYRTM,2024,125.001238602674,16.110886012813
$GNGGA,000147.00,3510.82468387,N,12128.60353617,W,2,12,0.8,7.342,M,-37.383,M,4.0,0131*60
$PYRTM,2024,125.001238602674,16.110886012813
$GNHDT,333.326,T*2F
$PYRTM,2024,125.001244338715,16.110891748854
$GNGGA,000147.50,3510.82479512,N,12128.60350979,W,2,12,0.8,7.488,M,-37.383,M,4.4,0131*6E
$PYRTM,2024,125.001244338715,16.110891748854
$GNHDT,333.456,T*2F
$PYRTM,2024,125.001250178403,16.110897588542
$GNGGA,000148.00,3510.82495588,N,12128.60341652,W,2,12,0.8,7.524,M,-37.383,M,5.0,0131*61
$PYRTM,2024,125.001250178403,16.110897588542
$GNHDT,333.488,T*2C
$PYRTM,2024,125.001255917963,16.110903328113
$GNGGA,000148.50,3510.82512024,N,12128.60331722,W,2,12,0.8,7.477,M,-37.383,M,5.4,0131*6B
$PYRTM,2024,125.001255917963,16.110903328113
$GNHDT,333.707,T*28
$PYRTM,2024,125.001261749502,16.110909159641
$GNGGA,000149.00,3510.82526042,N,12128.60326004,W,2,12,0.8,7.396,M,-37.383,M,6.0,0131*62
$PYRTM,2024,125.001261749502,16.110909159641
$GNHDT,333.466,T*2C
$PYRTM,2024,125.001267486424,16.110914896563
$GNGGA,000149.50,3510.82538815,N,12128.60326045,W,2,12,0.8,7.264,M,-37.383,M,6.4,0131*6F
$PYRTM,2024,125.001267486424,16.110914896563
$GNHDT,333.449,T*21
$PYRTM,2024,125.001273326285,16.110920736424
$GNGGA,000150.00,3510.82549956,N,12128.60333836,W,2,12,0.8,7.084,M,-37.383,M,7.0,0131*63
$PYRTM,2024,125.001273326285,16.110920736424
$GNHDT,333.536,T*28
$PYRTM,2024,125.001279064387,16.110926474525
$GNGGA,000150.50,3510.82558591,N,12128.60349245,W,2,12,0.8,6.906,M,-37.383,M,7.4,0131*64
$PYRTM,2024,125.001279064387,16.110926474525
$GNHDT,333.713,T*2D
$PYRTM,2024,125.001284898866,16.110932309005
$GNGGA,000151.00,3510.82565023,N,12128.60370259,W,2,12,0.8,6.761,M,-37.383,M,7.0,0131*6E
$PYRTM,2024,125.001284898866,16.110932309005
$GNHDT,333.658,T*23
$PYRTM,2024,125.001290640613,16.110938050752
$GNGGA,000151.50,3510.82570344,N,12128.60390518,W,2,12,0.8,6.725,M,-37.383,M,7.4,0131*65
$PYRTM,2024,125.001290640613,16.110938050752
$GNHDT,333.677,T*2E
$PYRTM,2024,125.001296471273,16.110943881412
$GNGGA,000152.00,3510.82575566,N,12128.60406498,W,2,12,0.8,6.799,M,-37.383,M,7.0,0131*62
$PYRTM,2024,125.001296471273,16.110943881412
$GNHDT,333.752,T*28
$PYRTM,2024,125.001302207905,16.110949618044
$GNGGA,000152.50,3510.82582479,N,12128.60412449,W,2,12,0.8,6.950,M,-37.383,M,7.4,0131*66
$PYRTM,2024,125.001302207905,16.110949618044
$GNHDT,333.425,T*2B
$PYRTM,2024,125.001308046782,16.110955456921
$GNGGA,000153.00,3510.82595095,N,12128.60406915,W,2,12,0.8,7.071,M,-37.383,M,4.0,0131*6F
$PYRTM,2024,125.001308046782,16.110955456921
$GNHDT,333.495,T*20
$PYRTM,2024,125.001313781933,16.110961192072
$GNGGA,000153.50,3510.82611253,N,12128.60395417,W,2,12,0.8,7.117,M,-37.383,M,4.4,0131*6A
$PYRTM,2024,125.001313781933,16.110961192072
$GNHDT,333.202,T*28
$PYRTM,2024,125.001319618634,16.110967028785
$GNGGA,000154.00,3510.82626340,N,12128.60386030,W,2,12,0.8,7.079,M,-37.383,M,5.0,0131*60
$PYRTM,2024,125.001319618634,16.110967028785
$GNHDT,333.288,T*2A
$PYRTM,2024,125.001325356262,16.110972766400
$GNGGA,000154.50,3510.82637120,N,12128.60383134,W,2,12,0.8,7.026,M,-37.383,M,5.4,0131*6F
$PYRTM,2024,125.001325356262,16.110972766400
$GNHDT,333.328,T*21
$PYRTM,2024,125.001331197292,16.110978607431
$GNGGA,000155.00,3510.82642443,N,12128.60390651,W,2,12,0.8,6.951,M,-37.383,M,6.0,0131*60
$PYRTM,2024,125.001331197292,16.110978607431
$GNHDT,333.522,T*2D
$PYRTM,2024,125.001336936806,16.110984346944
$GNGGA,000155.50,3510.82644922,N,12128.60406764,W,2,12,0.8,6.853,M,-37.383,M,6.4,0131*61
$PYRTM,2024,125.001336936806,16.110984346944
$GNHDT,333.805,T*25
$PYRTM,2024,125.001342769988,16.110990180127
$GNGGA,000156.00,3510.82645593,N,12128.60430536,W,2,12,0.8,6.723,M,-37.383,M,7.0,0131*6D
$PYRTM,2024,125.001342769988,16.110990180127
$GNHDT,333.876,T*21
$PYRTM,2024,125.001348502789,16.110995912928
$GNGGA,000156.50,3510.82647140,N,12128.60453871,W,2,12,0.8,6.625,M,-37.383,M,7.4,0131*68
$PYRTM,2024,125.001348502789,16.110995912928
$GNHDT,333.717,T*29
$PYRTM,2024,125.001354342778,16.111001752917
$GNGGA,000157.00,3510.82650735,N,12128.60469470,W,2,12,0.8,6.610,M,-37.383,M,7.0,0131*68
$PYRTM,2024,125.001354342778,16.111001752917
$GNHDT,333.526,T*29
$PYRTM,2024,125.001360087546,16.111007497697
$GNGGA,000157.50,3510.82658819,N,12128.60473781,W,2,12,0.8,6.662,M,-37.383,M,7.4,0131*63
$PYRTM,2024,125.001360087546,16.111007497697
$GNHDT,333.789,T*2E
$PYRTM,2024,125.001365915035,16.111013325185
$GNGGA,000158.00,3510.82669481,N,12128.60466654,W,2,12,0.8,6.726,M,-37.383,M,7.0,0131*6E
$PYRTM,2024,125.001365915035,16.111013325185
$GNHDT,333.869,T*2F
$PYRTM,2024,125.001371660625,16.111019070764
$GNGGA,000158.50,3510.82683714,N,12128.60454298,W,2,12,0.8,6.778,M,-37.383,M,7.4,0131*6A
$PYRTM,2024,125.001371660625,16.111019070764
$GNHDT,333.597,T*23
$PYRTM,2024,125.001377495012,16.111024905150
$GNGGA,000159.00,3510.82698908,N,12128.60444139,W,2,12,0.8,6.780,M,-37.383,M,4.0,0131*6E
$PYRTM,2024,125.001377495012,16.111024905150
$GNHDT,333.255,T*2A
$PYRTM,2024,125.001383226134,16.111030636273
$GNGGA,000159.50,3510.82711750,N,12128.60442161,W,2,12,0.8,6.792,M,-37.383,M,4.4,0131*64
$PYRTM,2024,125.001383226134,16.111030636273
$GNHDT,333.442,T*2A
$PYRTM,2024,125.001389064873,16.111036475012
$GNGGA,000200.00,3510.82720312,N,12128.60450487,W,2,12,0.8,6.809,M,-37.383,M,5.0,0131*68
$PYRTM,2024,125.001389064873,16.111036475012
$GNHDT,333.454,T*2D
$PYRTM,2024,125.001394805475,16.111042215613
$GNGGA,000200.50,3510.82725921,N,12128.60467042,W,2,12,0.8,6.837,M,-37.383,M,5.4,0131*62
$PYRTM,2024,125.001394805475,16.111042215613
$GNHDT,333.560,T*2B
$PYRTM,2024,125.001400642118,16.111048052257
$GNGGA,000201.00,3510.82729073,N,12128.60489783,W,2,12,0.8,6.843,M,-37.383,M,6.0,0131*6A
$PYRTM,2024,125.001400642118,16.111048052257
$GNHDT,333.632,T*2F
$PYRTM,2024,125.001406376053,16.111053786192
$GNGGA,000201.50,3510.82732472,N,12128.60512698,W,2,12,0.8,6.829,M,-37.383,M,6.4,0131*60
$PYRTM,2024,125.001406376053,16.111053786192
$GNHDT,334.046,T*2D
$PYRTM,2024,125.001412213275,16.111059623414
$GNGGA,000202.00,3510.82737702,N,12128.60531543,W,2,12,0.8,6.798,M,-37.383,M,7.0,0131*63
$PYRTM,2024,125.001412213275,16.111059623414
$GNHDT,333.873,T*24
$PYRTM,2024,125.001417951655,16.111065361794
$GNGGA,000202.50,3510.82746470,N,12128.60539937,W,2,12,0.8,6.786,M,-37.383,M,7.4,0131*6A
$PYRTM,2024,125.001417951655,16.111065361794
$GNHDT,333.906,T*27
$PYRTM,2024,125.001423788067,16.111071198206
$GNGGA,000203.00,3510.82758499,N,12128.60535443,W,2,12,0.8,6.807,M,-37.383,M,7.0,0131*66
$PYRTM,2024,125.001423788067,16.111071198206
$GNHDT,333.911,T*21
$PYRTM,2024,125.001429532211,16.111076942350
$GNGGA,000203.50,3510.82772583,N,12128.60520947,W,2,12,0.8,6.887,M,-37.383,M,7.4,0131*60
$PYRTM,2024,125.001429532211,16.111076942350
$GNHDT,334.030,T*2C
$PYRTM,2024,125.001435366354,16.111082776493
$GNGGA,000204.00,3510.82786708,N,12128.60502871,W,2,12,0.8,6.972,M,-37.383,M,7.0,0131*63
$PYRTM,2024,125.001435366354,16.111082776493
$GNHDT,334.038,T*24
$PYRTM,2024,125.001441095995,16.111088506134
$GNGGA,000204.50,3510.82799911,N,12128.60490729,W,2,12,0.8,7.030,M,-37.383,M,7.4,0131*6C
$PYRTM,2024,125.001441095995,16.111088506134
$GNHDT,334.344,T*2C
$PYRTM,2024,125.001446934329,16.111094344468
$GNGGA,000205.00,3510.82811681,N,12128.60491509,W,2,12,0.8,7.028,M,-37.383,M,4.0,0131*6E
$PYRTM,2024,125.001446934329,16.111094344468
$GNHDT,334.354,T*2D
$PYRTM,2024,125.001452672384,16.111100082523
$GNGGA,000205.50,3510.82821359,N,12128.60507755,W,2,12,0.8,6.956,M,-37.383,M,4.4,0131*68
$PYRTM,2024,125.001452672384,16.111100082523
$GNHDT,334.634,T*2E
$PYRTM,2024,125.001458505694,16.111105915833
$GNGGA,000206.00,3510.82828667,N,12128.60533377,W,2,12,0.8,6.846,M,-37.383,M,5.0,0131*69
$PYRTM,2024,125.001458505694,16.111105915833
$GNHDT,334.713,T*2A
$PYRTM,2024,125.001464244560,16.111111654699
$GNGGA,000206.50,3510.82833413,N,12128.60558853,W,2,12,0.8,6.797,M,-37.383,M,5.4,0131*60
$PYRTM,2024,125.001464244560,16.111111654699
$GNHDT,334.446,T*29
$PYRTM,2024,125.001470081481,16.111117491620
$GNGGA,000207.00,3510.82836979,N,12128.60574837,W,2,12,0.8,6.852,M,-37.383,M,6.0,0131*6D
$PYRTM,2024,125.001470081481,16.111117491620
$GNHDT,334.557,T*28
$PYRTM,2024,125.001475821458,16.111123231609
$GNGGA,000207.50,3510.82841740,N,12128.60577236,W,2,12,0.8,6.975,M,-37.383,M,6.4,0131*64
$PYRTM,2024,125.001475821458,16.111123231609
$GNHDT,334.988,T*26
$PYRTM,2024,125.001481654884,16.111129065023
$GNGGA,000208.00,3510.82849536,N,12128.60567934,W,2,12,0.8,7.058,M,-37.383,M,7.0,0131*6F
$PYRTM,2024,125.001481654884,16.111129065023
$GNHDT,335.349,T*20
$PYRTM,2024,125.001487395058,16.111134805197
$GNGGA,000208.50,3510.82861576,N,12128.60554408,W,2,12,0.8,7.087,M,-37.383,M,7.4,0131*60
$PYRTM,2024,125.001487395058,16.111134805197
$GNHDT,335.592,T*20
$PYRTM,2024,125.001493230845,16.111140640984
$GNGGA,000209.00,3510.82876783,N,12128.60540669,W,2,12,0.8,6.972,M,-37.383,M,7.0,0131*6C
$PYRTM,2024,125.001493230845,16.111140640984
$GNHDT,335.627,T*2D
$PYRTM,2024,125.001498966644,16.111146376782
$GNGGA,000209.50,3510.82891643,N,12128.60530962,W,2,12,0.8,6.773,M,-37.383,M,7.4,0131*65
$PYRTM,2024,125.001498966644,16.111146376782
$GNHDT,335.721,T*2A
$PYRTM,2024,125.001504805729,16.111152215868
$GNGGA,000210.00,3510.82903215,N,12128.60528912,W,2,12,0.8,6.558,M,-37.383,M,7.0,0131*64
$PYRTM,2024,125.001504805729,16.111152215868
$GNHDT,335.784,T*25
$PYRTM,2024,125.001510545810,16.111157955949
$GNGGA,000210.50,3510.82908638,N,12128.60538311,W,2,12,0.8,6.409,M,-37.383,M,7.4,0131*68
$PYRTM,2024,125.001510545810,16.111157955949
$GNHDT,336.056,T*2E
$PYRTM,2024,125.001516379595,16.111163789734
$GNGGA,000211.00,3510.82909087,N,12128.60558574,W,2,12,0.8,6.338,M,-37.383,M,4.0,0131*6E
$PYRTM,2024,125.001516379595,16.111163789734
$GNHDT,336.147,T*2F
$PYRTM,2024,125.001522117697,16.111169527836
$GNGGA,000211.50,3510.82908236,N,12128.60582889,W,2,12,0.8,6.341,M,-37.383,M,4.4,0131*60
$PYRTM,2024,125.001522117697,16.111169527836
$GNHDT,336.114,T*29
$PYRTM,2024,125.001527960058,16.111175370197
$GNGGA,000212.00,3510.82909029,N,12128.60603112,W,2,12,0.8,6.416,M,-37.383,M,5.0,0131*6A
$PYRTM,2024,125.001527960058,16.111175370197
$GNHDT,336.161,T*2B
$PYRTM,2024,125.001533693495,16.111181103634
$GNGGA,000212.50,3510.82914605,N,12128.60614012,W,2,12,0.8,6.492,M,-37.383,M,5.4,0131*64
$PYRTM,2024,125.001533693495,16.111181103634
$GNHDT,336.232,T*2E
$PYRTM,2024,125.001539527558,16.111186937697
$GNGGA,000213.00,3510.82924502,N,12128.60614697,W,2,12,0.8,6.545,M,-37.383,M,6.0,0131*60
$PYRTM,2024,125.001539527558,16.111186937697
$GNHDT,336.082,T*27
$PYRTM,2024,125.001545265162,16.111192675301
$GNGGA,000213.50,3510.82937309,N,12128.60607657,W,2,12,0.8,6.589,M,-37.383,M,6.4,0131*60
$PYRTM,2024,125.001545265162,16.111192675301
$GNHDT,336.274,T*2C
$PYRTM,2024,125.001551107350,16.111198517488
$GNGGA,000214.00,3510.82950144,N,12128.60597571,W,2,12,0.8,6.589,M,-37.383,M,7.0,0131*60
$PYRTM,2024,125.001551107350,16.111198517488
$GNHDT,336.139,T*26
$PYRTM,2024,125.001556839826,16.111204249977
$GNGGA,000214.50,3510.82961384,N,12128.60588447,W,2,12,0.8,6.567,M,-37.383,M,7.4,0131*67
$PYRTM,2024,125.001556839826,16.111204249977
$GNHDT,336.563,T*2D
$PYRTM,2024,125.001562676887,16.111210087025
$GNGGA,000215.00,3510.82971000,N,12128.60583465,W,2,12,0.8,6.516,M,-37.383,M,7.0,0131*64
$PYRTM,2024,125.001562676887,16.111210087025
$GNHDT,336.872,T*20
$PYRTM,2024,125.001568416100,16.111215826238
$GNGGA,000215.50,3510.82979281,N,12128.60585482,W,2,12,0.8,6.484,M,-37.383,M,7.4,0131*63
$PYRTM,2024,125.001568416100,16.111215826238
$GNHDT,336.916,T*23
$PYRTM,2024,125.001574252755,16.111221662894
$GNGGA,000216.00,3510.82986122,N,12128.60594588,W,2,12,0.8,6.481,M,-37.383,M,7.0,0131*65
$PYRTM,2024,125.001574252755,16.111221662894
$GNHDT,336.890,T*2C
$PYRTM,2024,125.001579987292,16.111227397431
$GNGGA,000216.50,3510.82992177,N,12128.60608927,W,2,12,0.8,6.522,M,-37.383,M,7.4,0131*66
$PYRTM,2024,125.001579987292,16.111227397431
$GNHDT,336.963,T*21
$PYRTM,2024,125.001585827384,16.111233237523
$GNGGA,000217.00,3510.82997217,N,12128.60625791,W,2,12,0.8,6.599,M,-37.383,M,4.0,0131*69
$PYRTM,2024,125.001585827384,16.111233237523
$GNHDT,337.060,T*2A
$PYRTM,2024,125.001591564086,16.111238974225
$GNGGA,000217.50,3510.83001804,N,12128.60640900,W,2,12,0.8,6.699,M,-37.383,M,4.4,0131*61
$PYRTM,2024,125.001591564086,16.111238974225
$GNHDT,337.329,T*24
$PYRTM,2024,125.001597401065,16.111244811204
$GNGGA,000218.00,3510.83007819,N,12128.60649684,W,2,12,0.8,6.782,M,-37.383,M,5.0,0131*65
$PYRTM,2024,125.001597401065,16.111244811204
$GNHDT,337.515,T*2D
$PYRTM,2024,125.001603139340,16.111250549479
$GNGGA,000218.50,3510.83016544,N,12128.60651278,W,2,12,0.8,6.805,M,-37.383,M,5.4,0131*6F
$PYRTM,2024,125.001603139340,16.111250549479
$GNHDT,337.280,T*26
$PYRTM,2024,125.001608976042,16.111256386192
$GNGGA,000219.00,3510.83030137,N,12128.60645919,W,2,12,0.8,6.753,M,-37.383,M,6.0,0131*6D
$PYRTM,2024,125.001608976042,16.111256386192
$GNHDT,337.030,T*2F
$PYRTM,2024,125.001614716586,16.111262126725
$GNGGA,000219.50,3510.83046168,N,12128.60638065,W,2,12,0.8,6.650,M,-37.383,M,6.4,0131*6D
$PYRTM,2024,125.001614716586,16.111262126725
$GNHDT,337.013,T*2E
$PYRTM,2024,125.001620548843,16.111267958981
$GNGGA,000220.00,3510.83061945,N,12128.60630989,W,2,12,0.8,6.555,M,-37.383,M,7.0,0131*60
$PYRTM,2024,125.001620548843,16.111267958981
$GNHDT,337.090,T*25
$PYRTM,2024,125.001626285394,16.111273695532
$GNGGA,000220.50,3510.83074555,N,12128.60628266,W,2,12,0.8,6.559,M,-37.383,M,7.4,0131*67
$PYRTM,2024,125.001626285394,16.111273695532
$GNHDT,337.200,T*2E
$PYRTM,2024,125.001632123843,16.111279533981
$GNGGA,000221.00,3510.83083079,N,12128.60630436,W,2,12,0.8,6.671,M,-37.383,M,7.0,0131*67
$PYRTM,2024,125.001632123843,16.111279533981
$GNHDT,337.362,T*2B
$PYRTM,2024,125.001637863056,16.111285273206
$GNGGA,000221.50,3510.83089446,N,12128.60637031,W,2,12,0.8,6.834,M,-37.383,M,7.4,0131*6F
$PYRTM,2024,125.001637863056,16.111285273206
$GNHDT,337.679,T*24
$PYRTM,2024,125.001643698275,16.111291108414
$GNGGA,000222.00,3510.83095098,N,12128.60646777,W,2,12,0.8,6.978,M,-37.383,M,7.0,0131*6D
$PYRTM,2024,125.001643698275,16.111291108414
$GNHDT,337.678,T*25
$PYRTM,2024,125.001649435289,16.111296845440
$GNGGA,000222.50,3510.83102461,N,12128.60658598,W,2,12,0.8,7.037,M,-37.383,M,7.4,0131*6E
$PYRTM,2024,125.001649435289,16.111296845440
$GNHDT,337.444,T*28
$PYRTM,2024,125.001655270058,16.111302680197
$GNGGA,000223.00,3510.83111911,N,12128.60670565,W,2,12,0.8,6.985,M,-37.383,M,4.0,0131*6C
$PYRTM,2024,125.001655270058,16.111302680197
$GNHDT,337.610,T*2B
$PYRTM,2024,125.001661005972,16.111308416111
$GNGGA,000223.50,3510.83122967,N,12128.60681196,W,2,12,0.8,6.864,M,-37.383,M,4.4,0131*64
$PYRTM,2024,125.001661005972,16.111308416111
$GNHDT,337.455,T*28
$PYRTM,2024,125.001666844097,16.111314254236
$GNGGA,000224.00,3510.83133803,N,12128.60686514,W,2,12,0.8,6.706,M,-37.383,M,5.0,0131*62
$PYRTM,2024,125.001666844097,16.111314254236
$GNHDT,337.317,T*29
$PYRTM,2024,125.001672582326,16.111319992465
$GNGGA,000224.50,3510.83144216,N,12128.60684710,W,2,12,0.8,6.572,M,-37.383,M,5.4,0131*68
$PYRTM,2024,125.001672582326,16.111319992465
$GNHDT,337.647,T*29
$PYRTM,2024,125.001678416539,16.111325826678
$GNGGA,000225.00,3510.83154650,N,12128.60677091,W,2,12,0.8,6.465,M,-37.383,M,6.0,0131*69
$PYRTM,2024,125.001678416539,16.111325826678
$GNHDT,337.738,T*20
$PYRTM,2024,125.001684153137,16.111331563275
$GNGGA,000225.50,3510.83165284,N,12128.60670387,W,2,12,0.8,6.371,M,-37.383,M,6.4,0131*66
$PYRTM,2024,125.001684153137,16.111331563275
$GNHDT,337.475,T*2A
$PYRTM,2024,125.001689989433,16.111337399583
$GNGGA,000226.00,3510.83174184,N,12128.60671698,W,2,12,0.8,6.286,M,-37.383,M,7.0,0131*65
$PYRTM,2024,125.001689989433,16.111337399583
$GNHDT,337.526,T*2D
$PYRTM,2024,125.001695735648,16.111343145787
$GNGGA,000226.50,3510.83183549,N,12128.60680763,W,2,12,0.8,6.213,M,-37.383,M,7.4,0131*6E
$PYRTM,2024,125.001695735648,16.111343145787
$GNHDT,337.392,T*24
$PYRTM,2024,125.001701565405,16.111348975544
$GNGGA,000227.00,3510.83191284,N,12128.60696853,W,2,12,0.8,6.175,M,-37.383,M,7.0,0131*63
$PYRTM,2024,125.001701565405,16.111348975544
$GNHDT,337.170,T*2A
$PYRTM,2024,125.001707308947,16.111354719086
$GNGGA,000227.50,3510.83198035,N,12128.60714630,W,2,12,0.8,6.202,M,-37.383,M,7.4,0131*60
$PYRTM,2024,125.001707308947,16.111354719086
$GNHDT,337.283,T*25
$PYRTM,2024,125.001713144977,16.111360555116
$GNGGA,000228.00,3510.83201566,N,12128.60731242,W,2,12,0.8,6.322,M,-37.383,M,7.0,0131*6B
$PYRTM,2024,125.001713144977,16.111360555116
$GNHDT,337.230,T*2D
$PYRTM,2024,125.001718886157,16.111366296296
$GNGGA,000228.50,3510.83203749,N,12128.60741723,W,2,12,0.8,6.486,M,-37.383,M,7.4,0131*6B
$PYRTM,2024,125.001718886157,16.111366296296
$GNHDT,337.338,T*24
$PYRTM,2024,125.001724711655,16.111372121794
