$PYRTM,2024,127.250000301933,18.359647712072
$GNGGA,060000.00,3359.64452173,N,11931.19557867,W,2,11,0.9,10.247,M,-37.416,M,4.0,0131*5A
$PYRTM,2024,127.250000301933,18.359647712072
$GNHDT,158.575,T*20
$PYRTM,2024,127.250006036181,18.359653446319
$GNGGA,060000.50,3359.64408516,N,11931.19520378,W,2,11,0.9,10.323,M,-37.416,M,4.4,0131*55
$PYRTM,2024,127.250006036181,18.359653446319
$GNHDT,158.510,T*23
$PYRTM,2024,127.250011873148,18.359659283287
$GNGGA,060001.00,3359.64364803,N,11931.19478267,W,2,11,0.9,10.384,M,-37.416,M,5.0,0131*5E
$PYRTM,2024,127.250011873148,18.359659283287
$GNHDT,158.385,T*29
$PYRTM,2024,127.250017610556,18.359665020694
$GNGGA,060001.50,3359.64320196,N,11931.19434148,W,2,11,0.9,10.438,M,-37.416,M,5.4,0131*5C
$PYRTM,2024,127.250017610556,18.359665020694
$GNHDT,158.823,T*2E
$PYRTM,2024,127.250023451562,18.359670861701
$GNGGA,060002.00,3359.64274463,N,11931.19391690,W,2,11,0.9,10.483,M,-37.416,M,6.0,0131*58
$PYRTM,2024,127.250023451562,18.359670861701
$GNHDT,158.695,T*2D
$PYRTM,2024,127.250029185162,18.359676595301
$GNGGA,060002.50,3359.64228139,N,11931.19353125,W,2,11,0.9,10.509,M,-37.416,M,6.4,0131*5E
$PYRTM,2024,127.250029185162,18.359676595301
$GNHDT,158.619,T*29
$PYRTM,2024,127.250035021076,18.359682431215
$GNGGA,060003.00,3359.64181173,N,11931.19317451,W,2,11,0.9,10.496,M,-37.416,M,7.0,0131*50
$PYRTM,2024,127.250035021076,18.359682431215
$GNHDT,158.364,T*26
$PYRTM,2024,127.250040760914,18.359688171053
$GNGGA,060003.50,3359.64133768,N,11931.19285587,W,2,11,0.9,10.454,M,-37.416,M,7.4,0131*5A
$PYRTM,2024,127.250040760914,18.359688171053
$GNHDT,158.659,T*2D
$PYRTM,2024,127.250046600937,18.359694011076
$GNGGA,060004.00,3359.64084104,N,11931.19255116,W,2,11,0.9,10.360,M,-37.417,M,7.0,0131*5D
$PYRTM,2024,127.250046600937,18.359694011076
$GNHDT,158.381,T*2D
$PYRTM,2024,127.250052339282,18.359699749421
$GNGGA,060004.50,3359.64033700,N,11931.19226314,W,2,11,0.9,10.207,M,-37.417,M,7.4,0131*56
$PYRTM,2024,127.250052339282,18.359699749421
$GNHDT,158.234,T*22
$PYRTM,2024,127.250058173426,18.359705583576
$GNGGA,060005.00,3359.63981507,N,11931.19199429,W,2,11,0.9,10.022,M,-37.417,M,7.0,0131*5F
$PYRTM,2024,127.250058173426,18.359705583576
$GNHDT,158.110,T*27
$PYRTM,2024,127.250063911632,18.359711321771
$GNGGA,060005.50,3359.63930924,N,11931.19169221,W,2,11,0.9,9.907,M,-37.417,M,7.4,0131*6E
$PYRTM,2024,127.250063911632,18.359711321771
$GNHDT,158.114,T*23
$PYRTM,2024,127.250069745405,18.359717155544
$GNGGA,060006.00,3359.63883410,N,11931.19132089,W,2,11,0.9,9.900,M,-37.417,M,4.0,0131*65
$PYRTM,2024,127.250069745405,18.359717155544
$GNHDT,158.069,T*28
$PYRTM,2024,127.250075486169,18.359722896308
$GNGGA,060006.50,3359.63839886,N,11931.19089446,W,2,11,0.9,10.095,M,-37.417,M,4.4,0131*5D
$PYRTM,2024,127.250075486169,18.359722896308
$GNHDT,158.147,T*25
$PYRTM,2024,127.250081324919,18.359728735058
$GNGGA,060007.00,3359.63799353,N,11931.19043445,W,2,11,0.9,10.451,M,-37.417,M,5.0,0131*53
$PYRTM,2024,127.250081324919,18.359728735058
$GNHDT,158.239,T*2F
$PYRTM,2024,127.250087062616,18.359734472755
$GNGGA,060007.50,3359.63760469,N,11931.18996734,W,2,11,0.9,10.833,M,-37.417,M,5.4,0131*57
$PYRTM,2024,127.250087062616,18.359734472755
$GNHDT,157.902,T*23
$PYRTM,2024,127.250092897407,18.359740307546
$GNGGA,060008.00,3359.63719806,N,11931.18954396,W,2,11,0.9,11.088,M,-37.417,M,6.0,0131*5A
$PYRTM,2024,127.250092897407,18.359740307546
$GNHDT,158.267,T*24
$PYRTM,2024,127.250098635220,18.359746045370
$GNGGA,060008.50,3359.63675315,N,11931.18919956,W,2,11,0.9,11.128,M,-37.417,M,6.4,0131*5D
$PYRTM,2024,127.250098635220,18.359746045370
$GNHDT,157.988,T*21
$PYRTM,2024,127.250104468241,18.359751878380
$GNGGA,060009.00,3359.63625978,N,11931.18893911,W,2,11,0.9,10.943,M,-37.417,M,7.0,0131*5C
$PYRTM,2024,127.250104468241,18.359751878380
$GNHDT,157.998,T*20
$PYRTM,2024,127.250110208762,18.359757618900
$GNGGA,060009.50,3359.63576474,N,11931.18870280,W,2,11,0.9,10.660,M,-37.417,M,7.4,0131*59
$PYRTM,2024,127.250110208762,18.359757618900
$GNHDT,157.884,T*2C
$PYRTM,2024,127.250116042731,18.359763452870
$GNGGA,060010.00,3359.63529058,N,11931.18846927,W,2,11,0.9,10.396,M,-37.417,M,7.0,0131*5F
$PYRTM,2024,127.250116042731,18.359763452870
$GNHDT,157.806,T*26
$PYRTM,2024,127.250121783565,18.359769193715
$GNGGA,060010.50,3359.63485217,N,11931.18817203,W,2,11,0.9,10.259,M,-37.417,M,7.4,0131*5B
$PYRTM,2024,127.250121783565,18.359769193715
$GNHDT,157.577,T*2D
$PYRTM,2024,127.250127614537,18.359775024676
$GNGGA,060011.00,3359.63445677,N,11931.18779440,W,2,11,0.9,10.309,M,-37.417,M,7.0,0131*57
$PYRTM,2024,127.250127614537,18.359775024676
$GNHDT,157.482,T*26
$PYRTM,2024,127.250133355139,18.359780765278
$GNGGA,060011.50,3359.63408553,N,11931.18735881,W,2,11,0.9,10.485,M,-37.417,M,7.4,0131*50
$PYRTM,2024,127.250133355139,18.359780765278
$GNHDT,157.636,T*2B
$PYRTM,2024,127.250139189317,18.359786599456
$GNGGA,060012.00,3359.63371769,N,11931.18688666,W,2,11,0.9,10.725,M,-37.417,M,4.0,0131*5A
$PYRTM,2024,127.250139189317,18.359786599456
$GNHDT,157.657,T*2C
$PYRTM,2024,127.250144935637,18.359792345787
$GNGGA,060012.50,3359.63333394,N,11931.18642026,W,2,11,0.9,10.902,M,-37.417,M,4.4,0131*54
$PYRTM,2024,127.250144935637,18.359792345787
$GNHDT,157.872,T*25
$PYRTM,2024,127.250150768854,18.359798178993
$GNGGA,060013.00,3359.63292685,N,11931.18599183,W,2,11,0.9,10.952,M,-37.417,M,5.0,0131*54
$PYRTM,2024,127.250150768854,18.359798178993
$GNHDT,157.933,T*21
$PYRTM,2024,127.250156512106,18.359803922245
$GNGGA,060013.50,3359.63249699,N,11931.18562994,W,2,11,0.9,10.887,M,-37.417,M,5.4,0131*5D
$PYRTM,2024,127.250156512106,18.359803922245
$GNHDT,157.798,T*2E
$PYRTM,2024,127.250162338449,18.359809748588
$GNGGA,060014.00,3359.63204692,N,11931.18532525,W,2,11,0.9,10.750,M,-37.417,M,6.0,0131*5C
$PYRTM,2024,127.250162338449,18.359809748588
$GNHDT,157.660,T*28
$PYRTM,2024,127.250168077326,18.359815487465
$GNGGA,060014.50,3359.63158832,N,11931.18504850,W,2,11,0.9,10.580,M,-37.417,M,6.4,0131*56
$PYRTM,2024,127.250168077326,18.359815487465
$GNHDT,157.515,T*29
$PYRTM,2024,127.250173912616,18.359821322755
$GNGGA,060015.00,3359.63113469,N,11931.18477216,W,2,11,0.9,10.464,M,-37.417,M,7.0,0131*5C
$PYRTM,2024,127.250173912616,18.359821322755
$GNHDT,157.514,T*28
$PYRTM,2024,127.250179648634,18.359827058773
$GNGGA,060015.50,3359.63069790,N,11931.18445743,W,2,11,0.9,10.406,M,-37.417,M,7.4,0131*54
$PYRTM,2024,127.250179648634,18.359827058773
$GNHDT,157.274,T*29
$PYRTM,2024,127.250185489803,18.359832899954
$GNGGA,060016.00,3359.63027936,N,11931.18408586,W,2,11,0.9,10.445,M,-37.417,M,7.0,0131*5B
$PYRTM,2024,127.250185489803,18.359832899954
$GNHDT,157.345,T*2A
$PYRTM,2024,127.250191232269,18.359838642407
$GNGGA,060016.50,3359.62987498,N,11931.18365714,W,2,11,0.9,10.513,M,-37.417,M,7.4,0131*56
$PYRTM,2024,127.250191232269,18.359838642407
$GNHDT,157.258,T*27
$PYRTM,2024,127.250197062778,18.359844472928
$GNGGA,060017.00,3359.62947383,N,11931.18319948,W,2,11,0.9,10.573,M,-37.417,M,7.0,0131*5D
$PYRTM,2024,127.250197062778,18.359844472928
$GNHDT,157.315,T*2F
$PYRTM,2024,127.250202797269,18.359850207419
$GNGGA,060017.50,3359.62905914,N,11931.18277300,W,2,11,0.9,10.578,M,-37.417,M,7.4,0131*5A
$PYRTM,2024,127.250202797269,18.359850207419
$GNHDT,157.705,T*2A
$PYRTM,2024,127.250208635602,18.359856045741
$GNGGA,060018.00,3359.62862277,N,11931.18238842,W,2,11,0.9,10.501,M,-37.417,M,4.0,0131*51
$PYRTM,2024,127.250208635602,18.359856045741
$GNHDT,157.761,T*28
$PYRTM,2024,127.250214373391,18.359861783530
$GNGGA,060018.50,3359.62816939,N,11931.18204329,W,2,11,0.9,10.367,M,-37.417,M,4.4,0131*5D
$PYRTM,2024,127.250214373391,18.359861783530
$GNHDT,157.455,T*2C
$PYRTM,2024,127.250220208206,18.359867618345
$GNGGA,060019.00,3359.62770028,N,11931.18173490,W,2,11,0.9,10.262,M,-37.417,M,5.0,0131*58
$PYRTM,2024,127.250220208206,18.359867618345
$GNHDT,157.322,T*2B
$PYRTM,2024,127.250225949653,18.359873359803
$GNGGA,060019.50,3359.62724344,N,11931.18142051,W,2,11,0.9,10.190,M,-37.417,M,5.4,0131*54
$PYRTM,2024,127.250225949653,18.359873359803
$GNHDT,157.294,T*27
$PYRTM,2024,127.250231787315,18.359879197454
$GNGGA,060020.00,3359.62679588,N,11931.18108313,W,2,11,0.9,10.195,M,-37.417,M,6.0,0131*5D
$PYRTM,2024,127.250231787315,18.359879197454
$GNHDT,157.271,T*2C
$PYRTM,2024,127.250237527535,18.359884937674
$GNGGA,060020.50,3359.62635421,N,11931.18071623,W,2,11,0.9,10.254,M,-37.417,M,6.4,0131*51
$PYRTM,2024,127.250237527535,18.359884937674
$GNHDT,157.227,T*2F
$PYRTM,2024,127.250243356424,18.359890766563
$GNGGA,060021.00,3359.62591306,N,11931.18032184,W,2,11,0.9,10.308,M,-37.417,M,7.0,0131*5A
$PYRTM,2024,127.250243356424,18.359890766563
$GNHDT,157.211,T*2A
$PYRTM,2024,127.250249093299,18.359896503449
$GNGGA,060021.50,3359.62546802,N,11931.17991216,W,2,11,0.9,10.345,M,-37.417,M,7.4,0131*50
$PYRTM,2024,127.250249093299,18.359896503449
$GNHDT,157.207,T*2D
$PYRTM,2024,127.250254943275,18.359902353414
$GNGGA,060022.00,3359.62501987,N,11931.17950080,W,2,11,0.9,10.363,M,-37.418,M,7.0,0131*56
$PYRTM,2024,127.250254943275,18.359902353414
$GNHDT,157.371,T*2D
$PYRTM,2024,127.250260674861,18.359908085012
$GNGGA,060022.50,3359.62457418,N,11931.17909986,W,2,11,0.9,10.373,M,-37.418,M,7.4,0131*5C
$PYRTM,2024,127.250260674861,18.359908085012
$GNHDT,157.528,T*27
$PYRTM,2024,127.250266508206,18.359913918356
$GNGGA,060023.00,3359.62413086,N,11931.17872095,W,2,11,0.9,10.371,M,-37.418,M,7.0,0131*5B
$PYRTM,2024,127.250266508206,18.359913918356
$GNHDT,157.472,T*29
$PYRTM,2024,127.250272239664,18.359919649815
$GNGGA,060023.50,3359.62368726,N,11931.17836705,W,2,11,0.9,10.367,M,-37.418,M,7.4,0131*55
$PYRTM,2024,127.250272239664,18.359919649815
$GNHDT,157.172,T*2C
$PYRTM,2024,127.250278078576,18.359925488715
$GNGGA,060024.00,3359.62323005,N,11931.17804056,W,2,11,0.9,10.326,M,-37.418,M,4.0,0131*5C
$PYRTM,2024,127.250278078576,18.359925488715
$GNHDT,157.087,T*27
$PYRTM,2024,127.250283815810,18.359931225961
$GNGGA,060024.50,3359.62275379,N,11931.17774149,W,2,11,0.9,10.334,M,-37.418,M,4.4,0131*53
$PYRTM,2024,127.250283815810,18.359931225961
$GNHDT,157.005,T*2D
$PYRTM,2024,127.250289653692,18.359937063843
$GNGGA,060025.00,3359.62228534,N,11931.17738727,W,2,11,0.9,10.299,M,-37.418,M,5.0,0131*55
$PYRTM,2024,127.250289653692,18.359937063843
$GNHDT,156.937,T*24
$PYRTM,2024,127.250295398553,18.359942808692
$GNGGA,060025.50,3359.62181704,N,11931.17701070,W,2,11,0.9,10.326,M,-37.418,M,5.4,0131*5F
$PYRTM,2024,127.250295398553,18.359942808692
$GNHDT,156.870,T*26
$PYRTM,2024,127.250301227789,18.359948637928
$GNGGA,060026.00,3359.62137433,N,11931.17658121,W,2,11,0.9,10.380,M,-37.418,M,6.0,0131*50
$PYRTM,2024,127.250301227789,18.359948637928
$GNHDT,156.970,T*27
$PYRTM,2024,127.250306969306,18.359954379444
$GNGGA,060026.50,3359.62095606,N,11931.17614647,W,2,11,0.9,10.467,M,-37.418,M,6.4,0131*5D
$PYRTM,2024,127.250306969306,18.359954379444
$GNHDT,157.294,T*27
$PYRTM,2024,127.250312803634,18.359960213773
$GNGGA,060027.00,3359.62055164,N,11931.17573831,W,2,11,0.9,10.570,M,-37.418,M,7.0,0131*59
$PYRTM,2024,127.250312803634,18.359960213773
$GNHDT,157.515,T*29
$PYRTM,2024,127.250318537407,18.359965947546
$GNGGA,060027.50,3359.62015165,N,11931.17536641,W,2,11,0.9,10.671,M,-37.418,M,7.4,0131*57
$PYRTM,2024,127.250318537407,18.359965947546
$GNHDT,157.654,T*2F
$PYRTM,2024,127.250324375521,18.359971785660
$GNGGA,060028.00,3359.61973155,N,11931.17504742,W,2,11,0.9,10.710,M,-37.418,M,7.0,0131*55
$PYRTM,2024,127.250324375521,18.359971785660
$GNHDT,157.728,T*25
$PYRTM,2024,127.250330111782,18.359977521933
$GNGGA,060028.50,3359.61929049,N,11931.17475782,W,2,11,0.9,10.658,M,-37.418,M,7.4,0131*51
$PYRTM,2024,127.250330111782,18.359977521933
$GNHDT,157.808,T*28
$PYRTM,2024,127.250335953958,18.359983364097
$GNGGA,060029.00,3359.61883118,N,11931.17448407,W,2,11,0.9,10.571,M,-37.418,M,7.0,0131*5D
$PYRTM,2024,127.250335953958,18.359983364097
$GNHDT,157.943,T*26
$PYRTM,2024,127.250341691065,18.359989101204
$GNGGA,060029.50,3359.61836993,N,11931.17418767,W,2,11,0.9,10.473,M,-37.418,M,7.4,0131*5A
$PYRTM,2024,127.250341691065,18.359989101204
$GNHDT,157.862,T*24
$PYRTM,2024,127.250347525764,18.359994935914
$GNGGA,060030.00,3359.61792812,N,11931.17384395,W,2,11,0.9,10.424,M,-37.418,M,4.0,0131*50
$PYRTM,2024,127.250347525764,18.359994935914
$GNHDT,158.034,T*20
$PYRTM,2024,127.250353259815,18.360000669954
$GNGGA,060030.50,3359.61752649,N,11931.17344610,W,2,11,0.9,10.473,M,-37.418,M,4.4,0131*5B
$PYRTM,2024,127.250353259815,18.360000669954
$GNHDT,158.362,T*20
$PYRTM,2024,127.250359097500,18.360006507650
$GNGGA,060031.00,3359.61715414,N,11931.17301646,W,2,11,0.9,10.600,M,-37.418,M,5.0,0131*57
$PYRTM,2024,127.250359097500,18.360006507650
$GNHDT,158.411,T*23
$PYRTM,2024,127.250364838588,18.360012248727
$GNGGA,060031.50,3359.61679223,N,11931.17258163,W,2,11,0.9,10.748,M,-37.418,M,5.4,0131*5F
$PYRTM,2024,127.250364838588,18.360012248727
$GNHDT,158.511,T*22
$PYRTM,2024,127.250370672211,18.360018082361
$GNGGA,060032.00,3359.61641302,N,11931.17218273,W,2,11,0.9,10.837,M,-37.418,M,6.0,0131*56
$PYRTM,2024,127.250370672211,18.360018082361
$GNHDT,158.748,T*2C
$PYRTM,2024,127.250376408576,18.360023818715
$GNGGA,060032.50,3359.61599973,N,11931.17182900,W,2,11,0.9,10.823,M,-37.418,M,6.4,0131*57
$PYRTM,2024,127.250376408576,18.360023818715
$GNHDT,158.698,T*20
$PYRTM,2024,127.250382249132,18.360029659271
$GNGGA,060033.00,3359.61555962,N,11931.17151025,W,2,11,0.9,10.746,M,-37.418,M,7.0,0131*5A
$PYRTM,2024,127.250382249132,18.360029659271
$GNHDT,159.064,T*24
$PYRTM,2024,127.250387988067,18.360035398206
$GNGGA,060033.50,3359.61511538,N,11931.17119952,W,2,11,0.9,10.639,M,-37.418,M,7.4,0131*54
$PYRTM,2024,127.250387988067,18.360035398206
$GNHDT,159.207,T*23
$PYRTM,2024,127.250393822049,18.360041232199
$GNGGA,060034.00,3359.61468318,N,11931.17088092,W,2,11,0.9,10.542,M,-37.418,M,7.0,0131*5A
$PYRTM,2024,127.250393822049,18.360041232199
$GNHDT,159.462,T*26
$PYRTM,2024,127.250399558843,18.360046968981
$GNGGA,060034.50,3359.61426210,N,11931.17054432,W,2,11,0.9,10.470,M,-37.418,M,7.4,0131*57
$PYRTM,2024,127.250399558843,18.360046968981
$GNHDT,159.615,T*24
$PYRTM,2024,127.250405395914,18.360052806053
$GNGGA,060035.00,3359.61384573,N,11931.17019561,W,2,11,0.9,10.421,M,-37.418,M,7.0,0131*50
$PYRTM,2024,127.250405395914,18.360052806053
$GNHDT,159.568,T*2D
$PYRTM,2024,127.250411132002,18.360058542153
$GNGGA,060035.50,3359.61342380,N,11931.16984908,W,2,11,0.9,10.361,M,-37.418,M,7.4,0131*5D
$PYRTM,2024,127.250411132002,18.360058542153
$GNHDT,159.911,T*2F
$PYRTM,2024,127.250416971898,18.360064382037
$GNGGA,060036.00,3359.61298444,N,11931.16950488,W,2,11,0.9,10.262,M,-37.418,M,4.0,0131*5B
$PYRTM,2024,127.250416971898,18.360064382037
$GNHDT,160.234,T*29
$PYRTM,2024,127.250422704514,18.360070114664
$GNGGA,060036.50,3359.61253654,N,11931.16915779,W,2,11,0.9,10.141,M,-37.418,M,4.4,0131*50
$PYRTM,2024,127.250422704514,18.360070114664
$GNHDT,160.284,T*22
$PYRTM,2024,127.250428543900,18.360075954039
$GNGGA,060037.00,3359.61207975,N,11931.16880321,W,2,11,0.9,10.035,M,-37.418,M,5.0,0131*5A
$PYRTM,2024,127.250428543900,18.360075954039
$GNHDT,160.503,T*2A
$PYRTM,2024,127.250434279016,18.360081689155
$GNGGA,060037.50,3359.61162220,N,11931.16844014,W,2,11,0.9,9.984,M,-37.418,M,5.4,0131*66
$PYRTM,2024,127.250434279016,18.360081689155
$GNHDT,160.849,T*29
$PYRTM,2024,127.250440118426,18.360087528565
$GNGGA,060038.00,3359.61116715,N,11931.16807042,W,2,11,0.9,10.009,M,-37.418,M,6.0,0131*5B
$PYRTM,2024,127.250440118426,18.360087528565
$GNHDT,161.044,T*2D
$PYRTM,2024,127.250445857697,18.360093267836
$GNGGA,060038.50,3359.61071709,N,11931.16769473,W,2,11,0.9,10.082,M,-37.418,M,6.4,0131*55
$PYRTM,2024,127.250445857697,18.360093267836
$GNHDT,161.102,T*2E
$PYRTM,2024,127.250451689398,18.360099099537
$GNGGA,060039.00,3359.61026503,N,11931.16732668,W,2,11,0.9,10.194,M,-37.418,M,7.0,0131*5E
$PYRTM,2024,127.250451689398,18.360099099537
$GNHDT,161.297,T*21
$PYRTM,2024,127.250457426667,18.360104836806
$GNGGA,060039.50,3359.60980864,N,11931.16697207,W,2,11,0.9,10.286,M,-37.418,M,7.4,0131*54
$PYRTM,2024,127.250457426667,18.360104836806
$GNHDT,161.651,T*2F
$PYRTM,2024,127.250463263148,18.360110673287
$GNGGA,060040.00,3359.60934364,N,11931.16663734,W,2,11,0.9,10.319,M,-37.419,M,7.0,0131*57
$PYRTM,2024,127.250463263148,18.360110673287
$GNHDT,161.913,T*26
$PYRTM,2024,127.250469010035,18.360116420174
$GNGGA,060040.50,3359.60887322,N,11931.16632660,W,2,11,0.9,10.298,M,-37.419,M,7.4,0131*51
$PYRTM,2024,127.250469010035,18.360116420174
$GNHDT,161.776,T*2B
$PYRTM,2024,127.250474843218,18.360122253356
$GNGGA,060041.00,3359.60839176,N,11931.16603424,W,2,11,0.9,10.243,M,-37.419,M,7.0,0131*51
$PYRTM,2024,127.250474843218,18.360122253356
$GNHDT,162.042,T*28
$PYRTM,2024,127.250480582350,18.360127992500
$GNGGA,060041.50,3359.60790856,N,11931.16575483,W,2,11,0.9,10.208,M,-37.419,M,7.4,0131*57
$PYRTM,2024,127.250480582350,18.360127992500
$GNHDT,162.526,T*2F
$PYRTM,2024,127.250486414306,18.360133824444
$GNGGA,060042.00,3359.60745687,N,11931.16547251,W,2,11,0.9,10.204,M,-37.419,M,4.0,0131*58
$PYRTM,2024,127.250486414306,18.360133824444
$GNHDT,162.587,T*24
$PYRTM,2024,127.250492149641,18.360139559792
$GNGGA,060042.50,3359.60701462,N,11931.16514277,W,2,11,0.9,10.267,M,-37.419,M,4.4,0131*57
$PYRTM,2024,127.250492149641,18.360139559792
$GNHDT,162.576,T*2A
$PYRTM,2024,127.250497989201,18.360145399340
$GNGGA,060043.00,3359.60658519,N,11931.16478844,W,2,11,0.9,10.362,M,-37.419,M,5.0,0131*53
$PYRTM,2024,127.250497989201,18.360145399340
$GNHDT,162.790,T*20
$PYRTM,2024,127.250503729051,18.360151139190
$GNGGA,060043.50,3359.60613522,N,11931.16440384,W,2,11,0.9,10.442,M,-37.419,M,5.4,0131*5C
$PYRTM,2024,127.250503729051,18.360151139190
$GNHDT,163.386,T*22
$PYRTM,2024,127.250509561898,18.360156972037
$GNGGA,060044.00,3359.60568992,N,11931.16402452,W,2,11,0.9,10.506,M,-37.419,M,6.0,0131*5A
$PYRTM,2024,127.250509561898,18.360156972037
$GNHDT,163.814,T*22
$PYRTM,2024,127.250515308241,18.360162718380
$GNGGA,060044.50,3359.60525658,N,11931.16367476,W,2,11,0.9,10.556,M,-37.419,M,6.4,0131*5C
$PYRTM,2024,127.250515308241,18.360162718380
$GNHDT,163.999,T*26
$PYRTM,2024,127.250521138785,18.360168548924
$GNGGA,060045.00,3359.60482995,N,11931.16334510,W,2,11,0.9,10.588,M,-37.419,M,7.0,0131*5B
$PYRTM,2024,127.250521138785,18.360168548924
$GNHDT,164.060,T*2E
$PYRTM,2024,127.250526870961,18.360174281100
$GNGGA,060045.50,3359.60441750,N,11931.16305739,W,2,11,0.9,10.615,M,-37.419,M,7.4,0131*5E
$PYRTM,2024,127.250526870961,18.360174281100
$GNHDT,164.257,T*28
$PYRTM,2024,127.250532707720,18.360180117859
$GNGGA,060046.00,3359.60403796,N,11931.16283054,W,2,11,0.9,10.595,M,-37.419,M,7.0,0131*58
$PYRTM,2024,127.250532707720,18.360180117859
$GNHDT,164.479,T*22
$PYRTM,2024,127.250538449144,18.360185859282
$GNGGA,060046.50,3359.60362950,N,11931.16259253,W,2,11,0.9,10.563,M,-37.419,M,7.4,0131*56
$PYRTM,2024,127.250538449144,18.360185859282
$GNHDT,164.444,T*2C
$PYRTM,2024,127.250544285694,18.360191695833
$GNGGA,060047.00,3359.60321792,N,11931.16235131,W,2,11,0.9,10.504,M,-37.419,M,7.0,0131*5D
$PYRTM,2024,127.250544285694,18.360191695833
$GNHDT,164.758,T*22
$PYRTM,2024,127.250550020590,18.360197430729
$GNGGA,060047.50,3359.60278988,N,11931.16208052,W,2,11,0.9,10.439,M,-37.419,M,7.4,0131*51
$PYRTM,2024,127.250550020590,18.360197430729
$GNHDT,165.161,T*2F
$PYRTM,2024,127.250555855984,18.360203266123
$GNGGA,060048.00,3359.60234349,N,11931.16176518,W,2,11,0.9,10.361,M,-37.419,M,4.0,0131*58
$PYRTM,2024,127.250555855984,18.360203266123
$GNHDT,165.456,T*2E
$PYRTM,2024,127.250561593484,18.360209003623
$GNGGA,060048.50,3359.60191385,N,11931.16144599,W,2,11,0.9,10.316,M,-37.419,M,4.4,0131*5D
$PYRTM,2024,127.250561593484,18.360209003623
$GNHDT,165.778,T*21
$PYRTM,2024,127.250567432315,18.360214842454
$GNGGA,060049.00,3359.60149229,N,11931.16112044,W,2,11,0.9,10.310,M,-37.419,M,5.0,0131*5E
$PYRTM,2024,127.250567432315,18.360214842454
$GNHDT,166.262,T*2C
$PYRTM,2024,127.250573168843,18.360220578981
$GNGGA,060049.50,3359.60107847,N,11931.16079856,W,2,11,0.9,10.368,M,-37.419,M,5.4,0131*5F
$PYRTM,2024,127.250573168843,18.360220578981
$GNHDT,166.491,T*26
$PYRTM,2024,127.250579006609,18.360226416748
$GNGGA,060050.00,3359.60066181,N,11931.16048811,W,2,11,0.9,10.423,M,-37.419,M,6.0,0131*59
$PYRTM,2024,127.250579006609,18.360226416748
$GNHDT,166.759,T*21
$PYRTM,2024,127.250584742477,18.360232152616
$GNGGA,060050.50,3359.60024259,N,11931.16019432,W,2,11,0.9,10.459,M,-37.419,M,6.4,0131*5C
$PYRTM,2024,127.250584742477,18.360232152616
$GNHDT,166.931,T*21
$PYRTM,2024,127.250590579745,18.360237989884
$GNGGA,060051.00,3359.59980598,N,11931.15992578,W,2,11,0.9,10.440,M,-37.419,M,7.0,0131*54
$PYRTM,2024,127.250590579745,18.360237989884
$GNHDT,167.038,T*20
$PYRTM,2024,127.250596315532,18.360243725671
$GNGGA,060051.50,3359.59935810,N,11931.15968930,W,2,11,0.9,10.345,M,-37.419,M,7.4,0131*51
$PYRTM,2024,127.250596315532,18.360243725671
$GNHDT,167.235,T*2F
$PYRTM,2024,127.250602153947,18.360249564086
$GNGGA,060052.00,3359.59889622,N,11931.15946242,W,2,11,0.9,10.173,M,-37.419,M,7.0,0131*5F
$PYRTM,2024,127.250602153947,18.360249564086
$GNHDT,167.463,T*2A
$PYRTM,2024,127.250607895428,18.360255305567
$GNGGA,060052.50,3359.59843171,N,11931.15922793,W,2,11,0.9,9.990,M,-37.419,M,7.4,0131*6F
$PYRTM,2024,127.250607895428,18.360255305567
$GNHDT,167.771,T*2A
$PYRTM,2024,127.250613730324,18.360261140463
$GNGGA,060053.00,3359.59797350,N,11931.15897331,W,2,11,0.9,9.820,M,-37.419,M,7.0,0131*61
$PYRTM,2024,127.250613730324,18.360261140463
$GNHDT,168.161,T*22
$PYRTM,2024,127.250619465058,18.360266875208
$GNGGA,060053.50,3359.59752650,N,11931.15870073,W,2,11,0.9,9.710,M,-37.419,M,7.4,0131*6C
$PYRTM,2024,127.250619465058,18.360266875208
$GNHDT,168.494,T*2D
$PYRTM,2024,127.250625304144,18.360272714294
$GNGGA,060054.00,3359.59708205,N,11931.15840653,W,2,11,0.9,9.643,M,-37.419,M,4.0,0131*62
$PYRTM,2024,127.250625304144,18.360272714294
$GNHDT,168.994,T*20
$PYRTM,2024,127.250631037454,18.360278447593
$GNGGA,060054.50,3359.59664482,N,11931.15809283,W,2,11,0.9,9.651,M,-37.419,M,4.4,0131*66
$PYRTM,2024,127.250631037454,18.360278447593
$GNHDT,169.230,T*24
$PYRTM,2024,127.250636878657,18.360284288796
$GNGGA,060055.00,3359.59620479,N,11931.15775818,W,2,11,0.9,9.708,M,-37.419,M,5.0,0131*62
$PYRTM,2024,127.250636878657,18.360284288796
$GNHDT,169.358,T*2B
$PYRTM,2024,127.250642619606,18.360290029745
$GNGGA,060055.50,3359.59575639,N,11931.15743735,W,2,11,0.9,9.776,M,-37.419,M,5.4,0131*6A
$PYRTM,2024,127.250642619606,18.360290029745
$GNHDT,169.323,T*27
$PYRTM,2024,127.250648451250,18.360295861389
$GNGGA,060056.00,3359.59528904,N,11931.15714878,W,2,11,0.9,9.808,M,-37.419,M,6.0,0131*60
$PYRTM,2024,127.250648451250,18.360295861389
$GNHDT,169.655,T*23
$PYRTM,2024,127.250654190428,18.360301600567
$GNGGA,060056.50,3359.59480017,N,11931.15691067,W,2,11,0.9,9.758,M,-37.419,M,6.4,0131*69
$PYRTM,2024,127.250654190428,18.360301600567
$GNHDT,169.955,T*2C
$PYRTM,2024,127.250660026354,18.360307436493
$GNGGA,060057.00,3359.59429245,N,11931.15671598,W,2,11,0.9,9.611,M,-37.419,M,7.0,0131*69
$PYRTM,2024,127.250660026354,18.360307436493
$GNHDT,170.241,T*2A
$PYRTM,2024,127.250665765116,18.360313175255
$GNGGA,060057.50,3359.59378161,N,11931.15654307,W,2,11,0.9,9.429,M,-37.419,M,7.4,0131*60
$PYRTM,2024,127.250665765116,18.360313175255
$GNHDT,170.653,T*2D
$PYRTM,2024,127.250671610984,18.360319021123
$GNGGA,060058.00,3359.59327491,N,11931.15636156,W,2,11,0.9,9.257,M,-37.419,M,7.0,0131*63
$PYRTM,2024,127.250671610984,18.360319021123
$GNHDT,170.823,T*24
$PYRTM,2024,127.250677339433,18.360324749572
$GNGGA,060058.50,3359.59277847,N,11931.15615008,W,2,11,0.9,9.177,M,-37.419,M,7.4,0131*6B
$PYRTM,2024,127.250677339433,18.360324749572
$GNHDT,171.431,T*2A
$PYRTM,2024,127.250683172546,18.360330582685
$GNGGA,060059.00,3359.59228867,N,11931.15589995,W,2,11,0.9,9.186,M,-37.419,M,7.0,0131*66
$PYRTM,2024,127.250683172546,18.360330582685
$GNHDT,171.807,T*23
$PYRTM,2024,127.250688916389,18.360336326528
$GNGGA,060059.50,3359.59180757,N,11931.15561416,W,2,11,0.9,9.298,M,-37.419,M,7.4,0131*66
$PYRTM,2024,127.250688916389,18.360336326528
$GNHDT,171.927,T*20
$PYRTM,2024,127.250694748391,18.360342158530
$GNGGA,060100.00,3359.59134050,N,11931.15531644,W,2,11,0.9,9.469,M,-37.419,M,4.0,0131*6E
$PYRTM,2024,127.250694748391,18.360342158530
$GNHDT,172.133,T*2E
$PYRTM,2024,127.250700487801,18.360347897940
$GNGGA,060100.50,3359.59087404,N,11931.15503792,W,2,11,0.9,9.641,M,-37.419,M,4.4,0131*60
$PYRTM,2024,127.250700487801,18.360347897940
$GNHDT,172.526,T*2E
$PYRTM,2024,127.250706324456,18.360353734595
$GNGGA,060101.00,3359.59040687,N,11931.15480630,W,2,11,0.9,9.767,M,-37.419,M,5.0,0131*65
$PYRTM,2024,127.250706324456,18.360353734595
$GNHDT,172.777,T*28
$PYRTM,2024,127.250712061146,18.360359471285
$GNGGA,060101.50,3359.58994090,N,11931.15462996,W,2,11,0.9,9.827,M,-37.419,M,5.4,0131*61
$PYRTM,2024,127.250712061146,18.360359471285
$GNHDT,173.143,T*28
$PYRTM,2024,127.250717897847,18.360365307986
$GNGGA,060102.00,3359.58948178,N,11931.15450454,W,2,11,0.9,9.832,M,-37.419,M,6.0,0131*60
$PYRTM,2024,127.250717897847,18.360365307986
$GNHDT,173.417,T*2C
$PYRTM,2024,127.250723631076,18.360371041215
$GNGGA,060102.50,3359.58903410,N,11931.15439164,W,2,11,0.9,9.814,M,-37.419,M,6.4,0131*68
$PYRTM,2024,127.250723631076,18.360371041215
$GNHDT,173.568,T*25
$PYRTM,2024,127.250729469051,18.360376879190
$GNGGA,060103.00,3359.58860054,N,11931.15425848,W,2,11,0.9,9.789,M,-37.420,M,7.0,0131*62
$PYRTM,2024,127.250729469051,18.360376879190
$GNHDT,173.996,T*28
$PYRTM,2024,127.250735206076,18.360382616215
$GNGGA,060103.50,3359.58817823,N,11931.15407712,W,2,11,0.9,9.777,M,-37.420,M,7.4,0131*6A
$PYRTM,2024,127.250735206076,18.360382616215
$GNHDT,174.545,T*2D
$PYRTM,2024,127.250741046007,18.360388456146
$GNGGA,060104.00,3359.58776481,N,11931.15385986,W,2,11,0.9,9.787,M,-37.420,M,7.0,0131*61
$PYRTM,2024,127.250741046007,18.360388456146
$GNHDT,174.908,T*28
$PYRTM,2024,127.250746784502,18.360394194641
$GNGGA,060104.50,3359.58735141,N,11931.15363263,W,2,11,0.9,9.806,M,-37.420,M,7.4,0131*60
$PYRTM,2024,127.250746784502,18.360394194641
$GNHDT,175.331,T*29
$PYRTM,2024,127.250752616169,18.360400026319
$GNGGA,060105.00,3359.58694180,N,11931.15342341,W,2,11,0.9,9.813,M,-37.420,M,7.0,0131*61
$PYRTM,2024,127.250752616169,18.360400026319
$GNHDT,175.665,T*2D
$PYRTM,2024,127.250758352720,18.360405762859
$GNGGA,060105.50,3359.58653668,N,11931.15325084,W,2,11,0.9,9.817,M,-37.420,M,7.4,0131*65
$PYRTM,2024,127.250758352720,18.360405762859
$GNHDT,175.857,T*22
$PYRTM,2024,127.250764195764,18.360411605903
$GNGGA,060106.00,3359.58613369,N,11931.15310550,W,2,11,0.9,9.806,M,-37.420,M,4.0,0131*6E
$PYRTM,2024,127.250764195764,18.360411605903
$GNHDT,175.993,T*2B
$PYRTM,2024,127.250769926887,18.360417337025
$GNGGA,060106.50,3359.58572717,N,11931.15297206,W,2,11,0.9,9.813,M,-37.420,M,4.4,0131*68
$PYRTM,2024,127.250769926887,18.360417337025
$GNHDT,176.125,T*2D
$PYRTM,2024,127.250775769780,18.360423179919
$GNGGA,060107.00,3359.58531777,N,11931.15282486,W,2,11,0.9,9.825,M,-37.420,M,5.0,0131*67
$PYRTM,2024,127.250775769780,18.360423179919
$GNHDT,176.239,T*23
$PYRTM,2024,127.250781506678,18.360428916817
$GNGGA,060107.50,3359.58490182,N,11931.15266004,W,2,11,0.9,9.861,M,-37.420,M,5.4,0131*64
$PYRTM,2024,127.250781506678,18.360428916817
$GNHDT,176.468,T*21
$PYRTM,2024,127.250787344757,18.360434754896
$GNGGA,060108.00,3359.58447774,N,11931.15247685,W,2,11,0.9,9.865,M,-37.420,M,6.0,0131*64
$PYRTM,2024,127.250787344757,18.360434754896
$GNHDT,176.648,T*21
$PYRTM,2024,127.250793076100,18.360440486238
$GNGGA,060108.50,3359.58405070,N,11931.15229959,W,2,11,0.9,9.833,M,-37.420,M,6.4,0131*65
$PYRTM,2024,127.250793076100,18.360440486238
$GNHDT,177.347,T*2A
$PYRTM,2024,127.250798928079,18.360446338218
$GNGGA,060109.00,3359.58361834,N,11931.15213978,W,2,11,0.9,9.724,M,-37.420,M,7.0,0131*6A
$PYRTM,2024,127.250798928079,18.360446338218
$GNHDT,177.735,T*2B
$PYRTM,2024,127.250804650336,18.360452060475
$GNGGA,060109.50,3359.58318039,N,11931.15201355,W,2,11,0.9,9.558,M,-37.420,M,7.4,0131*6F
$PYRTM,2024,127.250804650336,18.360452060475
$GNHDT,178.061,T*22
$PYRTM,2024,127.250810490127,18.360457900266
$GNGGA,060110.00,3359.58273531,N,11931.15191218,W,2,11,0.9,9.344,M,-37.420,M,7.0,0131*6E
$PYRTM,2024,127.250810490127,18.360457900266
$GNHDT,178.312,T*25
$PYRTM,2024,127.250816230579,18.360463640729
$GNGGA,060110.50,3359.58228443,N,11931.15181799,W,2,11,0.9,9.146,M,-37.420,M,7.4,0131*68
$PYRTM,2024,127.250816230579,18.360463640729
$GNHDT,178.663,T*26
$PYRTM,2024,127.250822061539,18.360469471678
$GNGGA,060111.00,3359.58182438,N,11931.15170372,W,2,11,0.9,8.998,M,-37.420,M,7.0,0131*62
$PYRTM,2024,127.250822061539,18.360469471678
$GNHDT,178.847,T*2E
$PYRTM,2024,127.250827801030,18.360475211169
$GNGGA,060111.50,3359.58135340,N,11931.15156060,W,2,11,0.9,8.935,M,-37.420,M,7.4,0131*64
$PYRTM,2024,127.250827801030,18.360475211169
$GNHDT,179.031,T*26
$PYRTM,2024,127.250833646505,18.360481056644
$GNGGA,060112.00,3359.58086745,N,11931.15138664,W,2,11,0.9,8.925,M,-37.420,M,4.0,0131*66
$PYRTM,2024,127.250833646505,18.360481056644
$GNHDT,179.369,T*28
$PYRTM,2024,127.250839373368,18.360486783519
$GNGGA,060112.50,3359.58036890,N,11931.15120873,W,2,11,0.9,8.943,M,-37.420,M,4.4,0131*6A
$PYRTM,2024,127.250839373368,18.360486783519
$GNHDT,179.575,T*23
$PYRTM,2024,127.250845210208,18.360492620347
$GNGGA,060113.00,3359.57985701,N,11931.15105303,W,2,11,0.9,8.944,M,-37.420,M,5.0,0131*6E
$PYRTM,2024,127.250845210208,18.360492620347
$GNHDT,179.919,T*25
$PYRTM,2024,127.250850950370,18.360498360509
$GNGGA,060113.50,3359.57934383,N,11931.15093906,W,2,11,0.9,8.918,M,-37.420,M,5.4,0131*63
$PYRTM,2024,127.250850950370,18.360498360509
$GNHDT,180.352,T*26
$PYRTM,2024,127.250856788657,18.360504198808
$GNGGA,060114.00,3359.57882478,N,11931.15086384,W,2,11,0.9,8.841,M,-37.420,M,6.0,0131*60
$PYRTM,2024,127.250856788657,18.360504198808
$GNHDT,180.548,T*2B
$PYRTM,2024,127.250862520127,18.360509930266
$GNGGA,060114.50,3359.57830801,N,11931.15079865,W,2,11,0.9,8.775,M,-37.420,M,6.4,0131*66
$PYRTM,2024,127.250862520127,18.360509930266
$GNHDT,180.497,T*28
$PYRTM,2024,127.250868359988,18.360515770127
$GNGGA,060115.00,3359.57778442,N,11931.15072504,W,2,11,0.9,8.728,M,-37.420,M,7.0,0131*66
$PYRTM,2024,127.250868359988,18.360515770127
$GNHDT,180.643,T*23
$PYRTM,2024,127.250874100579,18.360521510718
$GNGGA,060115.50,3359.57726423,N,11931.15062617,W,2,11,0.9,8.741,M,-37.420,M,7.4,0131*64
$PYRTM,2024,127.250874100579,18.360521510718
$GNHDT,181.054,T*22
$PYRTM,2024,127.250879935394,18.360527345532
$GNGGA,060116.00,3359.57674919,N,11931.15050354,W,2,11,0.9,8.813,M,-37.420,M,7.0,0131*6F
$PYRTM,2024,127.250879935394,18.360527345532
$GNHDT,181.104,T*26
$PYRTM,2024,127.250885676400,18.360533086539
$GNGGA,060116.50,3359.57625352,N,11931.15036874,W,2,11,0.9,8.954,M,-37.420,M,7.4,0131*64
$PYRTM,2024,127.250885676400,18.360533086539
$GNHDT,181.104,T*26
$PYRTM,2024,127.250891505891,18.360538916030
$GNGGA,060117.00,3359.57577324,N,11931.15023299,W,2,11,0.9,9.133,M,-37.420,M,7.0,0131*64
$PYRTM,2024,127.250891505891,18.360538916030
$GNHDT,181.328,T*2A
$PYRTM,2024,127.250897247546,18.360544657685
$GNGGA,060117.50,3359.57530793,N,11931.15010588,W,2,11,0.9,9.312,M,-37.420,M,7.4,0131*68
$PYRTM,2024,127.250897247546,18.360544657685
$GNHDT,181.481,T*2E
$PYRTM,2024,127.250903084884,18.360550495023
$GNGGA,060118.00,3359.57484295,N,11931.14998797,W,2,11,0.9,9.450,M,-37.420,M,4.0,0131*6D
$PYRTM,2024,127.250903084884,18.360550495023
$GNHDT,181.637,T*21
$PYRTM,2024,127.250908819387,18.360556229525
$GNGGA,060118.50,3359.57437472,N,11931.14988251,W,2,11,0.9,9.492,M,-37.420,M,4.4,0131*6B
$PYRTM,2024,127.250908819387,18.360556229525
$GNHDT,181.699,T*25
$PYRTM,2024,127.250914652477,18.360562062616
$GNGGA,060119.00,3359.57389451,N,11931.14980352,W,2,11,0.9,9.463,M,-37.420,M,5.0,0131*6D
$PYRTM,2024,127.250914652477,18.360562062616
$GNHDT,181.958,T*27
$PYRTM,2024,127.250920390324,18.360567800463
$GNGGA,060119.50,3359.57341454,N,11931.14975332,W,2,11,0.9,9.372,M,-37.420,M,5.4,0131*66
$PYRTM,2024,127.250920390324,18.360567800463
$GNHDT,182.256,T*21
$PYRTM,2024,127.250926230486,18.360573640625
$GNGGA,060120.00,3359.57294235,N,11931.14972958,W,2,11,0.9,9.260,M,-37.421,M,6.0,0131*64
$PYRTM,2024,127.250926230486,18.360573640625
$GNHDT,182.477,T*24
$PYRTM,2024,127.250931969063,18.360579379201
$GNGGA,060120.50,3359.57249626,N,11931.14970723,W,2,11,0.9,9.215,M,-37.421,M,6.4,0131*61
$PYRTM,2024,127.250931969063,18.360579379201
$GNHDT,182.292,T*29
$PYRTM,2024,127.250937807708,18.360585217847
$GNGGA,060121.00,3359.57206865,N,11931.14966290,W,2,11,0.9,9.253,M,-37.421,M,7.0,0131*6A
$PYRTM,2024,127.250937807708,18.360585217847
$GNHDT,182.434,T*23
$PYRTM,2024,127.250943539190,18.360590949329
$GNGGA,060121.50,3359.57164432,N,11931.14958065,W,2,11,0.9,9.376,M,-37.421,M,7.4,0131*61
$PYRTM,2024,127.250943539190,18.360590949329
$GNHDT,182.623,T*27
$PYRTM,2024,127.250949377292,18.360596787431
$GNGGA,060122.00,3359.57121805,N,11931.14945534,W,2,11,0.9,9.542,M,-37.421,M,7.0,0131*66
$PYRTM,2024,127.250949377292,18.360596787431
$GNHDT,182.774,T*24
$PYRTM,2024,127.250955125185,18.360602535324
$GNGGA,060122.50,3359.57078108,N,11931.14929642,W,2,11,0.9,9.717,M,-37.421,M,7.4,0131*64
$PYRTM,2024,127.250955125185,18.360602535324
$GNHDT,183.183,T*2B
$PYRTM,2024,127.250960955185,18.360608365324
$GNGGA,060123.00,3359.57033374,N,11931.14912768,W,2,11,0.9,9.842,M,-37.421,M,7.0,0131*6C
$PYRTM,2024,127.250960955185,18.360608365324
$GNHDT,183.194,T*2D
$PYRTM,2024,127.250966686285,18.360614096424
$GNGGA,060123.50,3359.56988882,N,11931.14899519,W,2,11,0.9,9.869,M,-37.421,M,7.4,0131*68
$PYRTM,2024,127.250966686285,18.360614096424
$GNHDT,182.876,T*29
$PYRTM,2024,127.250972525660,18.360619935799
$GNGGA,060124.00,3359.56943782,N,11931.14892245,W,2,11,0.9,9.746,M,-37.421,M,4.0,0131*62
$PYRTM,2024,127.250972525660,18.360619935799
$GNHDT,182.832,T*29
$PYRTM,2024,127.250978260833,18.360625670972
$GNGGA,060124.50,3359.56898465,N,11931.14891931,W,2,11,0.9,9.511,M,-37.421,M,4.4,0131*65
$PYRTM,2024,127.250978260833,18.360625670972
$GNHDT,183.103,T*23
$PYRTM,2024,127.250984103600,18.360631513738
$GNGGA,060125.00,3359.56853232,N,11931.14897881,W,2,11,0.9,9.224,M,-37.421,M,5.0,0131*6A
$PYRTM,2024,127.250984103600,18.360631513738
$GNHDT,183.447,T*26
$PYRTM,2024,127.250989844051,18.360637254190
$GNGGA,060125.50,3359.56809164,N,11931.14904887,W,2,11,0.9,8.980,M,-37.421,M,5.4,0131*6D
$PYRTM,2024,127.250989844051,18.360637254190
$GNHDT,183.412,T*26
$PYRTM,2024,127.250995673299,18.360643083437
$GNGGA,060126.00,3359.56766604,N,11931.14909961,W,2,11,0.9,8.861,M,-37.421,M,6.0,0131*61
$PYRTM,2024,127.250995673299,18.360643083437
$GNHDT,183.631,T*25
$PYRTM,2024,127.251001415220,18.360648825359
$GNGGA,060126.50,3359.56723860,N,11931.14908156,W,2,11,0.9,8.898,M,-37.421,M,6.4,0131*66
$PYRTM,2024,127.251001415220,18.360648825359
$GNHDT,183.743,T*21
$PYRTM,2024,127.251007245440,18.360654655590
$GNGGA,060127.00,3359.56680156,N,11931.14897581,W,2,11,0.9,9.098,M,-37.421,M,7.0,0131*63
$PYRTM,2024,127.251007245440,18.360654655590
$GNHDT,183.639,T*2D
$PYRTM,2024,127.251012988981,18.360660399120
$GNGGA,060127.50,3359.56635334,N,11931.14880530,W,2,11,0.9,9.356,M,-37.421,M,7.4,0131*67
$PYRTM,2024,127.251012988981,18.360660399120
$GNHDT,183.332,T*23
$PYRTM,2024,127.251018829086,18.360666239225
$GNGGA,060128.00,3359.56589260,N,11931.14860893,W,2,11,0.9,9.575,M,-37.421,M,7.0,0131*60
$PYRTM,2024,127.251018829086,18.360666239225
$GNHDT,183.225,T*24
$PYRTM,2024,127.251024562350,18.360671972488
$GNGGA,060128.50,3359.56542397,N,11931.14844765,W,2,11,0.9,9.692,M,-37.421,M,7.4,0131*65
$PYRTM,2024,127.251024562350,18.360671972488
$GNHDT,183.498,T*24
$PYRTM,2024,127.251030396030,18.360677806169
$GNGGA,060129.00,3359.56494632,N,11931.14835725,W,2,11,0.9,9.638,M,-37.421,M,7.0,0131*67
$PYRTM,2024,127.251030396030,18.360677806169
$GNHDT,183.490,T*2C
$PYRTM,2024,127.251036134560,18.360683544699
$GNGGA,060129.50,3359.56446845,N,11931.14835701,W,2,11,0.9,9.440,M,-37.421,M,7.4,0131*6C
$PYRTM,2024,127.251036134560,18.360683544699
$GNHDT,183.601,T*26
$PYRTM,2024,127.251041974977,18.360689385116
$GNGGA,060130.00,3359.56398063,N,11931.14843039,W,2,11,0.9,9.137,M,-37.421,M,4.0,0131*66
$PYRTM,2024,127.251041974977,18.360689385116
$GNHDT,183.698,T*26
$PYRTM,2024,127.251047705868,18.360695116007
$GNGGA,060130.50,3359.56348788,N,11931.14854905,W,2,11,0.9,8.806,M,-37.421,M,4.4,0131*62
$PYRTM,2024,127.251047705868,18.360695116007
$GNHDT,183.884,T*25
$PYRTM,2024,127.251053550220,18.360700960370
$GNGGA,060131.00,3359.56298610,N,11931.14866860,W,2,11,0.9,8.518,M,-37.421,M,5.0,0131*6E
$PYRTM,2024,127.251053550220,18.360700960370
$GNHDT,184.150,T*22
$PYRTM,2024,127.251059286655,18.360706696806
$GNGGA,060131.50,3359.56248914,N,11931.14872852,W,2,11,0.9,8.372,M,-37.421,M,5.4,0131*67
$PYRTM,2024,127.251059286655,18.360706696806
$GNHDT,184.236,T*21
$PYRTM,2024,127.251065120347,18.360712530486
$GNGGA,060132.00,3359.56199995,N,11931.14869822,W,2,11,0.9,8.445,M,-37.421,M,6.0,0131*6E
$PYRTM,2024,127.251065120347,18.360712530486
$GNHDT,184.225,T*23
$PYRTM,2024,127.251070858854,18.360718268993
$GNGGA,060132.50,3359.56151059,N,11931.14856961,W,2,11,0.9,8.699,M,-37.421,M,6.4,0131*6B
$PYRTM,2024,127.251070858854,18.360718268993
$GNHDT,183.933,T*28
$PYRTM,2024,127.251076697002,18.360724107141
$GNGGA,060133.00,3359.56102128,N,11931.14837789,W,2,11,0.9,9.038,M,-37.421,M,7.0,0131*68
$PYRTM,2024,127.251076697002,18.360724107141
$GNHDT,183.533,T*24
$PYRTM,2024,127.251082435127,18.360729845266
$GNGGA,060133.50,3359.56052884,N,11931.14818284,W,2,11,0.9,9.330,M,-37.421,M,7.4,0131*6C
$PYRTM,2024,127.251082435127,18.360729845266
$GNHDT,183.851,T*2D
$PYRTM,2024,127.251088271377,18.360735681516
$GNGGA,060134.00,3359.56001729,N,11931.14802616,W,2,11,0.9,9.498,M,-37.421,M,7.0,0131*65
$PYRTM,2024,127.251088271377,18.360735681516
$GNHDT,183.618,T*2E
$PYRTM,2024,127.251094002130,18.360741412269
$GNGGA,060134.50,3359.55949141,N,11931.14795006,W,2,11,0.9,9.469,M,-37.421,M,7.4,0131*62
$PYRTM,2024,127.251094002130,18.360741412269
$GNHDT,183.889,T*28
$PYRTM,2024,127.251099844780,18.360747254919
$GNGGA,060135.00,3359.55896097,N,11931.14795500,W,2,11,0.9,9.284,M,-37.421,M,7.0,0131*6D
$PYRTM,2024,127.251099844780,18.360747254919
$GNHDT,184.034,T*21
$PYRTM,2024,127.251105583449,18.360752993588
$GNGGA,060135.50,3359.55844570,N,11931.14801448,W,2,11,0.9,9.019,M,-37.421,M,7.4,0131*66
$PYRTM,2024,127.251105583449,18.360752993588
$GNHDT,183.884,T*25
$PYRTM,2024,127.251111415324,18.360758825463
$GNGGA,060136.00,3359.55795064,N,11931.14809110,W,2,11,0.9,8.804,M,-37.421,M,4.0,0131*61
$PYRTM,2024,127.251111415324,18.360758825463
$GNHDT,183.685,T*2A
$PYRTM,2024,127.251117150278,18.360764560417
$GNGGA,060136.50,3359.55747616,N,11931.14812688,W,2,11,0.9,8.718,M,-37.422,M,4.4,0131*61
$PYRTM,2024,127.251117150278,18.360764560417
$GNHDT,183.989,T*29
$PYRTM,2024,127.251122988588,18.360770398727
$GNGGA,060137.00,3359.55702590,N,11931.14809513,W,2,11,0.9,8.839,M,-37.422,M,5.0,0131*6B
$PYRTM,2024,127.251122988588,18.360770398727
$GNHDT,183.982,T*22
$PYRTM,2024,127.251128722940,18.360776133079
$GNGGA,060137.50,3359.55658375,N,11931.14800411,W,2,11,0.9,9.100,M,-37.422,M,5.4,0131*61
$PYRTM,2024,127.251128722940,18.360776133079
$GNHDT,183.836,T*2C
$PYRTM,2024,127.251134566447,18.360781976586
$GNGGA,060138.00,3359.55613354,N,11931.14786960,W,2,11,0.9,9.404,M,-37.422,M,6.0,0131*6B
$PYRTM,2024,127.251134566447,18.360781976586
$GNHDT,183.824,T*2F
$PYRTM,2024,127.251140305556,18.360787715694
$GNGGA,060138.50,3359.55566968,N,11931.14773997,W,2,11,0.9,9.661,M,-37.422,M,6.4,0131*6D
$PYRTM,2024,127.251140305556,18.360787715694
$GNHDT,183.751,T*22
$PYRTM,2024,127.251146137338,18.360793547477
$GNGGA,060139.00,3359.55519443,N,11931.14762945,W,2,11,0.9,9.788,M,-37.422,M,7.0,0131*69
$PYRTM,2024,127.251146137338,18.360793547477
$GNHDT,183.677,T*27
$PYRTM,2024,127.251151878900,18.360799289039
$GNGGA,060139.50,3359.55471168,N,11931.14755895,W,2,11,0.9,9.805,M,-37.422,M,7.4,0131*69
$PYRTM,2024,127.251151878900,18.360799289039
$GNHDT,183.913,T*2A
$PYRTM,2024,127.251157709016,18.360805119155
$GNGGA,060140.00,3359.55424299,N,11931.14752662,W,2,11,0.9,9.744,M,-37.422,M,7.0,0131*60
$PYRTM,2024,127.251157709016,18.360805119155
$GNHDT,184.022,T*26
$PYRTM,2024,127.251163447014,18.360810857153
$GNGGA,060140.50,3359.55379254,N,11931.14753462,W,2,11,0.9,9.674,M,-37.422,M,7.4,0131*6E
$PYRTM,2024,127.251163447014,18.360810857153
$GNHDT,183.820,T*2B
$PYRTM,2024,127.251169283877,18.360816694028
$GNGGA,060141.00,3359.55336744,N,11931.14757053,W,2,11,0.9,9.613,M,-37.422,M,7.0,0131*62
$PYRTM,2024,127.251169283877,18.360816694028
$GNHDT,183.791,T*2E
$PYRTM,2024,127.251175026157,18.360822436296
$GNGGA,060141.50,3359.55296388,N,11931.14760964,W,2,11,0.9,9.611,M,-37.422,M,7.4,0131*67
$PYRTM,2024,127.251175026157,18.360822436296
$GNHDT,183.690,T*2E
$PYRTM,2024,127.251180861088,18.360828271227
$GNGGA,060142.00,3359.55257030,N,11931.14764322,W,2,11,0.9,9.628,M,-37.422,M,4.0,0131*6D
$PYRTM,2024,127.251180861088,18.360828271227
$GNHDT,183.764,T*24
$PYRTM,2024,127.251186597141,18.360834007280
$GNGGA,060142.50,3359.55217122,N,11931.14765532,W,2,11,0.9,9.610,M,-37.422,M,4.4,0131*67
$PYRTM,2024,127.251186597141,18.360834007280
$GNHDT,183.729,T*2D
$PYRTM,2024,127.251192434711,18.360839844850
$GNGGA,060143.00,3359.55176246,N,11931.14764550,W,2,11,0.9,9.557,M,-37.422,M,5.0,0131*66
$PYRTM,2024,127.251192434711,18.360839844850
$GNHDT,183.785,T*2B
$PYRTM,2024,127.251198170637,18.360845580775
$GNGGA,060143.50,3359.55133889,N,11931.14760186,W,2,11,0.9,9.483,M,-37.422,M,5.4,0131*6C
$PYRTM,2024,127.251198170637,18.360845580775
$GNHDT,183.520,T*26
$PYRTM,2024,127.251204006146,18.360851416296
$GNGGA,060144.00,3359.55091468,N,11931.14752306,W,2,11,0.9,9.393,M,-37.422,M,6.0,0131*6E
$PYRTM,2024,127.251204006146,18.360851416296
$GNHDT,183.508,T*2C
$PYRTM,2024,127.251209743345,18.360857153484
$GNGGA,060144.50,3359.55047933,N,11931.14742053,W,2,11,0.9,9.329,M,-37.422,M,6.4,0131*64
$PYRTM,2024,127.251209743345,18.360857153484
$GNHDT,183.394,T*2F
$PYRTM,2024,127.251215581250,18.360862991400
$GNGGA,060145.00,3359.55004766,N,11931.14732388,W,2,11,0.9,9.258,M,-37.422,M,7.0,0131*69
$PYRTM,2024,127.251215581250,18.360862991400
$GNHDT,183.234,T*24
$PYRTM,2024,127.251221316493,18.360868726644
$GNGGA,060145.50,3359.54960621,N,11931.14726536,W,2,11,0.9,9.190,M,-37.422,M,7.4,0131*61
$PYRTM,2024,127.251221316493,18.360868726644
$GNHDT,183.223,T*22
$PYRTM,2024,127.251227155046,18.360874565185
$GNGGA,060146.00,3359.54915656,N,11931.14726981,W,2,11,0.9,9.098,M,-37.422,M,7.0,0131*68
$PYRTM,2024,127.251227155046,18.360874565185
$GNHDT,183.144,T*20
$PYRTM,2024,127.251232892928,18.360880303067
$GNGGA,060146.50,3359.54869414,N,11931.14732389,W,2,11,0.9,8.976,M,-37.422,M,7.4,0131*68
$PYRTM,2024,127.251232892928,18.360880303067
$GNHDT,183.018,T*28
$PYRTM,2024,127.251238729340,18.360886139491
$GNGGA,060147.00,3359.54821216,N,11931.14740719,W,2,11,0.9,8.842,M,-37.422,M,7.0,0131*6E
$PYRTM,2024,127.251238729340,18.360886139491
$GNHDT,182.965,T*2A
$PYRTM,2024,127.251244472060,18.360891882199
$GNGGA,060147.50,3359.54771648,N,11931.14746682,W,2,11,0.9,8.734,M,-37.422,M,7.4,0131*61
$PYRTM,2024,127.251244472060,18.360891882199
$GNHDT,182.942,T*2F
$PYRTM,2024,127.251250306181,18.360897716319
$GNGGA,060148.00,3359.54720431,N,11931.14747677,W,2,11,0.9,8.658,M,-37.422,M,4.0,0131*64
$PYRTM,2024,127.251250306181,18.360897716319
$GNHDT,182.828,T*22
$PYRTM,2024,127.251256044201,18.360903454340
$GNGGA,060148.50,3359.54668782,N,11931.14743379,W,2,11,0.9,8.628,M,-37.422,M,4.4,0131*6B
$PYRTM,2024,127.251256044201,18.360903454340
$GNHDT,182.736,T*22
$PYRTM,2024,127.251261876343,18.360909286481
$GNGGA,060149.00,3359.54616633,N,11931.14736842,W,2,11,0.9,8.615,M,-37.422,M,5.0,0131*67
$PYRTM,2024,127.251261876343,18.360909286481
$GNHDT,182.772,T*22
$PYRTM,2024,127.251267616262,18.360915026400
$GNGGA,060149.50,3359.54564868,N,11931.14729982,W,2,11,0.9,8.606,M,-37.422,M,5.4,0131*61
$PYRTM,2024,127.251267616262,18.360915026400
$GNHDT,182.804,T*2C
$PYRTM,2024,127.251273449225,18.360920859363
$GNGGA,060150.00,3359.54512463,N,11931.14724552,W,2,11,0.9,8.593,M,-37.422,M,6.0,0131*6E
$PYRTM,2024,127.251273449225,18.360920859363
$GNHDT,182.667,T*27
$PYRTM,2024,127.251279196389,18.360926606528
$GNGGA,060150.50,3359.54460075,N,11931.14719728,W,2,11,0.9,8.593,M,-37.422,M,6.4,0131*69
$PYRTM,2024,127.251279196389,18.360926606528
$GNHDT,182.561,T*22
$PYRTM,2024,127.251285025729,18.360932435880
$GNGGA,060151.00,3359.54407453,N,11931.14714975,W,2,11,0.9,8.639,M,-37.422,M,7.0,0131*61
$PYRTM,2024,127.251285025729,18.360932435880
$GNHDT,182.351,T*27
$PYRTM,2024,127.251290761030,18.360938171169
$GNGGA,060151.50,3359.54356096,N,11931.14709164,W,2,11,0.9,8.738,M,-37.422,M,7.4,0131*6A
$PYRTM,2024,127.251290761030,18.360938171169
$GNHDT,182.111,T*21
$PYRTM,2024,127.251296602049,18.360944012187
$GNGGA,060152.00,3359.54305755,N,11931.14702042,W,2,11,0.9,8.889,M,-37.422,M,7.0,0131*6D
$PYRTM,2024,127.251296602049,18.360944012187
$GNHDT,181.860,T*2D
$PYRTM,2024,127.251302335150,18.360949745289
$GNGGA,060152.50,3359.54256381,N,11931.14693842,W,2,11,0.9,9.046,M,-37.422,M,7.4,0131*6D
$PYRTM,2024,127.251302335150,18.360949745289
$GNHDT,181.713,T*26
$PYRTM,2024,127.251308173565,18.360955583704
$GNGGA,060153.00,3359.54206647,N,11931.14687212,W,2,11,0.9,9.169,M,-37.422,M,7.0,0131*61
$PYRTM,2024,127.251308173565,18.360955583704
$GNHDT,181.757,T*26
$PYRTM,2024,127.251313910498,18.360961320637
$GNGGA,060153.50,3359.54156569,N,11931.14683214,W,2,11,0.9,9.193,M,-37.422,M,7.4,0131*6E
$PYRTM,2024,127.251313910498,18.360961320637
$GNHDT,181.904,T*2E
$PYRTM,2024,127.251319750231,18.360967160370
$GNGGA,060154.00,3359.54106279,N,11931.14681837,W,2,11,0.9,9.142,M,-37.422,M,4.0,0131*6D
$PYRTM,2024,127.251319750231,18.360967160370
$GNHDT,182.088,T*20
$PYRTM,2024,127.251325485301,18.360972895440
$GNGGA,060154.50,3359.54057285,N,11931.14681037,W,2,11,0.9,9.064,M,-37.422,M,4.4,0131*67
$PYRTM,2024,127.251325485301,18.360972895440
$GNHDT,181.807,T*2C
$PYRTM,2024,127.251331320301,18.360978730440
$GNGGA,060155.00,3359.54009063,N,11931.14679818,W,2,11,0.9,9.043,M,-37.422,M,5.0,0131*60
$PYRTM,2024,127.251331320301,18.360978730440
$GNHDT,181.652,T*22
$PYRTM,2024,127.251337057905,18.360984468044
$GNGGA,060155.50,3359.53961528,N,11931.14677255,W,2,11,0.9,9.090,M,-37.422,M,5.4,0131*68
$PYRTM,2024,127.251337057905,18.360984468044
$GNHDT,182.024,T*26
$PYRTM,2024,127.251342894942,18.360990305081
$GNGGA,060156.00,3359.53913929,N,11931.14672248,W,2,11,0.9,9.233,M,-37.422,M,6.0,0131*63
$PYRTM,2024,127.251342894942,18.360990305081
$GNHDT,181.959,T*26
$PYRTM,2024,127.251348636644,18.360996046782
$GNGGA,060156.50,3359.53866888,N,11931.14665296,W,2,11,0.9,9.424,M,-37.422,M,6.4,0131*6E
$PYRTM,2024,127.251348636644,18.360996046782
$GNHDT,181.822,T*2B
$PYRTM,2024,127.251354469074,18.361001879213
$GNGGA,060157.00,3359.53819702,N,11931.14655889,W,2,11,0.9,9.649,M,-37.422,M,7.0,0131*64
$PYRTM,2024,127.251354469074,18.361001879213
$GNHDT,181.675,T*27
$PYRTM,2024,127.251360209387,18.361007619525
$GNGGA,060157.50,3359.53772974,N,11931.14645578,W,2,11,0.9,9.861,M,-37.422,M,7.4,0131*6E
$PYRTM,2024,127.251360209387,18.361007619525
$GNHDT,181.572,T*23
$PYRTM,2024,127.251366044271,18.361013454410
$GNGGA,060158.00,3359.53726189,N,11931.14635993,W,2,11,0.9,10.006,M,-37.422,M,7.0,0131*54
$PYRTM,2024,127.251366044271,18.361013454410
$GNHDT,181.248,T*2D
$PYRTM,2024,127.251371789734,18.361019199873
$GNGGA,060158.50,3359.53679323,N,11931.14630754,W,2,11,0.9,10.044,M,-37.422,M,7.4,0131*5A
$PYRTM,2024,127.251371789734,18.361019199873
$GNHDT,181.183,T*29
$PYRTM,2024,127.251377621007,18.361025031146
$GNGGA,060159.00,3359.53632277,N,11931.14631023,W,2,11,0.9,9.935,M,-37.423,M,7.0,0131*65
$PYRTM,2024,127.251377621007,18.361025031146
$GNHDT,181.148,T*2E
$PYRTM,2024,127.251383357650,18.361030767801
$GNGGA,060159.50,3359.53585776,N,11931.14635907,W,2,11,0.9,9.751,M,-37.423,M,7.4,0131*68
$PYRTM,2024,127.251383357650,18.361030767801
$GNHDT,181.050,T*26
$PYRTM,2024,127.251389198796,18.361036608935
$GNGGA,060200.00,3359.53540097,N,11931.14641367,W,2,11,0.9,9.558,M,-37.423,M,4.0,0131*60
$PYRTM,2024,127.251389198796,18.361036608935
$GNHDT,181.050,T*26
$PYRTM,2024,127.251394928866,18.361042339016
$GNGGA,060200.50,3359.53495995,N,11931.14643011,W,2,11,0.9,9.434,M,-37.423,M,4.4,0131*68
$PYRTM,2024,127.251394928866,18.361042339016
$GNHDT,180.658,T*29
$PYRTM,2024,127.251400764306,18.361048174444
$GNGGA,060201.00,3359.53452467,N,11931.14639059,W,2,11,0.9,9.411,M,-37.423,M,5.0,0131*64
$PYRTM,2024,127.251400764306,18.361048174444
$GNHDT,180.477,T*26
$PYRTM,2024,127.251406509676,18.361053919815
$GNGGA,060201.50,3359.53408388,N,11931.14628819,W,2,11,0.9,9.477,M,-37.423,M,5.4,0131*60
$PYRTM,2024,127.251406509676,18.361053919815
$GNHDT,180.781,T*2C
$PYRTM,2024,127.251412346181,18.361059756319
$GNGGA,060202.00,3359.53362928,N,11931.14613091,W,2,11,0.9,9.564,M,-37.423,M,6.0,0131*69
$PYRTM,2024,127.251412346181,18.361059756319
$GNHDT,180.671,T*22
$PYRTM,2024,127.251418076238,18.361065486377
$GNGGA,060202.50,3359.53315546,N,11931.14597007,W,2,11,0.9,9.604,M,-37.423,M,6.4,0131*69
$PYRTM,2024,127.251418076238,18.361065486377
$GNHDT,180.670,T*23
$PYRTM,2024,127.251423913669,18.361071323819
$GNGGA,060203.00,3359.53266467,N,11931.14584075,W,2,11,0.9,9.545,M,-37.423,M,7.0,0131*6E
$PYRTM,2024,127.251423913669,18.361071323819
$GNHDT,180.573,T*23
$PYRTM,2024,127.251429651227,18.361077061366
$GNGGA,060203.50,3359.53217922,N,11931.14579167,W,2,11,0.9,9.422,M,-37.423,M,7.4,0131*65
$PYRTM,2024,127.251429651227,18.361077061366
$GNHDT,180.533,T*27
$PYRTM,2024,127.251435491273,18.361082901424
$GNGGA,060204.00,3359.53169662,N,11931.14581482,W,2,11,0.9,9.243,M,-37.423,M,7.0,0131*6A
$PYRTM,2024,127.251435491273,18.361082901424
$GNHDT,180.395,T*2D
$PYRTM,2024,127.251441226562,18.361088636701
$GNGGA,060204.50,3359.53120527,N,11931.14588091,W,2,11,0.9,9.051,M,-37.423,M,7.4,0131*6A
$PYRTM,2024,127.251441226562,18.361088636701
$GNHDT,180.232,T*21
$PYRTM,2024,127.251447066053,18.361094476204
$GNGGA,060205.00,3359.53070073,N,11931.14593805,W,2,11,0.9,8.888,M,-37.423,M,7.0,0131*68
$PYRTM,2024,127.251447066053,18.361094476204
$GNHDT,180.012,T*21
$PYRTM,2024,127.251452802824,18.361100212963
$GNGGA,060205.50,3359.53018432,N,11931.14595893,W,2,11,0.9,8.792,M,-37.423,M,7.4,0131*6B
$PYRTM,2024,127.251452802824,18.361100212963
$GNHDT,180.277,T*20
$PYRTM,2024,127.251458634965,18.361106045104
$GNGGA,060206.00,3359.52965542,N,11931.14590330,W,2,11,0.9,8.772,M,-37.423,M,4.0,0131*67
$PYRTM,2024,127.251458634965,18.361106045104
$GNHDT,180.214,T*25
$PYRTM,2024,127.251464372824,18.361111782963
$GNGGA,060206.50,3359.52912481,N,11931.14578620,W,2,11,0.9,8.848,M,-37.423,M,4.4,0131*6C
$PYRTM,2024,127.251464372824,18.361111782963
$GNHDT,179.988,T*2D
$PYRTM,2024,127.251470216759,18.361117626898
$GNGGA,060207.00,3359.52859808,N,11931.14561626,W,2,11,0.9,8.966,M,-37.423,M,5.0,0131*6D
$PYRTM,2024,127.251470216759,18.361117626898
$GNHDT,179.887,T*23
$PYRTM,2024,127.251475948738,18.361123358877
$GNGGA,060207.50,3359.52808156,N,11931.14542736,W,2,11,0.9,9.113,M,-37.423,M,5.4,0131*60
$PYRTM,2024,127.251475948738,18.361123358877
$GNHDT,179.488,T*20
$PYRTM,2024,127.251481783727,18.361129193866
$GNGGA,060208.00,3359.52756565,N,11931.14525311,W,2,11,0.9,9.251,M,-37.423,M,6.0,0131*68
$PYRTM,2024,127.251481783727,18.361129193866
$GNHDT,179.306,T*21
$PYRTM,2024,127.251487521215,18.361134931366
$GNGGA,060208.50,3359.52704816,N,11931.14513249,W,2,11,0.9,9.311,M,-37.423,M,6.4,0131*6B
$PYRTM,2024,127.251487521215,18.361134931366
$GNHDT,179.268,T*28
$PYRTM,2024,127.251493362917,18.361140773056
$GNGGA,060209.00,3359.52652054,N,11931.14507983,W,2,11,0.9,9.239,M,-37.423,M,7.0,0131*65
$PYRTM,2024,127.251493362917,18.361140773056
$GNHDT,179.224,T*20
$PYRTM,2024,127.251499098831,18.361146508981
$GNGGA,060209.50,3359.52598819,N,11931.14508354,W,2,11,0.9,9.096,M,-37.423,M,7.4,0131*68
$PYRTM,2024,127.251499098831,18.361146508981
$GNHDT,179.126,T*21
$PYRTM,2024,127.251504938310,18.361152348449
$GNGGA,060210.00,3359.52546129,N,11931.14510441,W,2,11,0.9,8.940,M,-37.423,M,7.0,0131*61
$PYRTM,2024,127.251504938310,18.361152348449
$GNHDT,178.859,T*21
$PYRTM,2024,127.251510671493,18.361158081632
$GNGGA,060210.50,3359.52494543,N,11931.14510033,W,2,11,0.9,8.798,M,-37.423,M,7.4,0131*6C
$PYRTM,2024,127.251510671493,18.361158081632
$GNHDT,178.945,T*2D
$PYRTM,2024,127.251516507894,18.361163918032
$GNGGA,060211.00,3359.52444719,N,11931.14506045,W,2,11,0.9,8.726,M,-37.423,M,7.0,0131*6F
$PYRTM,2024,127.251516507894,18.361163918032
$GNHDT,178.811,T*2D
$PYRTM,2024,127.251522243125,18.361169653275
$GNGGA,060211.50,3359.52395697,N,11931.14497521,W,2,11,0.9,8.759,M,-37.423,M,7.4,0131*64
$PYRTM,2024,127.251522243125,18.361169653275
$GNHDT,178.777,T*22
$PYRTM,2024,127.251528081447,18.361175491586
$GNGGA,060212.00,3359.52347648,N,11931.14485240,W,2,11,0.9,8.883,M,-37.423,M,4.0,0131*63
$PYRTM,2024,127.251528081447,18.361175491586
$GNHDT,178.836,T*28
$PYRTM,2024,127.251533823542,18.361181233681
$GNGGA,060212.50,3359.52300987,N,11931.14469564,W,2,11,0.9,9.079,M,-37.423,M,4.4,0131*62
$PYRTM,2024,127.251533823542,18.361181233681
$GNHDT,178.816,T*2A
$PYRTM,2024,127.251539655451,18.361187065590
$GNGGA,060213.00,3359.52254793,N,11931.14450595,W,2,11,0.9,9.327,M,-37.423,M,5.0,0131*64
$PYRTM,2024,127.251539655451,18.361187065590
$GNHDT,178.449,T*2C
$PYRTM,2024,127.251545404769,18.361192814907
$GNGGA,060213.50,3359.52209120,N,11931.14432225,W,2,11,0.9,9.587,M,-37.423,M,5.4,0131*67
$PYRTM,2024,127.251545404769,18.361192814907
$GNHDT,178.252,T*20
$PYRTM,2024,127.251551228287,18.361198638438
$GNGGA,060214.00,3359.52163596,N,11931.14418114,W,2,11,0.9,9.761,M,-37.423,M,6.0,0131*67
$PYRTM,2024,127.251551228287,18.361198638438
$GNHDT,178.060,T*23
$PYRTM,2024,127.251556969514,18.361204379664
$GNGGA,060214.50,3359.52117576,N,11931.14410908,W,2,11,0.9,9.814,M,-37.423,M,6.4,0131*6B
$PYRTM,2024,127.251556969514,18.361204379664
$GNHDT,178.121,T*27
$PYRTM,2024,127.251562803495,18.361210213634
$GNGGA,060215.00,3359.52070842,N,11931.14410914,W,2,11,0.9,9.694,M,-37.424,M,7.0,0131*6C
$PYRTM,2024,127.251562803495,18.361210213634
$GNHDT,178.048,T*29
$PYRTM,2024,127.251568549433,18.361215959572
$GNGGA,060215.50,3359.52024659,N,11931.14414699,W,2,11,0.9,9.511,M,-37.424,M,7.4,0131*68
$PYRTM,2024,127.251568549433,18.361215959572
$GNHDT,178.045,T*24
$PYRTM,2024,127.251574381134,18.361221791273
$GNGGA,060216.00,3359.51980279,N,11931.14418407,W,2,11,0.9,9.336,M,-37.424,M,7.0,0131*62
$PYRTM,2024,127.251574381134,18.361221791273
$GNHDT,177.929,T*28
$PYRTM,2024,127.251580113727,18.361227523866
$GNGGA,060216.50,3359.51937454,N,11931.14418263,W,2,11,0.9,9.238,M,-37.424,M,7.4,0131*6D
$PYRTM,2024,127.251580113727,18.361227523866
$GNHDT,177.658,T*21
$PYRTM,2024,127.251585949942,18.361233360081
$GNGGA,060217.00,3359.51895477,N,11931.14410502,W,2,11,0.9,9.267,M,-37.424,M,7.0,0131*67
$PYRTM,2024,127.251585949942,18.361233360081
$GNHDT,177.495,T*22
$PYRTM,2024,127.251591697882,18.361239108021
$GNGGA,060217.50,3359.51852609,N,11931.14395273,W,2,11,0.9,9.378,M,-37.424,M,7.4,0131*62
$PYRTM,2024,127.251591697882,18.361239108021
$GNHDT,177.398,T*28
$PYRTM,2024,127.251597524907,18.361244935046
$GNGGA,060218.00,3359.51808432,N,11931.14375210,W,2,11,0.9,9.502,M,-37.424,M,4.0,0131*6A
$PYRTM,2024,127.251597524907,18.361244935046
$GNHDT,177.358,T*24
$PYRTM,2024,127.251603261748,18.361250671887
$GNGGA,060218.50,3359.51762803,N,11931.14354840,W,2,11,0.9,9.596,M,-37.424,M,4.4,0131*67
$PYRTM,2024,127.251603261748,18.361250671887
$GNHDT,177.349,T*24
$PYRTM,2024,127.251609103171,18.361256513310
$GNGGA,060219.00,3359.51715302,N,11931.14339591,W,2,11,0.9,9.585,M,-37.424,M,5.0,0131*64
$PYRTM,2024,127.251609103171,18.361256513310
$GNHDT,177.289,T*29
$PYRTM,2024,127.251614847616,18.361262257755
$GNGGA,060219.50,3359.51668011,N,11931.14332014,W,2,11,0.9,9.496,M,-37.424,M,5.4,0131*6F
$PYRTM,2024,127.251614847616,18.361262257755
$GNHDT,177.000,T*2A
$PYRTM,2024,127.251620678808,18.361268088947
$GNGGA,060220.00,3359.51621098,N,11931.14331364,W,2,11,0.9,9.345,M,-37.424,M,6.0,0131*65
$PYRTM,2024,127.251620678808,18.361268088947
$GNHDT,176.880,T*2B
$PYRTM,2024,127.251626418183,18.361273828322
$GNGGA,060220.50,3359.51573657,N,11931.14332157,W,2,11,0.9,9.184,M,-37.424,M,6.4,0131*6B
$PYRTM,2024,127.251626418183,18.361273828322
$GNHDT,176.710,T*2D
$PYRTM,2024,127.251632248102,18.361279658241
$GNGGA,060221.00,3359.51525791,N,11931.14331010,W,2,11,0.9,9.049,M,-37.424,M,7.0,0131*63
$PYRTM,2024,127.251632248102,18.361279658241
$GNHDT,176.497,T*21
$PYRTM,2024,127.251637983785,18.361285393935
$GNGGA,060221.50,3359.51476822,N,11931.14325444,W,2,11,0.9,8.947,M,-37.424,M,7.4,0131*64
$PYRTM,2024,127.251637983785,18.361285393935
$GNHDT,176.638,T*26
$PYRTM,2024,127.251643821458,18.361291231597
$GNGGA,060222.00,3359.51426757,N,11931.14314032,W,2,11,0.9,8.862,M,-37.424,M,7.0,0131*6F
$PYRTM,2024,127.251643821458,18.361291231597
$GNHDT,176.646,T*2F
$PYRTM,2024,127.251649558877,18.361296969016
$GNGGA,060222.50,3359.51376043,N,11931.14296670,W,2,11,0.9,8.809,M,-37.424,M,7.4,0131*68
$PYRTM,2024,127.251649558877,18.361296969016
$GNHDT,176.472,T*2A
$PYRTM,2024,127.251655396609,18.361302806748
$GNGGA,060223.00,3359.51325500,N,11931.14276388,W,2,11,0.9,8.776,M,-37.424,M,7.0,0131*67
$PYRTM,2024,127.251655396609,18.361302806748
$GNHDT,176.541,T*2B
$PYRTM,2024,127.251661133380,18.361308543530
$GNGGA,060223.50,3359.51274644,N,11931.14256440,W,2,11,0.9,8.740,M,-37.424,M,7.4,0131*64
$PYRTM,2024,127.251661133380,18.361308543530
$GNHDT,176.365,T*2B
$PYRTM,2024,127.251666972442,18.361314382581
$GNGGA,060224.00,3359.51223079,N,11931.14240342,W,2,11,0.9,8.694,M,-37.424,M,4.0,0131*61
$PYRTM,2024,127.251666972442,18.361314382581
$GNHDT,176.289,T*28
$PYRTM,2024,127.251672706991,18.361320117130
$GNGGA,060224.50,3359.51170250,N,11931.14228828,W,2,11,0.9,8.635,M,-37.424,M,4.4,0131*6E
$PYRTM,2024,127.251672706991,18.361320117130
$GNHDT,176.093,T*21
$PYRTM,2024,127.251678543530,18.361325953669
$GNGGA,060225.00,3359.51116396,N,11931.14220695,W,2,11,0.9,8.586,M,-37.424,M,5.0,0131*6F
$PYRTM,2024,127.251678543530,18.361325953669
$GNHDT,175.948,T*2D
$PYRTM,2024,127.251684285972,18.361331696111
$GNGGA,060225.50,3359.51062601,N,11931.14212801,W,2,11,0.9,8.584,M,-37.424,M,5.4,0131*67
$PYRTM,2024,127.251684285972,18.361331696111
$GNHDT,175.662,T*2A
$PYRTM,2024,127.251690122998,18.361337533148
$GNGGA,060226.00,3359.51009542,N,11931.14202249,W,2,11,0.9,8.654,M,-37.424,M,6.0,0131*66
$PYRTM,2024,127.251690122998,18.361337533148
$GNHDT,175.488,T*2C
$PYRTM,2024,127.251695853935,18.361343264074
$GNGGA,060226.50,3359.50957759,N,11931.14189304,W,2,11,0.9,8.765,M,-37.424,M,6.4,0131*67
$PYRTM,2024,127.251695853935,18.361343264074
$GNHDT,175.518,T*24
$PYRTM,2024,127.251701692199,18.361349102338
$GNGGA,060227.00,3359.50906345,N,11931.14175174,W,2,11,0.9,8.877,M,-37.424,M,7.0,0131*61
$PYRTM,2024,127.251701692199,18.361349102338
$GNHDT,175.567,T*2C
$PYRTM,2024,127.251707429051,18.361354839190
$GNGGA,060227.50,3359.50855193,N,11931.14162843,W,2,11,0.9,8.941,M,-37.424,M,7.4,0131*61
$PYRTM,2024,127.251707429051,18.361354839190
$GNHDT,175.493,T*26
$PYRTM,2024,127.251713270532,18.361360680671
$GNGGA,060228.00,3359.50803849,N,11931.14151932,W,2,11,0.9,8.962,M,-37.424,M,7.0,0131*64
$PYRTM,2024,127.251713270532,18.361360680671
$GNHDT,175.422,T*2C
$PYRTM,2024,127.251719010706,18.361366420845
$GNGGA,060228.50,3359.50753082,N,11931.14141246,W,2,11,0.9,8.964,M,-37.424,M,7.4,0131*6F
$PYRTM,2024,127.251719010706,18.361366420845
