$PYRTM,2024,127.500000008437,18.609647418576
$GNGGA,120000.00,3327.13667244,N,11904.21879272,W,2,13,0.8,7.342,M,-37.743,M,4.0,0131*65
$PYRTM,2024,127.500000008437,18.609647418576
$GNHDT,120.804,T*24
$PYRTM,2024,127.500005743704,18.609653153843
$GNGGA,120000.50,3327.13637822,N,11904.21847157,W,2,13,0.8,7.272,M,-37.743,M,4.4,0131*60
$PYRTM,2024,127.500005743704,18.609653153843
$GNHDT,120.558,T*20
$PYRTM,2024,127.500011586713,18.609658996852
$GNGGA,120001.00,3327.13604211,N,11904.21817708,W,2,13,0.8,7.144,M,-37.743,M,5.0,0131*64
$PYRTM,2024,127.500011586713,18.609658996852
$GNHDT,120.475,T*2E
$PYRTM,2024,127.500017319456,18.609664729595
$GNGGA,120001.50,3327.13568414,N,11904.21789474,W,2,13,0.8,6.981,M,-37.743,M,5.4,0131*6F
$PYRTM,2024,127.500017319456,18.609664729595
$GNHDT,120.475,T*2E
$PYRTM,2024,127.500023158692,18.609670568831
$GNGGA,120002.00,3327.13532437,N,11904.21759087,W,2,13,0.8,6.821,M,-37.743,M,6.0,0131*6E
$PYRTM,2024,127.500023158692,18.609670568831
$GNHDT,120.557,T*2F
$PYRTM,2024,127.500028895556,18.609676305694
$GNGGA,120002.50,3327.13501363,N,11904.21726035,W,2,13,0.8,6.729,M,-37.743,M,6.4,0131*6F
$PYRTM,2024,127.500028895556,18.609676305694
$GNHDT,120.969,T*2E
$PYRTM,2024,127.500034730764,18.609682140914
$GNGGA,120003.00,3327.13474715,N,11904.21687660,W,2,13,0.8,6.758,M,-37.743,M,7.0,0131*62
$PYRTM,2024,127.500034730764,18.609682140914
$GNHDT,121.261,T*2C
$PYRTM,2024,127.500040467581,18.609687877720
$GNGGA,120003.50,3327.13455242,N,11904.21644894,W,2,13,0.8,6.917,M,-37.743,M,7.4,0131*68
$PYRTM,2024,127.500040467581,18.609687877720
$GNHDT,121.191,T*20
$PYRTM,2024,127.500046308472,18.609693718623
$GNGGA,120004.00,3327.13440780,N,11904.21600208,W,2,13,0.8,7.183,M,-37.743,M,7.0,0131*6A
$PYRTM,2024,127.500046308472,18.609693718623
$GNHDT,121.303,T*29
$PYRTM,2024,127.500052044086,18.609699454225
$GNGGA,120004.50,3327.13426378,N,11904.21555288,W,2,13,0.8,7.448,M,-37.743,M,7.4,0131*61
$PYRTM,2024,127.500052044086,18.609699454225
$GNHDT,121.550,T*29
$PYRTM,2024,127.500057882465,18.609705292604
$GNGGA,120005.00,3327.13407592,N,11904.21511343,W,2,13,0.8,7.634,M,-37.743,M,7.0,0131*6F
$PYRTM,2024,127.500057882465,18.609705292604
$GNHDT,121.449,T*20
$PYRTM,2024,127.500063611736,18.609711021875
$GNGGA,120005.50,3327.13381478,N,11904.21470577,W,2,13,0.8,7.683,M,-37.743,M,7.4,0131*69
$PYRTM,2024,127.500063611736,18.609711021875
$GNHDT,121.234,T*2C
$PYRTM,2024,127.500069457188,18.609716867326
$GNGGA,120006.00,3327.13348749,N,11904.21433052,W,2,13,0.8,7.583,M,-37.743,M,4.0,0131*6A
$PYRTM,2024,127.500069457188,18.609716867326
$GNHDT,121.064,T*2B
$PYRTM,2024,127.500075194167,18.609722604306
$GNGGA,120006.50,3327.13313377,N,11904.21399131,W,2,13,0.8,7.373,M,-37.743,M,4.4,0131*66
$PYRTM,2024,127.500075194167,18.609722604306
$GNHDT,120.975,T*23
$PYRTM,2024,127.500081030359,18.609728440498
$GNGGA,120007.00,3327.13277625,N,11904.21367322,W,2,13,0.8,7.113,M,-37.743,M,5.0,0131*63
$PYRTM,2024,127.500081030359,18.609728440498
$GNHDT,120.759,T*23
$PYRTM,2024,127.500086761447,18.609734171597
$GNGGA,120007.50,3327.13244823,N,11904.21335240,W,2,13,0.8,6.907,M,-37.743,M,5.4,0131*64
$PYRTM,2024,127.500086761447,18.609734171597
$GNHDT,120.735,T*29
$PYRTM,2024,127.500092600567,18.609740010706
$GNGGA,120008.00,3327.13216486,N,11904.21301258,W,2,13,0.8,6.777,M,-37.743,M,6.0,0131*6A
$PYRTM,2024,127.500092600567,18.609740010706
$GNHDT,121.041,T*2C
$PYRTM,2024,127.500098337882,18.609745748021
$GNGGA,120008.50,3327.13193547,N,11904.21262253,W,2,13,0.8,6.763,M,-37.743,M,6.4,0131*63
$PYRTM,2024,127.500098337882,18.609745748021
$GNHDT,121.236,T*2E
$PYRTM,2024,127.500104180069,18.609751590208
$GNGGA,120009.00,3327.13175061,N,11904.21221264,W,2,13,0.8,6.839,M,-37.743,M,7.0,0131*68
$PYRTM,2024,127.500104180069,18.609751590208
$GNHDT,121.391,T*22
$PYRTM,2024,127.500109908299,18.609757318437
$GNGGA,120009.50,3327.13158525,N,11904.21175860,W,2,13,0.8,7.010,M,-37.743,M,7.4,0131*6D
$PYRTM,2024,127.500109908299,18.609757318437
$GNHDT,121.240,T*2F
$PYRTM,2024,127.500115748750,18.609763158889
$GNGGA,120010.00,3327.13139833,N,11904.21128861,W,2,13,0.8,7.209,M,-37.743,M,7.0,0131*6A
$PYRTM,2024,127.500115748750,18.609763158889
$GNHDT,120.887,T*2F
$PYRTM,2024,127.500121487789,18.609768897928
$GNGGA,120010.50,3327.13115708,N,11904.21087167,W,2,13,0.8,7.344,M,-37.743,M,7.4,0131*61
$PYRTM,2024,127.500121487789,18.609768897928
$GNHDT,120.767,T*2E
$PYRTM,2024,127.500127326343,18.609774736481
$GNGGA,120011.00,3327.13083971,N,11904.21050199,W,2,13,0.8,7.391,M,-37.743,M,7.0,0131*6C
$PYRTM,2024,127.500127326343,18.609774736481
$GNHDT,120.666,T*2E
$PYRTM,2024,127.500133057928,18.609780468067
$GNGGA,120011.50,3327.13046893,N,11904.21018648,W,2,13,0.8,7.332,M,-37.743,M,7.4,0131*67
$PYRTM,2024,127.500133057928,18.609780468067
$GNHDT,120.755,T*2F
$PYRTM,2024,127.500138901840,18.609786311979
$GNGGA,120012.00,3327.13007554,N,11904.20989614,W,2,13,0.8,7.220,M,-37.743,M,4.0,0131*6E
$PYRTM,2024,127.500138901840,18.609786311979
$GNHDT,120.954,T*20
$PYRTM,2024,127.500144635023,18.609792045162
$GNGGA,120012.50,3327.12969722,N,11904.20959573,W,2,13,0.8,7.108,M,-37.743,M,4.4,0131*6A
$PYRTM,2024,127.500144635023,18.609792045162
$GNHDT,121.460,T*2B
$PYRTM,2024,127.500150474398,18.609797884549
$GNGGA,120013.00,3327.12935863,N,11904.20926249,W,2,13,0.8,7.030,M,-37.743,M,5.0,0131*64
$PYRTM,2024,127.500150474398,18.609797884549
$GNHDT,121.515,T*28
$PYRTM,2024,127.500156204826,18.609803614965
$GNGGA,120013.50,3327.12907784,N,11904.20887430,W,2,13,0.8,7.030,M,-37.743,M,5.4,0131*60
$PYRTM,2024,127.500156204826,18.609803614965
$GNHDT,121.228,T*21
$PYRTM,2024,127.500162050891,18.609809461042
$GNGGA,120014.00,3327.12886050,N,11904.20844474,W,2,13,0.8,7.102,M,-37.743,M,6.0,0131*6C
$PYRTM,2024,127.500162050891,18.609809461042
$GNHDT,121.140,T*2C
$PYRTM,2024,127.500167788356,18.609815198507
$GNGGA,120014.50,3327.12868337,N,11904.20798865,W,2,13,0.8,7.237,M,-37.743,M,6.4,0131*68
$PYRTM,2024,127.500167788356,18.609815198507
$GNHDT,120.795,T*23
$PYRTM,2024,127.500173623403,18.609821033553
$GNGGA,120015.00,3327.12851588,N,11904.20754596,W,2,13,0.8,7.356,M,-37.743,M,7.0,0131*66
$PYRTM,2024,127.500173623403,18.609821033553
$GNHDT,120.891,T*28
$PYRTM,2024,127.500179356794,18.609826766944
$GNGGA,120015.50,3327.12832612,N,11904.20713232,W,2,13,0.8,7.419,M,-37.743,M,7.4,0131*64
$PYRTM,2024,127.500179356794,18.609826766944
$GNHDT,121.112,T*2B
$PYRTM,2024,127.500185196539,18.609832606678
$GNGGA,120016.00,3327.12808368,N,11904.20675109,W,2,13,0.8,7.399,M,-37.743,M,7.0,0131*62
$PYRTM,2024,127.500185196539,18.609832606678
$GNHDT,121.149,T*25
$PYRTM,2024,127.500190931030,18.609838341169
$GNGGA,120016.50,3327.12778451,N,11904.20639746,W,2,13,0.8,7.289,M,-37.743,M,7.4,0131*63
$PYRTM,2024,127.500190931030,18.609838341169
$GNHDT,121.049,T*24
$PYRTM,2024,127.500196771505,18.609844181644
$GNGGA,120017.00,3327.12745744,N,11904.20606755,W,2,13,0.8,7.171,M,-37.743,M,7.0,0131*60
$PYRTM,2024,127.500196771505,18.609844181644
$GNHDT,121.059,T*25
$PYRTM,2024,127.500202502280,18.609849912419
$GNGGA,120017.50,3327.12714362,N,11904.20574591,W,2,13,0.8,7.097,M,-37.743,M,7.4,0131*60
$PYRTM,2024,127.500202502280,18.609849912419
$GNHDT,121.081,T*20
$PYRTM,2024,127.500208345949,18.609855756088
$GNGGA,120018.00,3327.12686405,N,11904.20542003,W,2,13,0.8,7.112,M,-37.743,M,4.0,0131*66
$PYRTM,2024,127.500208345949,18.609855756088
$GNHDT,121.263,T*2E
$PYRTM,2024,127.500214080208,18.609861490347
$GNGGA,120018.50,3327.12662495,N,11904.20507096,W,2,13,0.8,7.190,M,-37.743,M,4.4,0131*63
$PYRTM,2024,127.500214080208,18.609861490347
$GNHDT,121.571,T*2A
$PYRTM,2024,127.500219923102,18.609867333252
$GNGGA,120019.00,3327.12641065,N,11904.20467309,W,2,13,0.8,7.286,M,-37.743,M,5.0,0131*6E
$PYRTM,2024,127.500219923102,18.609867333252
$GNHDT,121.593,T*26
$PYRTM,2024,127.500225654039,18.609873064178
$GNGGA,120019.50,3327.12620573,N,11904.20423598,W,2,13,0.8,7.340,M,-37.743,M,5.4,0131*6F
$PYRTM,2024,127.500225654039,18.609873064178
$GNHDT,121.395,T*26
$PYRTM,2024,127.500231491065,18.609878901204
$GNGGA,120020.00,3327.12598904,N,11904.20378128,W,2,13,0.8,7.333,M,-37.743,M,6.0,0131*69
$PYRTM,2024,127.500231491065,18.609878901204
$GNHDT,121.091,T*21
$PYRTM,2024,127.500237229120,18.609884639259
$GNGGA,120020.50,3327.12575308,N,11904.20333396,W,2,13,0.8,7.241,M,-37.743,M,6.4,0131*61
$PYRTM,2024,127.500237229120,18.609884639259
$GNHDT,120.909,T*28
$PYRTM,2024,127.500243065694,18.609890475833
$GNGGA,120021.00,3327.12549700,N,11904.20291042,W,2,13,0.8,7.127,M,-37.743,M,7.0,0131*63
$PYRTM,2024,127.500243065694,18.609890475833
$GNHDT,120.825,T*27
$PYRTM,2024,127.500248800185,18.609896210324
$GNGGA,120021.50,3327.12523285,N,11904.20251897,W,2,13,0.8,7.059,M,-37.743,M,7.4,0131*62
$PYRTM,2024,127.500248800185,18.609896210324
$GNHDT,120.815,T*24
$PYRTM,2024,127.500254640127,18.609902050266
$GNGGA,120022.00,3327.12497007,N,11904.20216972,W,2,13,0.8,7.084,M,-37.743,M,7.0,0131*6F
$PYRTM,2024,127.500254640127,18.609902050266
$GNHDT,121.274,T*28
$PYRTM,2024,127.500260372512,18.609907782662
$GNGGA,120022.50,3327.12471041,N,11904.20184332,W,2,13,0.8,7.168,M,-37.743,M,7.4,0131*61
$PYRTM,2024,127.500260372512,18.609907782662
$GNHDT,121.299,T*2B
$PYRTM,2024,127.500266215324,18.609913625463
$GNGGA,120023.00,3327.12443619,N,11904.20154013,W,2,13,0.8,7.254,M,-37.743,M,7.0,0131*6A
$PYRTM,2024,127.500266215324,18.609913625463
$GNHDT,121.898,T*20
$PYRTM,2024,127.500271951447,18.609919361586
$GNGGA,120023.50,3327.12413955,N,11904.20123995,W,2,13,0.8,7.289,M,-37.743,M,7.4,0131*6E
$PYRTM,2024,127.500271951447,18.609919361586
$GNHDT,121.521,T*2F
$PYRTM,2024,127.500277786435,18.609925196574
$GNGGA,120024.00,3327.12381562,N,11904.20092437,W,2,13,0.8,7.201,M,-37.743,M,4.0,0131*61
$PYRTM,2024,127.500277786435,18.609925196574
$GNHDT,121.402,T*2F
$PYRTM,2024,127.500283521030,18.609930931169
$GNGGA,120024.50,3327.12349883,N,11904.20057450,W,2,13,0.8,7.019,M,-37.743,M,4.4,0131*65
$PYRTM,2024,127.500283521030,18.609930931169
$GNHDT,121.279,T*25
$PYRTM,2024,127.500289361134,18.609936771273
$GNGGA,120025.00,3327.12320194,N,11904.20018987,W,2,13,0.8,6.802,M,-37.743,M,5.0,0131*6B
$PYRTM,2024,127.500289361134,18.609936771273
$GNHDT,121.209,T*22
$PYRTM,2024,127.500295099641,18.609942509780
$GNGGA,120025.50,3327.12293707,N,11904.19977228,W,2,13,0.8,6.659,M,-37.743,M,5.4,0131*6B
$PYRTM,2024,127.500295099641,18.609942509780
$GNHDT,121.070,T*2E
$PYRTM,2024,127.500300938137,18.609948348275
$GNGGA,120026.00,3327.12269549,N,11904.19934550,W,2,13,0.8,6.633,M,-37.743,M,6.0,0131*64
$PYRTM,2024,127.500300938137,18.609948348275
$GNHDT,121.166,T*28
$PYRTM,2024,127.500306669641,18.609954079780
$GNGGA,120026.50,3327.12245797,N,11904.19894259,W,2,13,0.8,6.741,M,-37.743,M,6.4,0131*6B
$PYRTM,2024,127.500306669641,18.609954079780
$GNHDT,121.465,T*2E
$PYRTM,2024,127.500312510961,18.609959921100
$GNGGA,120027.00,3327.12218883,N,11904.19857733,W,2,13,0.8,6.944,M,-37.743,M,7.0,0131*65
$PYRTM,2024,127.500312510961,18.609959921100
$GNHDT,121.574,T*2F
$PYRTM,2024,127.500318246667,18.609965656817
$GNGGA,120027.50,3327.12188125,N,11904.19823374,W,2,13,0.8,7.144,M,-37.743,M,7.4,0131*66
$PYRTM,2024,127.500318246667,18.609965656817
$GNHDT,121.661,T*28
$PYRTM,2024,127.500324089016,18.609971499155
$GNGGA,120028.00,3327.12154101,N,11904.19789051,W,2,13,0.8,7.330,M,-37.743,M,7.0,0131*65
$PYRTM,2024,127.500324089016,18.609971499155
$GNHDT,121.564,T*2E
$PYRTM,2024,127.500329817141,18.609977227292
$GNGGA,120028.50,3327.12119801,N,11904.19752936,W,2,13,0.8,7.445,M,-37.743,M,7.4,0131*6F
$PYRTM,2024,127.500329817141,18.609977227292
$GNHDT,121.912,T*23
$PYRTM,2024,127.500335657755,18.609983067894
$GNGGA,120029.00,3327.12087217,N,11904.19713446,W,2,13,0.8,7.483,M,-37.743,M,7.0,0131*61
$PYRTM,2024,127.500335657755,18.609983067894
$GNHDT,121.929,T*2B
$PYRTM,2024,127.500341395984,18.609988806123
$GNGGA,120029.50,3327.12057078,N,11904.19671394,W,2,13,0.8,7.466,M,-37.743,M,7.4,0131*60
$PYRTM,2024,127.500341395984,18.609988806123
$GNHDT,121.709,T*27
$PYRTM,2024,127.500347235637,18.609994645775
$GNGGA,120030.00,3327.12029973,N,11904.19627819,W,2,13,0.8,7.393,M,-37.743,M,4.0,0131*61
$PYRTM,2024,127.500347235637,18.609994645775
$GNHDT,121.482,T*27
$PYRTM,2024,127.500352968275,18.610000378414
$GNGGA,120030.50,3327.12005736,N,11904.19584160,W,2,13,0.8,7.307,M,-37.743,M,4.4,0131*61
$PYRTM,2024,127.500352968275,18.610000378414
$GNHDT,121.740,T*2A
$PYRTM,2024,127.500358807269,18.610006217407
$GNGGA,120031.00,3327.11983998,N,11904.19542506,W,2,13,0.8,7.211,M,-37.743,M,5.0,0131*66
$PYRTM,2024,127.500358807269,18.610006217407
$GNHDT,121.518,T*25
$PYRTM,2024,127.500364542975,18.610011953125
$GNGGA,120031.50,3327.11962576,N,11904.19504406,W,2,13,0.8,7.128,M,-37.743,M,5.4,0131*6E
$PYRTM,2024,127.500364542975,18.610011953125
$GNHDT,121.597,T*22
$PYRTM,2024,127.500370379931,18.610017790069
$GNGGA,120032.00,3327.11938079,N,11904.19472416,W,2,13,0.8,7.062,M,-37.743,M,6.0,0131*64
$PYRTM,2024,127.500370379931,18.610017790069
$GNHDT,121.828,T*2B
$PYRTM,2024,127.500376118542,18.610023528681
$GNGGA,120032.50,3327.11909903,N,11904.19445544,W,2,13,0.8,6.999,M,-37.743,M,6.4,0131*6D
$PYRTM,2024,127.500376118542,18.610023528681
$GNHDT,121.787,T*21
$PYRTM,2024,127.500381955185,18.610029365324
$GNGGA,120033.00,3327.11879326,N,11904.19421572,W,2,13,0.8,6.961,M,-37.743,M,7.0,0131*67
$PYRTM,2024,127.500381955185,18.610029365324
$GNHDT,121.656,T*2C
$PYRTM,2024,127.500387692604,18.610035102743
$GNGGA,120033.50,3327.11848808,N,11904.19395556,W,2,13,0.8,6.973,M,-37.743,M,7.4,0131*6E
$PYRTM,2024,127.500387692604,18.610035102743
$GNHDT,121.898,T*20
$PYRTM,2024,127.500393535972,18.610040946111
$GNGGA,120034.00,3327.11821597,N,11904.19365058,W,2,13,0.8,7.044,M,-37.743,M,7.0,0131*64
$PYRTM,2024,127.500393535972,18.610040946111
$GNHDT,121.705,T*2B
$PYRTM,2024,127.500399266412,18.610046676551
$GNGGA,120034.50,3327.11798973,N,11904.19329100,W,2,13,0.8,7.140,M,-37.743,M,7.4,0131*6F
$PYRTM,2024,127.500399266412,18.610046676551
$GNHDT,121.348,T*26
$PYRTM,2024,127.500405107743,18.610052517894
$GNGGA,120035.00,3327.11781360,N,11904.19288694,W,2,13,0.8,7.293,M,-37.743,M,7.0,0131*62
$PYRTM,2024,127.500405107743,18.610052517894
$GNHDT,120.898,T*21
$PYRTM,2024,127.500410839618,18.610058249757
$GNGGA,120035.50,3327.11764987,N,11904.19246138,W,2,13,0.8,7.402,M,-37.743,M,7.4,0131*66
$PYRTM,2024,127.500410839618,18.610058249757
$GNHDT,121.052,T*2E
$PYRTM,2024,127.500416680602,18.610064090741
$GNGGA,120036.00,3327.11746789,N,11904.19205233,W,2,13,0.8,7.439,M,-37.743,M,4.0,0131*60
$PYRTM,2024,127.500416680602,18.610064090741
$GNHDT,120.992,T*2A
$PYRTM,2024,127.500422411088,18.610069821238
$GNGGA,120036.50,3327.11724085,N,11904.19167188,W,2,13,0.8,7.401,M,-37.743,M,4.4,0131*61
$PYRTM,2024,127.500422411088,18.610069821238
$GNHDT,120.760,T*29
$PYRTM,2024,127.500428253472,18.610075663611
$GNGGA,120037.00,3327.11695235,N,11904.19132948,W,2,13,0.8,7.293,M,-37.743,M,5.0,0131*6B
$PYRTM,2024,127.500428253472,18.610075663611
$GNHDT,121.080,T*21
$PYRTM,2024,127.500433991887,18.610081402025
$GNGGA,120037.50,3327.11661639,N,11904.19101656,W,2,13,0.8,7.171,M,-37.743,M,5.4,0131*66
$PYRTM,2024,127.500433991887,18.610081402025
$GNHDT,121.565,T*2F
$PYRTM,2024,127.500439831748,18.610087241887
$GNGGA,120038.00,3327.11625360,N,11904.19071730,W,2,13,0.8,7.074,M,-37.743,M,6.0,0131*61
$PYRTM,2024,127.500439831748,18.610087241887
$GNHDT,121.922,T*20
$PYRTM,2024,127.500445559699,18.610092969838
$GNGGA,120038.50,3327.11591351,N,11904.19039509,W,2,13,0.8,7.072,M,-37.743,M,6.4,0131*6C
$PYRTM,2024,127.500445559699,18.610092969838
$GNHDT,122.761,T*2A
$PYRTM,2024,127.500451401019,18.610098811157
$GNGGA,120039.00,3327.11561549,N,11904.19003294,W,2,13,0.8,7.151,M,-37.743,M,7.0,0131*67
$PYRTM,2024,127.500451401019,18.610098811157
$GNHDT,122.887,T*2D
$PYRTM,2024,127.500457136921,18.610104547060
$GNGGA,120039.50,3327.11536511,N,11904.18962996,W,2,13,0.8,7.300,M,-37.743,M,7.4,0131*69
$PYRTM,2024,127.500457136921,18.610104547060
$GNHDT,122.600,T*2C
$PYRTM,2024,127.500462973437,18.610110383588
$GNGGA,120040.00,3327.11515191,N,11904.18918266,W,2,13,0.8,7.461,M,-37.743,M,7.0,0131*62
$PYRTM,2024,127.500462973437,18.610110383588
$GNHDT,122.202,T*2A
$PYRTM,2024,127.500468710694,18.610116120833
$GNGGA,120040.50,3327.11495217,N,11904.18869443,W,2,13,0.8,7.524,M,-37.743,M,7.4,0131*61
$PYRTM,2024,127.500468710694,18.610116120833
$GNHDT,121.232,T*2A
$PYRTM,2024,127.500474546782,18.610121956921
$GNGGA,120041.00,3327.11474009,N,11904.18819068,W,2,13,0.8,7.501,M,-37.743,M,7.0,0131*6E
$PYRTM,2024,127.500474546782,18.610121956921
$GNHDT,120.494,T*21
$PYRTM,2024,127.500480280197,18.610127690336
$GNGGA,120041.50,3327.11450893,N,11904.18771057,W,2,13,0.8,7.390,M,-37.743,M,7.4,0131*61
$PYRTM,2024,127.500480280197,18.610127690336
$GNHDT,120.252,T*2D
$PYRTM,2024,127.500486121227,18.610133531377
$GNGGA,120042.00,3327.11424644,N,11904.18727719,W,2,13,0.8,7.250,M,-37.743,M,4.0,0131*64
$PYRTM,2024,127.500486121227,18.610133531377
$GNHDT,120.008,T*20
$PYRTM,2024,127.500491853044,18.610139263183
$GNGGA,120042.50,3327.11395061,N,11904.18691114,W,2,13,0.8,7.149,M,-37.743,M,4.4,0131*65
$PYRTM,2024,127.500491853044,18.610139263183
$GNHDT,120.026,T*2C
$PYRTM,2024,127.500497701250,18.610145111389
$GNGGA,120043.00,3327.11362634,N,11904.18662355,W,2,13,0.8,7.134,M,-37.743,M,5.0,0131*6B
$PYRTM,2024,127.500497701250,18.610145111389
$GNHDT,120.387,T*24
$PYRTM,2024,127.500503427685,18.610150837824
$GNGGA,120043.50,3327.11328622,N,11904.18638850,W,2,13,0.8,7.168,M,-37.743,M,5.4,0131*6B
$PYRTM,2024,127.500503427685,18.610150837824
$GNHDT,120.639,T*24
$PYRTM,2024,127.500509275185,18.610156685324
$GNGGA,120044.00,3327.11295022,N,11904.18617793,W,2,13,0.8,7.254,M,-37.743,M,6.0,0131*6E
$PYRTM,2024,127.500509275185,18.610156685324
$GNHDT,120.946,T*23
$PYRTM,2024,127.500515007060,18.610162417199
$GNGGA,120044.50,3327.11263368,N,11904.18593761,W,2,13,0.8,7.320,M,-37.743,M,6.4,0131*6B
$PYRTM,2024,127.500515007060,18.610162417199
$GNHDT,121.277,T*2B
$PYRTM,2024,127.500520844988,18.610168255127
$GNGGA,120045.00,3327.11234922,N,11904.18564995,W,2,13,0.8,7.344,M,-37.743,M,7.0,0131*63
$PYRTM,2024,127.500520844988,18.610168255127
$GNHDT,121.510,T*2D
$PYRTM,2024,127.500526580382,18.610173990521
$GNGGA,120045.50,3327.11210227,N,11904.18530472,W,2,13,0.8,7.302,M,-37.743,M,7.4,0131*6D
$PYRTM,2024,127.500526580382,18.610173990521
$GNHDT,121.866,T*21
$PYRTM,2024,127.500532419178,18.610179829317
$GNGGA,120046.00,3327.11188339,N,11904.18491132,W,2,13,0.8,7.223,M,-37.743,M,7.0,0131*6A
$PYRTM,2024,127.500532419178,18.610179829317
$GNHDT,122.003,T*29
$PYRTM,2024,127.500538150810,18.610185560949
$GNGGA,120046.50,3327.11168846,N,11904.18449969,W,2,13,0.8,7.130,M,-37.743,M,7.4,0131*64
$PYRTM,2024,127.500538150810,18.610185560949
$GNHDT,121.762,T*2A
$PYRTM,2024,127.500543993472,18.610191403611
$GNGGA,120047.00,3327.11150196,N,11904.18409906,W,2,13,0.8,7.093,M,-37.743,M,7.0,0131*6E
$PYRTM,2024,127.500543993472,18.610191403611
$GNHDT,121.832,T*20
$PYRTM,2024,127.500549730081,18.610197140220
$GNGGA,120047.50,3327.11130203,N,11904.18372207,W,2,13,0.8,7.098,M,-37.743,M,7.4,0131*6C
$PYRTM,2024,127.500549730081,18.610197140220
$GNHDT,121.857,T*23
$PYRTM,2024,127.500555574757,18.610202984896
$GNGGA,120048.00,3327.11106735,N,11904.18338111,W,2,13,0.8,7.147,M,-37.743,M,4.0,0131*6D
$PYRTM,2024,127.500555574757,18.610202984896
$GNHDT,121.918,T*29
$PYRTM,2024,127.500561299850,18.610208710000
$GNGGA,120048.50,3327.11079678,N,11904.18306050,W,2,13,0.8,7.196,M,-37.743,M,4.4,0131*68
$PYRTM,2024,127.500561299850,18.610208710000
$GNHDT,121.858,T*2C
$PYRTM,2024,127.500567141447,18.610214551586
$GNGGA,120049.00,3327.11049398,N,11904.18274128,W,2,13,0.8,7.223,M,-37.743,M,5.0,0131*66
$PYRTM,2024,127.500567141447,18.610214551586
$GNHDT,121.729,T*25
$PYRTM,2024,127.500572873935,18.610220284074
$GNGGA,120049.50,3327.11017178,N,11904.18240987,W,2,13,0.8,7.182,M,-37.743,M,5.4,0131*62
$PYRTM,2024,127.500572873935,18.610220284074
$GNHDT,121.410,T*2C
$PYRTM,2024,127.500578715289,18.610226125440
$GNGGA,120050.00,3327.10985047,N,11904.18205927,W,2,13,0.8,7.111,M,-37.743,M,6.0,0131*67
$PYRTM,2024,127.500578715289,18.610226125440
$GNHDT,121.188,T*28
$PYRTM,2024,127.500584454444,18.610231864595
$GNGGA,120050.50,3327.10954530,N,11904.18169722,W,2,13,0.8,7.039,M,-37.743,M,6.4,0131*66
$PYRTM,2024,127.500584454444,18.610231864595
$GNHDT,121.056,T*2A
$PYRTM,2024,127.500590292465,18.610237702604
$GNGGA,120051.00,3327.10926538,N,11904.18135167,W,2,13,0.8,7.040,M,-37.743,M,7.0,0131*6A
$PYRTM,2024,127.500590292465,18.610237702604
$GNHDT,120.834,T*27
$PYRTM,2024,127.500596023125,18.610243433264
$GNGGA,120051.50,3327.10900350,N,11904.18101534,W,2,13,0.8,7.075,M,-37.743,M,7.4,0131*64
$PYRTM,2024,127.500596023125,18.610243433264
$GNHDT,121.080,T*21
$PYRTM,2024,127.500601864074,18.610249274213
$GNGGA,120052.00,3327.10874938,N,11904.18069446,W,2,13,0.8,7.181,M,-37.743,M,7.0,0131*61
$PYRTM,2024,127.500601864074,18.610249274213
$GNHDT,121.517,T*2A
$PYRTM,2024,127.500607597222,18.610255007361
$GNGGA,120052.50,3327.10848417,N,11904.18037736,W,2,13,0.8,7.290,M,-37.743,M,7.4,0131*63
$PYRTM,2024,127.500607597222,18.610255007361
$GNHDT,121.832,T*20
$PYRTM,2024,127.500613441979,18.610260852118
$GNGGA,120053.00,3327.10820583,N,11904.18005232,W,2,13,0.8,7.396,M,-37.743,M,7.0,0131*66
$PYRTM,2024,127.500613441979,18.610260852118
$GNHDT,121.830,T*22
$PYRTM,2024,127.500619173275,18.610266583414
$GNGGA,120053.50,3327.10791988,N,11904.17971453,W,2,13,0.8,7.467,M,-37.743,M,7.4,0131*68
$PYRTM,2024,127.500619173275,18.610266583414
$GNHDT,121.953,T*26
$PYRTM,2024,127.500625013171,18.610272423310
$GNGGA,120054.00,3327.10763535,N,11904.17936633,W,2,13,0.8,7.507,M,-37.743,M,4.0,0131*6A
$PYRTM,2024,127.500625013171,18.610272423310
$GNHDT,122.051,T*2E
$PYRTM,2024,127.500630747257,18.610278157396
$GNGGA,120054.50,3327.10736079,N,11904.17900280,W,2,13,0.8,7.522,M,-37.743,M,4.4,0131*68
$PYRTM,2024,127.500630747257,18.610278157396
$GNHDT,121.690,T*26
$PYRTM,2024,127.500636589144,18.610283999294
$GNGGA,120055.00,3327.10710193,N,11904.17863240,W,2,13,0.8,7.567,M,-37.743,M,5.0,0131*61
$PYRTM,2024,127.500636589144,18.610283999294
$GNHDT,121.536,T*29
$PYRTM,2024,127.500642319873,18.610289730012
$GNGGA,120055.50,3327.10685122,N,11904.17825267,W,2,13,0.8,7.619,M,-37.743,M,5.4,0131*6A
$PYRTM,2024,127.500642319873,18.610289730012
$GNHDT,121.799,T*2E
$PYRTM,2024,127.500648161968,18.610295572106
$GNGGA,120056.00,3327.10661281,N,11904.17785546,W,2,13,0.8,7.702,M,-37.743,M,6.0,0131*61
$PYRTM,2024,127.500648161968,18.610295572106
$GNHDT,121.854,T*20
$PYRTM,2024,127.500653893414,18.610301303553
$GNGGA,120056.50,3327.10637663,N,11904.17744333,W,2,13,0.8,7.763,M,-37.743,M,6.4,0131*65
$PYRTM,2024,127.500653893414,18.610301303553
$GNHDT,121.767,T*2F
$PYRTM,2024,127.500659734803,18.610307144954
$GNGGA,120057.00,3327.10612358,N,11904.17701804,W,2,13,0.8,7.788,M,-37.743,M,7.0,0131*65
$PYRTM,2024,127.500659734803,18.610307144954
$GNHDT,121.907,T*27
$PYRTM,2024,127.500665471979,18.610312882130
$GNGGA,120057.50,3327.10585336,N,11904.17660872,W,2,13,0.8,7.765,M,-37.743,M,7.4,0131*65
$PYRTM,2024,127.500665471979,18.610312882130
$GNHDT,122.476,T*2F
$PYRTM,2024,127.500671307778,18.610318717917
$GNGGA,120058.00,3327.10556642,N,11904.17621757,W,2,13,0.8,7.679,M,-37.743,M,7.0,0131*62
$PYRTM,2024,127.500671307778,18.610318717917
$GNHDT,122.836,T*27
$PYRTM,2024,127.500677044896,18.610324455035
$GNGGA,120058.50,3327.10527566,N,11904.17585239,W,2,13,0.8,7.587,M,-37.743,M,7.4,0131*62
$PYRTM,2024,127.500677044896,18.610324455035
$GNHDT,122.956,T*20
$PYRTM,2024,127.500682886933,18.610330297072
$GNGGA,120059.00,3327.10499474,N,11904.17550079,W,2,13,0.8,7.478,M,-37.743,M,7.0,0131*6B
$PYRTM,2024,127.500682886933,18.610330297072
$GNHDT,122.751,T*29
$PYRTM,2024,127.500688618241,18.610336028380
$GNGGA,120059.50,3327.10471021,N,11904.17515551,W,2,13,0.8,7.331,M,-37.743,M,7.4,0131*6C
$PYRTM,2024,127.500688618241,18.610336028380
$GNHDT,122.198,T*2A
$PYRTM,2024,127.500694460914,18.610341871053
$GNGGA,120100.00,3327.10442206,N,11904.17481552,W,2,13,0.8,7.154,M,-37.743,M,4.0,0131*6A
$PYRTM,2024,127.500694460914,18.610341871053
$GNHDT,121.900,T*20
$PYRTM,2024,127.500700195961,18.610347606100
$GNGGA,120100.50,3327.10413168,N,11904.17447257,W,2,13,0.8,6.952,M,-37.743,M,4.4,0131*63
$PYRTM,2024,127.500700195961,18.610347606100
$GNHDT,121.356,T*29
$PYRTM,2024,127.500706027986,18.610353438125
$GNGGA,120101.00,3327.10385140,N,11904.17412871,W,2,13,0.8,6.766,M,-37.743,M,5.0,0131*67
$PYRTM,2024,127.500706027986,18.610353438125
$GNHDT,121.008,T*21
$PYRTM,2024,127.500711768148,18.610359178287
$GNGGA,120101.50,3327.10359949,N,11904.17378386,W,2,13,0.8,6.662,M,-37.743,M,5.4,0131*6B
$PYRTM,2024,127.500711768148,18.610359178287
$GNHDT,120.963,T*24
$PYRTM,2024,127.500717609097,18.610365019236
$GNGGA,120102.00,3327.10336113,N,11904.17345025,W,2,13,0.8,6.659,M,-37.743,M,6.0,0131*68
$PYRTM,2024,127.500717609097,18.610365019236
$GNHDT,120.905,T*24
$PYRTM,2024,127.500723340394,18.610370750532
$GNGGA,120102.50,3327.10312304,N,11904.17314796,W,2,13,0.8,6.763,M,-37.743,M,6.4,0131*68
$PYRTM,2024,127.500723340394,18.610370750532
$GNHDT,121.043,T*2E
$PYRTM,2024,127.500729178796,18.610376588935
$GNGGA,120103.00,3327.10286683,N,11904.17287458,W,2,13,0.8,6.934,M,-37.743,M,7.0,0131*69
$PYRTM,2024,127.500729178796,18.610376588935
$GNHDT,121.554,T*2D
$PYRTM,2024,127.500734915822,18.610382325972
$GNGGA,120103.50,3327.10258050,N,11904.17262309,W,2,13,0.8,7.114,M,-37.743,M,7.4,0131*60
$PYRTM,2024,127.500734915822,18.610382325972
$GNHDT,121.954,T*21
$PYRTM,2024,127.500740759583,18.610388169722
$GNGGA,120104.00,3327.10226221,N,11904.17236208,W,2,13,0.8,7.283,M,-37.743,M,7.0,0131*67
$PYRTM,2024,127.500740759583,18.610388169722
$GNHDT,122.344,T*29
$PYRTM,2024,127.500746486620,18.610393896759
$GNGGA,120104.50,3327.10193188,N,11904.17206626,W,2,13,0.8,7.408,M,-37.743,M,7.4,0131*65
$PYRTM,2024,127.500746486620,18.610393896759
$GNHDT,122.495,T*22
$PYRTM,2024,127.500752329826,18.610399739965
$GNGGA,120105.00,3327.10160987,N,11904.17171612,W,2,13,0.8,7.495,M,-37.743,M,7.0,0131*6E
$PYRTM,2024,127.500752329826,18.610399739965
$GNHDT,122.399,T*29
$PYRTM,2024,127.500758058947,18.610405469086
$GNGGA,120105.50,3327.10131091,N,11904.17130984,W,2,13,0.8,7.566,M,-37.743,M,7.4,0131*6D
$PYRTM,2024,127.500758058947,18.610405469086
$GNHDT,122.206,T*2E
$PYRTM,2024,127.500763904711,18.610411314850
$GNGGA,120106.00,3327.10104140,N,11904.17085573,W,2,13,0.8,7.642,M,-37.743,M,4.0,0131*69
$PYRTM,2024,127.500763904711,18.610411314850
$GNHDT,121.913,T*22
$PYRTM,2024,127.500769635602,18.610417045741
$GNGGA,120106.50,3327.10080220,N,11904.17037619,W,2,13,0.8,7.714,M,-37.743,M,4.4,0131*64
$PYRTM,2024,127.500769635602,18.610417045741
$GNHDT,121.646,T*2D
$PYRTM,2024,127.500775477384,18.610422887523
$GNGGA,120107.00,3327.10057968,N,11904.16988331,W,2,13,0.8,7.757,M,-37.743,M,5.0,0131*6C
$PYRTM,2024,127.500775477384,18.610422887523
$GNHDT,121.250,T*2E
$PYRTM,2024,127.500781211389,18.610428621528
$GNGGA,120107.50,3327.10035181,N,11904.16941580,W,2,13,0.8,7.751,M,-37.743,M,5.4,0131*69
$PYRTM,2024,127.500781211389,18.610428621528
$GNHDT,121.424,T*2B
$PYRTM,2024,127.500787052188,18.610434462326
$GNGGA,120108.00,3327.10010368,N,11904.16898342,W,2,13,0.8,7.651,M,-37.743,M,6.0,0131*6A
$PYRTM,2024,127.500787052188,18.610434462326
$GNHDT,121.155,T*28
$PYRTM,2024,127.500792786250,18.610440196389
$GNGGA,120108.50,3327.09983162,N,11904.16859749,W,2,13,0.8,7.490,M,-37.743,M,6.4,0131*65
$PYRTM,2024,127.500792786250,18.610440196389
$GNHDT,120.819,T*28
$PYRTM,2024,127.500798623704,18.610446033843
$GNGGA,120109.00,3327.09953738,N,11904.16825810,W,2,13,0.8,7.296,M,-37.743,M,7.0,0131*68
$PYRTM,2024,127.500798623704,18.610446033843
$GNHDT,120.629,T*25
$PYRTM,2024,127.500804354965,18.610451765116
$GNGGA,120109.50,3327.09923275,N,11904.16794722,W,2,13,0.8,7.099,M,-37.743,M,7.4,0131*64
$PYRTM,2024,127.500804354965,18.610451765116
$GNHDT,120.557,T*2F
$PYRTM,2024,127.500810199387,18.610457609537
$GNGGA,120110.00,3327.09891811,N,11904.16766029,W,2,13,0.8,6.933,M,-37.743,M,7.0,0131*64
$PYRTM,2024,127.500810199387,18.610457609537
$GNHDT,120.490,T*25
$PYRTM,2024,127.500815933808,18.610463343947
$GNGGA,120110.50,3327.09860327,N,11904.16739515,W,2,13,0.8,6.813,M,-37.743,M,7.4,0131*66
$PYRTM,2024,127.500815933808,18.610463343947
$GNHDT,120.575,T*2F
$PYRTM,2024,127.500821771933,18.610469182072
$GNGGA,120111.00,3327.09828506,N,11904.16713845,W,2,13,0.8,6.770,M,-37.743,M,7.0,0131*65
$PYRTM,2024,127.500821771933,18.610469182072
$GNHDT,120.826,T*24
$PYRTM,2024,127.500827505833,18.610474915972
$GNGGA,120111.50,3327.09797881,N,11904.16686855,W,2,13,0.8,6.808,M,-37.743,M,7.4,0131*61
$PYRTM,2024,127.500827505833,18.610474915972
$GNHDT,121.016,T*2E
$PYRTM,2024,127.500833344259,18.610480754398
$GNGGA,120112.00,3327.09771929,N,11904.16657647,W,2,13,0.8,6.957,M,-37.743,M,4.0,0131*61
$PYRTM,2024,127.500833344259,18.610480754398
$GNHDT,121.213,T*29
$PYRTM,2024,127.500839078657,18.610486488796
$GNGGA,120112.50,3327.09750115,N,11904.16623246,W,2,13,0.8,7.182,M,-37.743,M,4.4,0131*63
$PYRTM,2024,127.500839078657,18.610486488796
$GNHDT,120.903,T*22
$PYRTM,2024,127.500844920613,18.610492330752
$GNGGA,120113.00,3327.09730153,N,11904.16584228,W,2,13,0.8,7.443,M,-37.743,M,5.0,0131*68
$PYRTM,2024,127.500844920613,18.610492330752
$GNHDT,120.701,T*2E
$PYRTM,2024,127.500850660498,18.610498070637
$GNGGA,120113.50,3327.09709902,N,11904.16541571,W,2,13,0.8,7.697,M,-37.743,M,5.4,0131*66
$PYRTM,2024,127.500850660498,18.610498070637
$GNHDT,120.811,T*20
$PYRTM,2024,127.500856494155,18.610503904294
$GNGGA,120114.00,3327.09687960,N,11904.16497077,W,2,13,0.8,7.885,M,-37.743,M,6.0,0131*64
$PYRTM,2024,127.500856494155,18.610503904294
$GNHDT,120.659,T*22
$PYRTM,2024,127.500862225845,18.610509635984
$GNGGA,120114.50,3327.09662708,N,11904.16453060,W,2,13,0.8,7.970,M,-37.743,M,6.4,0131*6B
$PYRTM,2024,127.500862225845,18.610509635984
$GNHDT,120.789,T*2E
$PYRTM,2024,127.500868071169,18.610515481308
$GNGGA,120115.00,3327.09633814,N,11904.16411642,W,2,13,0.8,7.944,M,-37.743,M,7.0,0131*6B
$PYRTM,2024,127.500868071169,18.610515481308
$GNHDT,120.810,T*21
$PYRTM,2024,127.500873805590,18.610521215729
$GNGGA,120115.50,3327.09602852,N,11904.16373867,W,2,13,0.8,7.826,M,-37.743,M,7.4,0131*65
$PYRTM,2024,127.500873805590,18.610521215729
$GNHDT,121.050,T*2C
$PYRTM,2024,127.500879644086,18.610527054225
$GNGGA,120116.00,3327.09570584,N,11904.16339431,W,2,13,0.8,7.665,M,-37.743,M,7.0,0131*6F
$PYRTM,2024,127.500879644086,18.610527054225
$GNHDT,121.213,T*29
$PYRTM,2024,127.500885376956,18.610532787095
$GNGGA,120116.50,3327.09538731,N,11904.16306441,W,2,13,0.8,7.460,M,-37.743,M,7.4,0131*62
$PYRTM,2024,127.500885376956,18.610532787095
$GNHDT,121.500,T*2C
$PYRTM,2024,127.500891217708,18.610538627847
$GNGGA,120117.00,3327.09509519,N,11904.16272889,W,2,13,0.8,7.271,M,-37.743,M,7.0,0131*64
$PYRTM,2024,127.500891217708,18.610538627847
$GNHDT,121.480,T*25
$PYRTM,2024,127.500896948796,18.610544358935
$GNGGA,120117.50,3327.09485365,N,11904.16236496,W,2,13,0.8,7.121,M,-37.743,M,7.4,0131*69
$PYRTM,2024,127.500896948796,18.610544358935
$GNHDT,121.526,T*28
$PYRTM,2024,127.500902794248,18.610550204398
$GNGGA,120118.00,3327.09466546,N,11904.16196478,W,2,13,0.8,7.027,M,-37.743,M,4.0,0131*60
$PYRTM,2024,127.500902794248,18.610550204398
$GNHDT,121.419,T*25
$PYRTM,2024,127.500908529132,18.610555939282
$GNGGA,120118.50,3327.09450486,N,11904.16153794,W,2,13,0.8,6.976,M,-37.743,M,4.4,0131*6D
$PYRTM,2024,127.500908529132,18.610555939282
$GNHDT,120.469,T*23
$PYRTM,2024,127.500914369468,18.610561779606
$GNGGA,120119.00,3327.09433885,N,11904.16110910,W,2,13,0.8,6.942,M,-37.743,M,5.0,0131*64
$PYRTM,2024,127.500914369468,18.610561779606
$GNHDT,119.776,T*24
$PYRTM,2024,127.500920096308,18.610567506447
$GNGGA,120119.50,3327.09414475,N,11904.16070159,W,2,13,0.8,6.898,M,-37.743,M,5.4,0131*67
$PYRTM,2024,127.500920096308,18.610567506447
$GNHDT,119.301,T*20
$PYRTM,2024,127.500925943391,18.610573353530
$GNGGA,120120.00,3327.09389992,N,11904.16034145,W,2,13,0.8,6.858,M,-37.743,M,6.0,0131*69
$PYRTM,2024,127.500925943391,18.610573353530
$GNHDT,119.107,T*24
$PYRTM,2024,127.500931673588,18.610579083727
$GNGGA,120120.50,3327.09360898,N,11904.16001183,W,2,13,0.8,6.845,M,-37.743,M,6.4,0131*64
$PYRTM,2024,127.500931673588,18.610579083727
$GNHDT,118.994,T*27
$PYRTM,2024,127.500937518866,18.610584929005
$GNGGA,120121.00,3327.09327461,N,11904.15971782,W,2,13,0.8,6.915,M,-37.743,M,7.0,0131*62
$PYRTM,2024,127.500937518866,18.610584929005
$GNHDT,119.495,T*2A
$PYRTM,2024,127.500943248426,18.610590658565
$GNGGA,120121.50,3327.09292298,N,11904.15942949,W,2,13,0.8,7.064,M,-37.743,M,7.4,0131*6B
$PYRTM,2024,127.500943248426,18.610590658565
$GNHDT,120.158,T*24
$PYRTM,2024,127.500949088461,18.610596498600
$GNGGA,120122.00,3327.09256442,N,11904.15910890,W,2,13,0.8,7.279,M,-37.743,M,7.0,0131*6C
$PYRTM,2024,127.500949088461,18.610596498600
$GNHDT,120.595,T*21
$PYRTM,2024,127.500954821389,18.610602231528
$GNGGA,120122.50,3327.09222287,N,11904.15873664,W,2,13,0.8,7.531,M,-37.743,M,7.4,0131*6B
$PYRTM,2024,127.500954821389,18.610602231528
$GNHDT,121.003,T*2A
$PYRTM,2024,127.500960659502,18.610608069641
$GNGGA,120123.00,3327.09190889,N,11904.15830064,W,2,13,0.8,7.774,M,-37.743,M,7.0,0131*67
$PYRTM,2024,127.500960659502,18.610608069641
$GNHDT,121.263,T*2E
$PYRTM,2024,127.500966397789,18.610613807928
$GNGGA,120123.50,3327.09163242,N,11904.15782076,W,2,13,0.8,7.942,M,-37.743,M,7.4,0131*69
$PYRTM,2024,127.500966397789,18.610613807928
$GNHDT,120.963,T*24
$PYRTM,2024,127.500972236111,18.610619646250
$GNGGA,120124.00,3327.09138662,N,11904.15732706,W,2,13,0.8,8.001,M,-37.743,M,4.0,0131*6E
$PYRTM,2024,127.500972236111,18.610619646250
$GNHDT,120.911,T*21
$PYRTM,2024,127.500977968252,18.610625378391
$GNGGA,120124.50,3327.09115345,N,11904.15686108,W,2,13,0.8,7.937,M,-37.743,M,4.4,0131*65
$PYRTM,2024,127.500977968252,18.610625378391
$GNHDT,120.531,T*2F
$PYRTM,2024,127.500983812072,18.610631222211
$GNGGA,120125.00,3327.09091198,N,11904.15643902,W,2,13,0.8,7.720,M,-37.743,M,5.0,0131*68
$PYRTM,2024,127.500983812072,18.610631222211
$GNHDT,120.210,T*2B
$PYRTM,2024,127.500989542280,18.610636952431
$GNGGA,120125.50,3327.09066207,N,11904.15606966,W,2,13,0.8,7.401,M,-37.743,M,5.4,0131*67
$PYRTM,2024,127.500989542280,18.610636952431
$GNHDT,119.917,T*2D
$PYRTM,2024,127.500995383912,18.610642794051
$GNGGA,120126.00,3327.09041036,N,11904.15573411,W,2,13,0.8,7.038,M,-37.743,M,6.0,0131*61
$PYRTM,2024,127.500995383912,18.610642794051
$GNHDT,119.515,T*23
$PYRTM,2024,127.501001114375,18.610648524514
$GNGGA,120126.50,3327.09016812,N,11904.15542916,W,2,13,0.8,6.716,M,-37.743,M,6.4,0131*6E
$PYRTM,2024,127.501001114375,18.610648524514
$GNHDT,119.146,T*21
$PYRTM,2024,127.501006959039,18.610654369190
$GNGGA,120127.00,3327.08993985,N,11904.15514679,W,2,13,0.8,6.509,M,-37.743,M,7.0,0131*6C
$PYRTM,2024,127.501006959039,18.610654369190
$GNHDT,118.701,T*25
$PYRTM,2024,127.501012691551,18.610660101690
$GNGGA,120127.50,3327.08972793,N,11904.15486703,W,2,13,0.8,6.472,M,-37.743,M,7.4,0131*60
$PYRTM,2024,127.501012691551,18.610660101690
$GNHDT,118.815,T*2F
$PYRTM,2024,127.501018531458,18.610665941597
$GNGGA,120128.00,3327.08951715,N,11904.15457664,W,2,13,0.8,6.603,M,-37.743,M,7.0,0131*69
$PYRTM,2024,127.501018531458,18.610665941597
$GNHDT,118.811,T*2B
$PYRTM,2024,127.501024267396,18.610671677535
$GNGGA,120128.50,3327.08930709,N,11904.15425659,W,2,13,0.8,6.864,M,-37.743,M,7.4,0131*66
$PYRTM,2024,127.501024267396,18.610671677535
$GNHDT,118.958,T*27
$PYRTM,2024,127.501030108519,18.610677518669
$GNGGA,120129.00,3327.08908672,N,11904.15390040,W,2,13,0.8,7.195,M,-37.743,M,7.0,0131*61
$PYRTM,2024,127.501030108519,18.610677518669
$GNHDT,119.346,T*23
$PYRTM,2024,127.501035840023,18.610683250162
$GNGGA,120129.50,3327.08884864,N,11904.15351723,W,2,13,0.8,7.541,M,-37.743,M,7.4,0131*6E
$PYRTM,2024,127.501035840023,18.610683250162
$GNHDT,119.800,T*2A
$PYRTM,2024,127.501041680324,18.610689090463
$GNGGA,120130.00,3327.08857764,N,11904.15312666,W,2,13,0.8,7.829,M,-37.743,M,4.0,0131*61
$PYRTM,2024,127.501041680324,18.610689090463
$GNHDT,120.399,T*2B
$PYRTM,2024,127.501047418958,18.610694829097
$GNGGA,120130.50,3327.08828245,N,11904.15273360,W,2,13,0.8,8.041,M,-37.743,M,4.4,0131*62
$PYRTM,2024,127.501047418958,18.610694829097
$GNHDT,120.746,T*2D
$PYRTM,2024,127.501053259988,18.610700670127
$GNGGA,120131.00,3327.08796594,N,11904.15232544,W,2,13,0.8,8.125,M,-37.743,M,5.0,0131*64
$PYRTM,2024,127.501053259988,18.610700670127
$GNHDT,121.218,T*22
$PYRTM,2024,127.501058998623,18.610706408773
$GNGGA,120131.50,3327.08765354,N,11904.15189548,W,2,13,0.8,8.132,M,-37.743,M,5.4,0131*6A
$PYRTM,2024,127.501058998623,18.610706408773
$GNHDT,121.292,T*20
$PYRTM,2024,127.501064830868,18.610712241007
$GNGGA,120132.00,3327.08735655,N,11904.15143652,W,2,13,0.8,8.043,M,-37.743,M,6.0,0131*63
$PYRTM,2024,127.501064830868,18.610712241007
$GNHDT,121.083,T*22
$PYRTM,2024,127.501070560174,18.610717970312
$GNGGA,120132.50,3327.08709150,N,11904.15095429,W,2,13,0.8,7.920,M,-37.743,M,6.4,0131*68
$PYRTM,2024,127.501070560174,18.610717970312
$GNHDT,120.887,T*2F
$PYRTM,2024,127.501076406505,18.610723816655
$GNGGA,120133.00,3327.08687003,N,11904.15045465,W,2,13,0.8,7.758,M,-37.743,M,7.0,0131*6D
$PYRTM,2024,127.501076406505,18.610723816655
$GNHDT,120.597,T*23
$PYRTM,2024,127.501082141215,18.610729551354
$GNGGA,120133.50,3327.08668907,N,11904.14995161,W,2,13,0.8,7.580,M,-37.743,M,7.4,0131*63
$PYRTM,2024,127.501082141215,18.610729551354
$GNHDT,120.138,T*22
$PYRTM,2024,127.501087979549,18.610735389687
$GNGGA,120134.00,3327.08653135,N,11904.14946672,W,2,13,0.8,7.391,M,-37.743,M,7.0,0131*69
$PYRTM,2024,127.501087979549,18.610735389687
$GNHDT,119.214,T*25
$PYRTM,2024,127.501093716516,18.610741126667
$GNGGA,120134.50,3327.08636360,N,11904.14901819,W,2,13,0.8,7.160,M,-37.743,M,7.4,0131*65
$PYRTM,2024,127.501093716516,18.610741126667
$GNHDT,119.006,T*24
$PYRTM,2024,127.501099549757,18.610746959896
$GNGGA,120135.00,3327.08615505,N,11904.14862787,W,2,13,0.8,6.964,M,-37.743,M,7.0,0131*60
$PYRTM,2024,127.501099549757,18.610746959896
$GNHDT,118.519,T*2E
$PYRTM,2024,127.501105282639,18.610752692778
$GNGGA,120135.50,3327.08588931,N,11904.14830747,W,2,13,0.8,6.800,M,-37.743,M,7.4,0131*65
$PYRTM,2024,127.501105282639,18.610752692778
$GNHDT,118.749,T*29
$PYRTM,2024,127.501111126620,18.610758536759
$GNGGA,120136.00,3327.08556936,N,11904.14805953,W,2,13,0.8,6.753,M,-37.743,M,4.0,0131*64
$PYRTM,2024,127.501111126620,18.610758536759
$GNHDT,118.796,T*2B
$PYRTM,2024,127.501116861238,18.610764271377
$GNGGA,120136.50,3327.08522784,N,11904.14783458,W,2,13,0.8,6.817,M,-37.743,M,4.4,0131*69
$PYRTM,2024,127.501116861238,18.610764271377
$GNHDT,118.836,T*2E
$PYRTM,2024,127.501122698924,18.610770109062
$GNGGA,120137.00,3327.08489162,N,11904.14760340,W,2,13,0.8,7.013,M,-37.743,M,5.0,0131*68
$PYRTM,2024,127.501122698924,18.610770109062
$GNHDT,119.002,T*20
$PYRTM,2024,127.501128446215,18.610775856354
$GNGGA,120137.50,3327.08458678,N,11904.14732363,W,2,13,0.8,7.284,M,-37.743,M,5.4,0131*63
$PYRTM,2024,127.501128446215,18.610775856354
$GNHDT,119.376,T*20
$PYRTM,2024,127.501134275521,18.610781685660
$GNGGA,120138.00,3327.08432696,N,11904.14696739,W,2,13,0.8,7.580,M,-37.743,M,6.0,0131*65
$PYRTM,2024,127.501134275521,18.610781685660
$GNHDT,119.530,T*24
$PYRTM,2024,127.501140006285,18.610787416424
$GNGGA,120138.50,3327.08410798,N,11904.14654830,W,2,13,0.8,7.822,M,-37.743,M,6.4,0131*66
$PYRTM,2024,127.501140006285,18.610787416424
$GNHDT,119.747,T*26
$PYRTM,2024,127.501145845278,18.610793255417
$GNGGA,120139.00,3327.08391348,N,11904.14608176,W,2,13,0.8,7.978,M,-37.743,M,7.0,0131*6C
$PYRTM,2024,127.501145845278,18.610793255417
$GNHDT,119.898,T*2B
$PYRTM,2024,127.501151578484,18.610798988623
$GNGGA,120139.50,3327.08372254,N,11904.14560401,W,2,13,0.8,8.025,M,-37.743,M,7.4,0131*6A
$PYRTM,2024,127.501151578484,18.610798988623
$GNHDT,119.749,T*28
$PYRTM,2024,127.501157419850,18.610804829988
$GNGGA,120140.00,3327.08352311,N,11904.14514528,W,2,13,0.8,7.972,M,-37.743,M,7.0,0131*6A
$PYRTM,2024,127.501157419850,18.610804829988
$GNHDT,119.658,T*29
$PYRTM,2024,127.501163155521,18.610810565660
$GNGGA,120140.50,3327.08330939,N,11904.14472664,W,2,13,0.8,7.853,M,-37.743,M,7.4,0131*67
$PYRTM,2024,127.501163155521,18.610810565660
$GNHDT,119.536,T*22
$PYRTM,2024,127.501168998912,18.610816409051
$GNGGA,120141.00,3327.08307818,N,11904.14434029,W,2,13,0.8,7.671,M,-37.743,M,7.0,0131*62
$PYRTM,2024,127.501168998912,18.610816409051
$GNHDT,119.443,T*21
$PYRTM,2024,127.501174733218,18.610822143356
$GNGGA,120141.50,3327.08283881,N,11904.14396440,W,2,13,0.8,7.489,M,-37.743,M,7.4,0131*6F
$PYRTM,2024,127.501174733218,18.610822143356
$GNHDT,119.127,T*26
$PYRTM,2024,127.501180574178,18.610827984329
$GNGGA,120142.00,3327.08259920,N,11904.14358407,W,2,13,0.8,7.291,M,-37.743,M,4.0,0131*6D
$PYRTM,2024,127.501180574178,18.610827984329
$GNHDT,118.832,T*2A
$PYRTM,2024,127.501186302535,18.610833712674
$GNGGA,120142.50,3327.08236432,N,11904.14319905,W,2,13,0.8,7.118,M,-37.743,M,4.4,0131*63
$PYRTM,2024,127.501186302535,18.610833712674
$GNHDT,118.625,T*22
$PYRTM,2024,127.501192139190,18.610839549329
$GNGGA,120143.00,3327.08212314,N,11904.14279951,W,2,13,0.8,6.976,M,-37.743,M,5.0,0131*60
$PYRTM,2024,127.501192139190,18.610839549329
$GNHDT,118.411,T*27
$PYRTM,2024,127.501197878704,18.610845288843
$GNGGA,120143.50,3327.08187542,N,11904.14241326,W,2,13,0.8,6.893,M,-37.743,M,5.4,0131*60
$PYRTM,2024,127.501197878704,18.610845288843
$GNHDT,118.777,T*24
$PYRTM,2024,127.501203719491,18.610851129641
$GNGGA,120144.00,3327.08161910,N,11904.14204460,W,2,13,0.8,6.849,M,-37.743,M,6.0,0131*65
$PYRTM,2024,127.501203719491,18.610851129641
$GNHDT,118.922,T*2A
$PYRTM,2024,127.501209452894,18.610856863032
$GNGGA,120144.50,3327.08136910,N,11904.14168681,W,2,13,0.8,6.879,M,-37.743,M,6.4,0131*61
$PYRTM,2024,127.501209452894,18.610856863032
$GNHDT,119.104,T*27
$PYRTM,2024,127.501215293056,18.610862703194
$GNGGA,120145.00,3327.08112723,N,11904.14132518,W,2,13,0.8,6.955,M,-37.743,M,7.0,0131*6B
$PYRTM,2024,127.501215293056,18.610862703194
$GNHDT,119.268,T*2E
$PYRTM,2024,127.501221029699,18.610868439838
$GNGGA,120145.50,3327.08088991,N,11904.14096095,W,2,13,0.8,7.052,M,-37.743,M,7.4,0131*6F
$PYRTM,2024,127.501221029699,18.610868439838
$GNHDT,119.265,T*23
$PYRTM,2024,127.501226867025,18.610874277164
$GNGGA,120146.00,3327.08064399,N,11904.14058794,W,2,13,0.8,7.142,M,-37.743,M,7.0,0131*69
$PYRTM,2024,127.501226867025,18.610874277164
$GNHDT,119.376,T*20
$PYRTM,2024,127.501232599190,18.610880009329
$GNGGA,120146.50,3327.08038093,N,11904.14021514,W,2,13,0.8,7.196,M,-37.743,M,7.4,0131*65
$PYRTM,2024,127.501232599190,18.610880009329
$GNHDT,119.303,T*22
$PYRTM,2024,127.501238442778,18.610885852917
$GNGGA,120147.00,3327.08009980,N,11904.13982926,W,2,13,0.8,7.196,M,-37.743,M,7.0,0131*66
$PYRTM,2024,127.501238442778,18.610885852917
$GNHDT,119.049,T*2F
$PYRTM,2024,127.501244174931,18.610891585069
$GNGGA,120147.50,3327.07982340,N,11904.13943431,W,2,13,0.8,7.157,M,-37.743,M,7.4,0131*6F
$PYRTM,2024,127.501244174931,18.610891585069
$GNHDT,119.210,T*21
$PYRTM,2024,127.501250014028,18.610897424178
$GNGGA,120148.00,3327.07956297,N,11904.13902682,W,2,13,0.8,7.107,M,-37.743,M,4.0,0131*6A
$PYRTM,2024,127.501250014028,18.610897424178
$GNHDT,119.326,T*25
$PYRTM,2024,127.501255746933,18.610903157072
$GNGGA,120148.50,3327.07932157,N,11904.13862943,W,2,13,0.8,7.067,M,-37.743,M,4.4,0131*64
$PYRTM,2024,127.501255746933,18.610903157072
$GNHDT,119.420,T*24
$PYRTM,2024,127.501261586481,18.610908996620
$GNGGA,120149.00,3327.07909569,N,11904.13825683,W,2,13,0.8,7.068,M,-37.743,M,5.0,0131*6B
$PYRTM,2024,127.501261586481,18.610908996620
$GNHDT,119.619,T*2C
$PYRTM,2024,127.501267322766,18.610914732905
$GNGGA,120149.50,3327.07888648,N,11904.13790833,W,2,13,0.8,7.129,M,-37.743,M,5.4,0131*62
$PYRTM,2024,127.501267322766,18.610914732905
$GNHDT,120.069,T*27
$PYRTM,2024,127.501273165637,18.610920575775
$GNGGA,120150.00,3327.07868886,N,11904.13757411,W,2,13,0.8,7.237,M,-37.743,M,6.0,0131*61
$PYRTM,2024,127.501273165637,18.610920575775
$GNHDT,120.097,T*26
$PYRTM,2024,127.501278901551,18.610926311690
$GNGGA,120150.50,3327.07849288,N,11904.13723332,W,2,13,0.8,7.358,M,-37.743,M,6.4,0131*6A
$PYRTM,2024,127.501278901551,18.610926311690
$GNHDT,120.139,T*23
$PYRTM,2024,127.501284738345,18.610932148484
$GNGGA,120151.00,3327.07830839,N,11904.13687252,W,2,13,0.8,7.464,M,-37.743,M,7.0,0131*65
$PYRTM,2024,127.501284738345,18.610932148484
$GNHDT,119.978,T*24
$PYRTM,2024,127.501290474109,18.610937884248
$GNGGA,120151.50,3327.07812253,N,11904.13648294,W,2,13,0.8,7.560,M,-37.743,M,7.4,0131*6E
$PYRTM,2024,127.501290474109,18.610937884248
$GNHDT,119.669,T*2B
$PYRTM,2024,127.501296309514,18.610943719653
$GNGGA,120152.00,3327.07792771,N,11904.13608320,W,2,13,0.8,7.623,M,-37.743,M,7.0,0131*60
$PYRTM,2024,127.501296309514,18.610943719653
$GNHDT,119.759,T*29
$PYRTM,2024,127.501302041921,18.610949452060
$GNGGA,120152.50,3327.07770876,N,11904.13567425,W,2,13,0.8,7.627,M,-37.743,M,7.4,0131*69
$PYRTM,2024,127.501302041921,18.610949452060
$GNHDT,119.568,T*29
$PYRTM,2024,127.501307886157,18.610955296296
$GNGGA,120153.00,3327.07746650,N,11904.13526960,W,2,13,0.8,7.608,M,-37.743,M,7.0,0131*62
$PYRTM,2024,127.501307886157,18.610955296296
$GNHDT,119.647,T*27
$PYRTM,2024,127.501313625498,18.610961035637
$GNGGA,120153.50,3327.07720308,N,11904.13486738,W,2,13,0.8,7.564,M,-37.743,M,7.4,0131*6A
$PYRTM,2024,127.501313625498,18.610961035637
$GNHDT,119.599,T*27
$PYRTM,2024,127.501319462870,18.610966873009
$GNGGA,120154.00,3327.07692067,N,11904.13446011,W,2,13,0.8,7.520,M,-37.743,M,4.0,0131*6D
$PYRTM,2024,127.501319462870,18.610966873009
$GNHDT,119.748,T*29
$PYRTM,2024,127.501325197569,18.610972607720
$GNGGA,120154.50,3327.07664112,N,11904.13404239,W,2,13,0.8,7.509,M,-37.743,M,4.4,0131*63
$PYRTM,2024,127.501325197569,18.610972607720
$GNHDT,119.830,T*29
$PYRTM,2024,127.501331032222,18.610978442373
$GNGGA,120155.00,3327.07636102,N,11904.13361273,W,2,13,0.8,7.524,M,-37.743,M,5.0,0131*61
$PYRTM,2024,127.501331032222,18.610978442373
$GNHDT,120.168,T*27
$PYRTM,2024,127.501336767558,18.610984177697
$GNGGA,120155.50,3327.07609134,N,11904.13318091,W,2,13,0.8,7.557,M,-37.743,M,5.4,0131*6D
$PYRTM,2024,127.501336767558,18.610984177697
$GNHDT,120.468,T*22
$PYRTM,2024,127.501342607569,18.610990017708
$GNGGA,120156.00,3327.07582585,N,11904.13274592,W,2,13,0.8,7.584,M,-37.743,M,6.0,0131*61
$PYRTM,2024,127.501342607569,18.610990017708
$GNHDT,120.602,T*2C
$PYRTM,2024,127.501348341146,18.610995751285
$GNGGA,120156.50,3327.07557243,N,11904.13231252,W,2,13,0.8,7.582,M,-37.743,M,6.4,0131*69
$PYRTM,2024,127.501348341146,18.610995751285
$GNHDT,120.840,T*24
$PYRTM,2024,127.501354184375,18.611001594514
$GNGGA,120157.00,3327.07533663,N,11904.13188182,W,2,13,0.8,7.534,M,-37.743,M,7.0,0131*6E
$PYRTM,2024,127.501354184375,18.611001594514
$GNHDT,120.899,T*20
$PYRTM,2024,127.501359916389,18.611007326528
$GNGGA,120157.50,3327.07511018,N,11904.13147035,W,2,13,0.8,7.431,M,-37.743,M,7.4,0131*6F
$PYRTM,2024,127.501359916389,18.611007326528
$GNHDT,120.901,T*20
$PYRTM,2024,127.501365759444,18.611013169583
$GNGGA,120158.00,3327.07488847,N,11904.13108534,W,2,13,0.8,7.261,M,-37.743,M,7.0,0131*6E
$PYRTM,2024,127.501365759444,18.611013169583
$GNHDT,120.929,T*2A
$PYRTM,2024,127.501371491782,18.611018901921
$GNGGA,120158.50,3327.07466568,N,11904.13072966,W,2,13,0.8,7.027,M,-37.743,M,7.4,0131*68
$PYRTM,2024,127.501371491782,18.611018901921
$GNHDT,120.756,T*2C
$PYRTM,2024,127.501377329340,18.611024739479
$GNGGA,120159.00,3327.07443239,N,11904.13039712,W,2,13,0.8,6.746,M,-37.743,M,7.0,0131*6F
$PYRTM,2024,127.501377329340,18.611024739479
$GNHDT,120.624,T*28
$PYRTM,2024,127.501383061968,18.611030472118
$GNGGA,120159.50,3327.07418746,N,11904.13008362,W,2,13,0.8,6.481,M,-37.743,M,7.4,0131*64
$PYRTM,2024,127.501383061968,18.611030472118
$GNHDT,120.363,T*2E
$PYRTM,2024,127.501388912292,18.611036322431
$GNGGA,120200.00,3327.07393779,N,11904.12977512,W,2,13,0.8,6.270,M,-37.743,M,4.0,0131*68
$PYRTM,2024,127.501388912292,18.611036322431
$GNHDT,120.210,T*2B
$PYRTM,2024,127.501394637766,18.611042047905
$GNGGA,120200.50,3327.07369489,N,11904.12945635,W,2,13,0.8,6.206,M,-37.743,M,4.4,0131*66
$PYRTM,2024,127.501394637766,18.611042047905
$GNHDT,120.131,T*2B
$PYRTM,2024,127.501400479468,18.611047889606
$GNGGA,120201.00,3327.07346723,N,11904.12911217,W,2,13,0.8,6.303,M,-37.743,M,5.0,0131*68
$PYRTM,2024,127.501400479468,18.611047889606
$GNHDT,120.291,T*22
$PYRTM,2024,127.501406215799,18.611053625938
$GNGGA,120201.50,3327.07326552,N,11904.12874433,W,2,13,0.8,6.530,M,-37.743,M,5.4,0131*6F
$PYRTM,2024,127.501406215799,18.611053625938
$GNHDT,120.380,T*23
$PYRTM,2024,127.501412053021,18.611059463160
$GNGGA,120202.00,3327.07306628,N,11904.12835421,W,2,13,0.8,6.867,M,-37.743,M,6.0,0131*6B
$PYRTM,2024,127.501412053021,18.611059463160
$GNHDT,120.315,T*2F
$PYRTM,2024,127.501417784155,18.611065194294
$GNGGA,120202.50,3327.07283906,N,11904.12796226,W,2,13,0.8,7.217,M,-37.743,M,6.4,0131*6E
$PYRTM,2024,127.501417784155,18.611065194294
$GNHDT,120.475,T*2E
$PYRTM,2024,127.501423627153,18.611071037292
$GNGGA,120203.00,3327.07255995,N,11904.12756781,W,2,13,0.8,7.472,M,-37.743,M,7.0,0131*6F
$PYRTM,2024,127.501423627153,18.611071037292
$GNHDT,120.801,T*21
$PYRTM,2024,127.501429360891,18.611076771042
$GNGGA,120203.50,3327.07224092,N,11904.12716994,W,2,13,0.8,7.590,M,-37.743,M,7.4,0131*65
$PYRTM,2024,127.501429360891,18.611076771042
$GNHDT,120.835,T*26
$PYRTM,2024,127.501435201771,18.611082611910
$GNGGA,120204.00,3327.07188557,N,11904.12675287,W,2,13,0.8,7.578,M,-37.743,M,7.0,0131*61
$PYRTM,2024,127.501435201771,18.611082611910
$GNHDT,121.033,T*29
$PYRTM,2024,127.501440933206,18.611088343345
$GNGGA,120204.50,3327.07153284,N,11904.12633312,W,2,13,0.8,7.471,M,-37.743,M,7.4,0131*68
$PYRTM,2024,127.501440933206,18.611088343345
$GNHDT,121.072,T*2C
$PYRTM,2024,127.501446774225,18.611094184375
$GNGGA,120205.00,3327.07121631,N,11904.12589864,W,2,13,0.8,7.338,M,-37.743,M,7.0,0131*65
$PYRTM,2024,127.501446774225,18.611094184375
$GNHDT,121.050,T*2C
$PYRTM,2024,127.501452507824,18.611099917963
$GNGGA,120205.50,3327.07095019,N,11904.12547010,W,2,13,0.8,7.223,M,-37.743,M,7.4,0131*64
$PYRTM,2024,127.501452507824,18.611099917963
$GNHDT,120.995,T*2D
$PYRTM,2024,127.501458348044,18.611105758183
$GNGGA,120206.00,3327.07073319,N,11904.12505409,W,2,13,0.8,7.139,M,-37.743,M,4.0,0131*6C
$PYRTM,2024,127.501458348044,18.611105758183
$GNHDT,121.098,T*28
$PYRTM,2024,127.501464083160,18.611111493299
$GNGGA,120206.50,3327.07055229,N,11904.12466383,W,2,13,0.8,7.077,M,-37.743,M,4.4,0131*61
$PYRTM,2024,127.501464083160,18.611111493299
$GNHDT,121.170,T*2F
$PYRTM,2024,127.501469926481,18.611117336632
$GNGGA,120207.00,3327.07038755,N,11904.12429597,W,2,13,0.8,7.007,M,-37.743,M,5.0,0131*6A
$PYRTM,2024,127.501469926481,18.611117336632
$GNHDT,120.868,T*2E
$PYRTM,2024,127.501475656563,18.611123066701
$GNGGA,120207.50,3327.07021576,N,11904.12394169,W,2,13,0.8,6.916,M,-37.743,M,5.4,0131*6C
$PYRTM,2024,127.501475656563,18.611123066701
$GNHDT,120.991,T*29
$PYRTM,2024,127.501481494479,18.611128904618
$GNGGA,120208.00,3327.07003103,N,11904.12360033,W,2,13,0.8,6.822,M,-37.743,M,6.0,0131*64
$PYRTM,2024,127.501481494479,18.611128904618
$GNHDT,121.159,T*24
$PYRTM,2024,127.501487230856,18.611134640995
$GNGGA,120208.50,3327.06983837,N,11904.12327182,W,2,13,0.8,6.783,M,-37.743,M,6.4,0131*67
$PYRTM,2024,127.501487230856,18.611134640995
$GNHDT,121.074,T*2A
$PYRTM,2024,127.501493070127,18.611140480278
$GNGGA,120209.00,3327.06964070,N,11904.12293578,W,2,13,0.8,6.824,M,-37.743,M,7.0,0131*69
$PYRTM,2024,127.501493070127,18.611140480278
$GNHDT,120.972,T*24
$PYRTM,2024,127.501498806667,18.611146216806
$GNGGA,120209.50,3327.06944938,N,11904.12258289,W,2,13,0.8,6.947,M,-37.743,M,7.4,0131*65
$PYRTM,2024,127.501498806667,18.611146216806
$GNHDT,120.799,T*2F
$PYRTM,2024,127.501504643472,18.611152053611
$GNGGA,120210.00,3327.06925055,N,11904.12220821,W,2,13,0.8,7.145,M,-37.743,M,7.0,0131*65
$PYRTM,2024,127.501504643472,18.611152053611
$GNHDT,120.832,T*21
$PYRTM,2024,127.501510380069,18.611157790208
$GNGGA,120210.50,3327.06903290,N,11904.12180825,W,2,13,0.8,7.360,M,-37.743,M,7.4,0131*63
$PYRTM,2024,127.501510380069,18.611157790208
$GNHDT,120.673,T*2A
$PYRTM,2024,127.501516225961,18.611163636100
$GNGGA,120211.00,3327.06877631,N,11904.12139190,W,2,13,0.8,7.560,M,-37.743,M,7.0,0131*6D
$PYRTM,2024,127.501516225961,18.611163636100
$GNHDT,120.744,T*2F
$PYRTM,2024,127.501521958067,18.611169368218
$GNGGA,120211.50,3327.06848932,N,11904.12096859,W,2,13,0.8,7.698,M,-37.743,M,7.4,0131*60
$PYRTM,2024,127.501521958067,18.611169368218
$GNHDT,121.115,T*2C
$PYRTM,2024,127.501527799236,18.611175209375
$GNGGA,120212.00,3327.06818162,N,11904.12054568,W,2,13,0.8,7.796,M,-37.743,M,4.0,0131*67
$PYRTM,2024,127.501527799236,18.611175209375
$GNHDT,121.235,T*2D
$PYRTM,2024,127.501533526736,18.611180936875
$GNGGA,120212.50,3327.06787264,N,11904.12010364,W,2,13,0.8,7.840,M,-37.743,M,4.4,0131*64
$PYRTM,2024,127.501533526736,18.611180936875
$GNHDT,121.268,T*25
$PYRTM,2024,127.501539373600,18.611186783750
$GNGGA,120213.00,3327.06756933,N,11904.11965906,W,2,13,0.8,7.834,M,-37.743,M,5.0,0131*65
$PYRTM,2024,127.501539373600,18.611186783750
$GNHDT,121.571,T*2A
$PYRTM,2024,127.501545102674,18.611192512813
$GNGGA,120213.50,3327.06729315,N,11904.11920770,W,2,13,0.8,7.770,M,-37.743,M,5.4,0131*63
$PYRTM,2024,127.501545102674,18.611192512813
$GNHDT,121.481,T*24
$PYRTM,2024,127.501550946215,18.611198356354
$GNGGA,120214.00,3327.06704175,N,11904.11876195,W,2,13,0.8,7.661,M,-37.743,M,6.0,0131*63
$PYRTM,2024,127.501550946215,18.611198356354
$GNHDT,121.548,T*20
$PYRTM,2024,127.501556680509,18.611204090648
$GNGGA,120214.50,3327.06681585,N,11904.11832044,W,2,13,0.8,7.486,M,-37.743,M,6.4,0131*63
$PYRTM,2024,127.501556680509,18.611204090648
$GNHDT,121.552,T*2B
$PYRTM,2024,127.501562524606,18.611209934745
$GNGGA,120215.00,3327.06660565,N,11904.11789357,W,2,13,0.8,7.267,M,-37.743,M,7.0,0131*64
$PYRTM,2024,127.501562524606,18.611209934745
$GNHDT,121.290,T*22
$PYRTM,2024,127.501568255150,18.611215665289
$GNGGA,120215.50,3327.06639946,N,11904.11749585,W,2,13,0.8,7.025,M,-37.743,M,7.4,0131*65
$PYRTM,2024,127.501568255150,18.611215665289
$GNHDT,121.159,T*24
$PYRTM,2024,127.501574093565,18.611221503704
$GNGGA,120216.00,3327.06617592,N,11904.11714919,W,2,13,0.8,6.787,M,-37.743,M,7.0,0131*61
$PYRTM,2024,127.501574093565,18.611221503704
$GNHDT,121.136,T*2D
$PYRTM,2024,127.501579834780,18.611227244919
$GNGGA,120216.50,3327.06593505,N,11904.11684876,W,2,13,0.8,6.557,M,-37.743,M,7.4,0131*6E
$PYRTM,2024,127.501579834780,18.611227244919
$GNHDT,120.879,T*2E
$PYRTM,2024,127.501585666736,18.611233076875
$GNGGA,120217.00,3327.06567647,N,11904.11659312,W,2,13,0.8,6.355,M,-37.743,M,7.0,0131*6D
$PYRTM,2024,127.501585666736,18.611233076875
$GNHDT,121.114,T*2D
$PYRTM,2024,127.501591406678,18.611238816829
$GNGGA,120217.50,3327.06540540,N,11904.11635333,W,2,13,0.8,6.199,M,-37.743,M,7.4,0131*66
$PYRTM,2024,127.501591406678,18.611238816829
$GNHDT,120.687,T*21
$PYRTM,2024,127.501597240972,18.611244651111
$GNGGA,120218.00,3327.06514216,N,11904.11610857,W,2,13,0.8,6.114,M,-37.743,M,4.0,0131*65
$PYRTM,2024,127.501597240972,18.611244651111
$GNHDT,120.952,T*26
$PYRTM,2024,127.501602975891,18.611250386030
$GNGGA,120218.50,3327.06488229,N,11904.11582282,W,2,13,0.8,6.129,M,-37.743,M,4.4,0131*68
$PYRTM,2024,127.501602975891,18.611250386030
$GNHDT,121.091,T*21
$PYRTM,2024,127.501608817326,18.611256227465
$GNGGA,120219.00,3327.06462800,N,11904.11547949,W,2,13,0.8,6.246,M,-37.743,M,5.0,0131*63
$PYRTM,2024,127.501608817326,18.611256227465
$GNHDT,121.248,T*27
$PYRTM,2024,127.501614545521,18.611261955660
$GNGGA,120219.50,3327.06440555,N,11904.11506816,W,2,13,0.8,6.478,M,-37.743,M,5.4,0131*6A
$PYRTM,2024,127.501614545521,18.611261955660
$GNHDT,121.309,T*23
$PYRTM,2024,127.501620388275,18.611267798414
$GNGGA,120220.00,3327.06420843,N,11904.11460081,W,2,13,0.8,6.819,M,-37.743,M,6.0,0131*62
$PYRTM,2024,127.501620388275,18.611267798414
$GNHDT,121.579,T*22
$PYRTM,2024,127.501626124595,18.611273534734
$GNGGA,120220.50,3327.06401513,N,11904.11410546,W,2,13,0.8,7.186,M,-37.743,M,6.4,0131*6F
$PYRTM,2024,127.501626124595,18.611273534734
$GNHDT,121.352,T*2D
$PYRTM,2024,127.501631962037,18.611279372176
$GNGGA,120221.00,3327.06379609,N,11904.11362149,W,2,13,0.8,7.503,M,-37.743,M,7.0,0131*6E
$PYRTM,2024,127.501631962037,18.611279372176
$GNHDT,121.482,T*27
$PYRTM,2024,127.501637694005,18.611285104144
$GNGGA,120221.50,3327.06352119,N,11904.11317218,W,2,13,0.8,7.678,M,-37.743,M,7.4,0131*6A
$PYRTM,2024,127.501637694005,18.611285104144
$GNHDT,121.557,T*2E
$PYRTM,2024,127.501643542025,18.611290952164
$GNGGA,120222.00,3327.06318268,N,11904.11276813,W,2,13,0.8,7.676,M,-37.743,M,7.0,0131*6A
$PYRTM,2024,127.501643542025,18.611290952164
$GNHDT,121.644,T*2F
$PYRTM,2024,127.501649268113,18.611296678264
$GNGGA,120222.50,3327.06279804,N,11904.11239551,W,2,13,0.8,7.513,M,-37.743,M,7.4,0131*6D
$PYRTM,2024,127.501649268113,18.611296678264
$GNHDT,121.351,T*2E
$PYRTM,2024,127.501655116933,18.611302527072
$GNGGA,120223.00,3327.06241627,N,11904.11203068,W,2,13,0.8,7.265,M,-37.743,M,7.0,0131*69
$PYRTM,2024,127.501655116933,18.611302527072
$GNHDT,121.181,T*21
$PYRTM,2024,127.501660854861,18.611308265000
$GNGGA,120223.50,3327.06208026,N,11904.11165965,W,2,13,0.8,7.022,M,-37.743,M,7.4,0131*64
$PYRTM,2024,127.501660854861,18.611308265000
$GNHDT,121.214,T*2E
$PYRTM,2024,127.501666687431,18.611314097569
$GNGGA,120224.00,3327.06183469,N,11904.11126709,W,2,13,0.8,6.889,M,-37.743,M,4.0,0131*65
$PYRTM,2024,127.501666687431,18.611314097569
$GNHDT,121.058,T*24
$PYRTM,2024,127.501672422384,18.611319832523
$GNGGA,120224.50,3327.06167683,N,11904.11085742,W,2,13,0.8,6.882,M,-37.743,M,4.4,0131*64
$PYRTM,2024,127.501672422384,18.611319832523
$GNHDT,120.952,T*26
$PYRTM,2024,127.501678257292,18.611325667431
$GNGGA,120225.00,3327.06157624,N,11904.11044180,W,2,13,0.8,6.988,M,-37.743,M,5.0,0131*65
$PYRTM,2024,127.501678257292,18.611325667431
$GNHDT,120.950,T*24
$PYRTM,2024,127.501683994641,18.611331404780
$GNGGA,120225.50,3327.06148788,N,11904.11002652,W,2,13,0.8,7.108,M,-37.743,M,5.4,0131*66
$PYRTM,2024,127.501683994641,18.611331404780
$GNHDT,120.784,T*23
$PYRTM,2024,127.501689836829,18.611337246968
$GNGGA,120226.00,3327.06136526,N,11904.10962410,W,2,13,0.8,7.186,M,-37.743,M,6.0,0131*64
$PYRTM,2024,127.501689836829,18.611337246968
$GNHDT,120.715,T*2B
$PYRTM,2024,127.501695567014,18.611342977153
$GNGGA,120226.50,3327.06117804,N,11904.10924985,W,2,13,0.8,7.189,M,-37.743,M,6.4,0131*67
$PYRTM,2024,127.501695567014,18.611342977153
$GNHDT,120.896,T*2F
$PYRTM,2024,127.501701408565,18.611348818704
$GNGGA,120227.00,3327.06091882,N,11904.10891893,W,2,13,0.8,7.168,M,-37.743,M,7.0,0131*61
$PYRTM,2024,127.501701408565,18.611348818704
$GNHDT,121.153,T*2E
$PYRTM,2024,127.501707145023,18.611354555174
$GNGGA,120227.50,3327.06061177,N,11904.10861436,W,2,13,0.8,7.148,M,-37.743,M,7.4,0131*62
$PYRTM,2024,127.501707145023,18.611354555174
$GNHDT,121.310,T*2B
$PYRTM,2024,127.501712989618,18.611360399757
$GNGGA,120228.00,3327.06028745,N,11904.10831536,W,2,13,0.8,7.155,M,-37.743,M,7.0,0131*6E
$PYRTM,2024,127.501712989618,18.611360399757
$GNHDT,121.781,T*27
$PYRTM,2024,127.501718716296,18.611366126435
$GNGGA,120228.50,3327.05997622,N,11904.10798016,W,2,13,0.8,7.227,M,-37.743,M,7.4,0131*6C
$PYRTM,2024,127.501718716296,18.611366126435
$GNHDT,121.642,T*29
$PYRTM,2024,127.501724556620,18.611371966759
