$PYRTM,2024,122.701151687639,13.810799097778
$GNGGA,164939.50,3354.46448472,N,11955.39087869,W,2,12,0.8,7.863,M,-37.368,M,7.4,0135*68
$PYRTM,2024,122.701151687639,13.810799097778
$GNHDT,59.328,T*1E
$PYRTM,2024,122.701157527234,13.810804937373
$GNGGA,164940.00,3354.46507055,N,11955.38965179,W,2,12,0.8,7.901,M,-37.368,M,7.0,0135*65
$PYRTM,2024,122.701157527234,13.810804937373
$GNHDT,59.490,T*1A
$PYRTM,2024,122.701163264225,13.810810674363
$GNGGA,164940.50,3354.46565410,N,11955.38841417,W,2,12,0.8,7.927,M,-37.368,M,7.4,0135*6B
$PYRTM,2024,122.701163264225,13.810810674363
$GNHDT,59.624,T*17
$PYRTM,2024,122.701169102569,13.810816512708
$GNGGA,164941.00,3354.46624474,N,11955.38716582,W,2,12,0.8,7.921,M,-37.368,M,8.0,0135*66
$PYRTM,2024,122.701169102569,13.810816512708
$GNHDT,59.681,T*18
$PYRTM,2024,122.701174840891,13.810822251030
$GNGGA,164941.50,3354.46684663,N,11955.38591347,W,2,12,0.8,7.908,M,-37.368,M,8.4,0135*60
$PYRTM,2024,122.701174840891,13.810822251030
$GNHDT,59.884,T*13
$PYRTM,2024,122.701180679549,13.810828089699
$GNGGA,164942.00,3354.46745171,N,11955.38466684,W,2,12,0.8,7.897,M,-37.368,M,9.0,0135*6F
$PYRTM,2024,122.701180679549,13.810828089699
$GNHDT,59.889,T*1E
$PYRTM,2024,122.701186410775,13.810833820914
$GNGGA,164942.50,3354.46805325,N,11955.38342396,W,2,12,0.8,7.913,M,-37.368,M,9.4,0135*6C
$PYRTM,2024,122.701186410775,13.810833820914
$GNHDT,59.939,T*14
$PYRTM,2024,122.701192253542,13.810839663681
$GNGGA,164943.00,3354.46865103,N,11955.38217580,W,2,12,0.8,7.957,M,-37.368,M,10.0,0135*54
$PYRTM,2024,122.701192253542,13.810839663681
$GNHDT,59.984,T*12
$PYRTM,2024,122.701197985833,13.810845395984
$GNGGA,164943.50,3354.46924539,N,11955.38091620,W,2,12,0.8,7.993,M,-37.368,M,10.4,0135*51
$PYRTM,2024,122.701197985833,13.810845395984
$GNHDT,59.915,T*1A
$PYRTM,2024,122.701203822778,13.810851232917
$GNGGA,164944.00,3354.46983605,N,11955.37964278,W,2,12,0.8,7.994,M,-37.368,M,11.0,0135*55
$PYRTM,2024,122.701203822778,13.810851232917
$GNHDT,59.818,T*16
$PYRTM,2024,122.701209559826,13.810856969965
$GNGGA,164944.50,3354.47042493,N,11955.37836815,W,2,12,0.8,7.954,M,-37.368,M,11.4,0135*57
$PYRTM,2024,122.701209559826,13.810856969965
$GNHDT,59.816,T*18
$PYRTM,2024,122.701215400764,13.810862810903
$GNGGA,164945.00,3354.47100576,N,11955.37710791,W,2,12,0.8,7.894,M,-37.368,M,12.0,0135*5C
$PYRTM,2024,122.701215400764,13.810862810903
$GNHDT,59.820,T*1D
$PYRTM,2024,122.701221132813,13.810868542951
$GNGGA,164945.50,3354.47157827,N,11955.37586860,W,2,12,0.8,7.843,M,-37.368,M,12.4,0135*50
$PYRTM,2024,122.701221132813,13.810868542951
$GNHDT,59.701,T*11
$PYRTM,2024,122.701226970937,13.810874381076
$GNGGA,164946.00,3354.47213958,N,11955.37464353,W,2,12,0.8,7.791,M,-37.368,M,13.0,0135*5F
$PYRTM,2024,122.701226970937,13.810874381076
$GNHDT,59.604,T*15
$PYRTM,2024,122.701232708484,13.810880118623
$GNGGA,164946.50,3354.47268859,N,11955.37342085,W,2,12,0.8,7.740,M,-37.368,M,13.4,0135*55
$PYRTM,2024,122.701232708484,13.810880118623
$GNHDT,59.472,T*16
$PYRTM,2024,122.701238550093,13.810885960231
$GNGGA,164947.00,3354.47323417,N,11955.37220141,W,2,12,0.8,7.670,M,-37.368,M,4.0,0135*65
$PYRTM,2024,122.701238550093,13.810885960231
$GNHDT,59.265,T*16
$PYRTM,2024,122.701244280625,13.810891690764
$GNGGA,164947.50,3354.47378420,N,11955.37098512,W,2,12,0.8,7.586,M,-37.368,M,4.4,0135*67
$PYRTM,2024,122.701244280625,13.810891690764
$GNHDT,59.072,T*12
$PYRTM,2024,122.701250122303,13.810897532442
$GNGGA,164948.00,3354.47433705,N,11955.36977318,W,2,12,0.8,7.490,M,-37.368,M,5.0,0135*67
$PYRTM,2024,122.701250122303,13.810897532442
$GNHDT,58.885,T*13
$PYRTM,2024,122.701255853796,13.810903263935
$GNGGA,164948.50,3354.47488897,N,11955.36857527,W,2,12,0.8,7.430,M,-37.368,M,5.4,0135*61
$PYRTM,2024,122.701255853796,13.810903263935
$GNHDT,58.847,T*1D
$PYRTM,2024,122.701261698738,13.810909108889
$GNGGA,164949.00,3354.47543696,N,11955.36738645,W,2,12,0.8,7.413,M,-37.368,M,6.0,0135*6B
$PYRTM,2024,122.701261698738,13.810909108889
$GNHDT,58.605,T*15
$PYRTM,2024,122.701267432558,13.810914842708
$GNGGA,164949.50,3354.47599002,N,11955.36620532,W,2,12,0.8,7.441,M,-37.368,M,6.4,0135*6A
$PYRTM,2024,122.701267432558,13.810914842708
$GNHDT,58.491,T*1A
$PYRTM,2024,122.701273273854,13.810920683993
$GNGGA,164950.00,3354.47654831,N,11955.36502304,W,2,12,0.8,7.502,M,-37.368,M,7.0,0135*6E
$PYRTM,2024,122.701273273854,13.810920683993
$GNHDT,58.468,T*1C
$PYRTM,2024,122.701279007176,13.810926417326
$GNGGA,164950.50,3354.47711459,N,11955.36383379,W,2,12,0.8,7.569,M,-37.368,M,7.4,0135*65
$PYRTM,2024,122.701279007176,13.810926417326
$GNHDT,58.301,T*14
$PYRTM,2024,122.701284843021,13.810932253160
$GNGGA,164951.00,3354.47767669,N,11955.36263762,W,2,12,0.8,7.629,M,-37.368,M,7.0,0135*63
$PYRTM,2024,122.701284843021,13.810932253160
$GNHDT,58.396,T*1A
$PYRTM,2024,122.701290577697,13.810937987836
$GNGGA,164951.50,3354.47822979,N,11955.36142698,W,2,12,0.8,7.676,M,-37.368,M,7.4,0135*6C
$PYRTM,2024,122.701290577697,13.810937987836
$GNHDT,58.766,T*11
$PYRTM,2024,122.701296416910,13.810943827060
$GNGGA,164952.00,3354.47877822,N,11955.36020010,W,2,12,0.8,7.708,M,-37.368,M,7.0,0135*6A
$PYRTM,2024,122.701296416910,13.810943827060
$GNHDT,58.906,T*19
$PYRTM,2024,122.701302153854,13.810949563993
$GNGGA,164952.50,3354.47933820,N,11955.35895341,W,2,12,0.8,7.713,M,-37.368,M,7.4,0135*60
$PYRTM,2024,122.701302153854,13.810949563993
$GNHDT,58.983,T*14
$PYRTM,2024,122.701307991887,13.810955402025
$GNGGA,164953.00,3354.47991338,N,11955.35769534,W,2,12,0.8,7.704,M,-37.368,M,4.0,0135*67
$PYRTM,2024,122.701307991887,13.810955402025
$GNHDT,59.102,T*14
$PYRTM,2024,122.701313724537,13.810961134676
$GNGGA,164953.50,3354.48050393,N,11955.35644104,W,2,12,0.8,7.725,M,-37.368,M,4.4,0135*66
$PYRTM,2024,122.701313724537,13.810961134676
$GNHDT,59.213,T*17
$PYRTM,2024,122.701319566285,13.810966976424
$GNGGA,164954.00,3354.48110103,N,11955.35519908,W,2,12,0.8,7.779,M,-37.368,M,5.0,0135*69
$PYRTM,2024,122.701319566285,13.810966976424
$GNHDT,59.554,T*13
$PYRTM,2024,122.701325303437,13.810972713576
$GNGGA,164954.50,3354.48170127,N,11955.35396356,W,2,12,0.8,7.882,M,-37.368,M,5.4,0135*63
$PYRTM,2024,122.701325303437,13.810972713576
$GNHDT,59.928,T*14
$PYRTM,2024,122.701331138611,13.810978548750
$GNGGA,164955.00,3354.48230039,N,11955.35272462,W,2,12,0.8,7.995,M,-37.368,M,6.0,0135*65
$PYRTM,2024,122.701331138611,13.810978548750
$GNHDT,60.136,T*19
$PYRTM,2024,122.701336885116,13.810984295266
$GNGGA,164955.50,3354.48290778,N,11955.35147414,W,2,12,0.8,8.066,M,-37.368,M,6.4,0135*62
$PYRTM,2024,122.701336885116,13.810984295266
$GNHDT,60.138,T*17
$PYRTM,2024,122.701342717523,13.810990127662
$GNGGA,164956.00,3354.48352278,N,11955.35021737,W,2,12,0.8,8.083,M,-37.368,M,7.0,0135*63
$PYRTM,2024,122.701342717523,13.810990127662
$GNHDT,60.109,T*15
$PYRTM,2024,122.701348446852,13.810995857002
$GNGGA,164956.50,3354.48413442,N,11955.34896912,W,2,12,0.8,8.050,M,-37.368,M,7.4,0135*6D
$PYRTM,2024,122.701348446852,13.810995857002
$GNHDT,60.044,T*1D
$PYRTM,2024,122.701354290081,13.811001700220
$GNGGA,164957.00,3354.48471679,N,11955.34773293,W,2,12,0.8,7.978,M,-37.368,M,7.0,0135*69
$PYRTM,2024,122.701354290081,13.811001700220
$GNHDT,60.127,T*19
$PYRTM,2024,122.701360021516,13.811007431667
$GNGGA,164957.50,3354.48527636,N,11955.34649443,W,2,12,0.8,7.908,M,-37.368,M,7.4,0135*65
$PYRTM,2024,122.701360021516,13.811007431667
$GNHDT,60.174,T*1F
$PYRTM,2024,122.701365861343,13.811013271481
$GNGGA,164958.00,3354.48582030,N,11955.34526029,W,2,12,0.8,7.841,M,-37.368,M,7.0,0135*6A
$PYRTM,2024,122.701365861343,13.811013271481
$GNHDT,60.067,T*1C
$PYRTM,2024,122.701371601389,13.811019011528
$GNGGA,164958.50,3354.48635865,N,11955.34403684,W,2,12,0.8,7.796,M,-37.368,M,7.4,0135*6E
$PYRTM,2024,122.701371601389,13.811019011528
$GNHDT,60.169,T*13
$PYRTM,2024,122.701377434444,13.811024844583
$GNGGA,164959.00,3354.48690273,N,11955.34282643,W,2,12,0.8,7.747,M,-37.368,M,8.0,0135*6B
$PYRTM,2024,122.701377434444,13.811024844583
$GNHDT,59.959,T*12
$PYRTM,2024,122.701383170498,13.811030580637
$GNGGA,164959.50,3354.48745956,N,11955.34162820,W,2,12,0.8,7.712,M,-37.368,M,8.4,0135*69
$PYRTM,2024,122.701383170498,13.811030580637
$GNHDT,59.963,T*1B
$PYRTM,2024,122.701389015625,13.811036425764
$GNGGA,165000.00,3354.48803598,N,11955.34043985,W,2,12,0.8,7.650,M,-37.368,M,9.0,0135*65
$PYRTM,2024,122.701389015625,13.811036425764
$GNHDT,59.993,T*14
$PYRTM,2024,122.701394744699,13.811042154838
$GNGGA,165000.50,3354.48863019,N,11955.33926205,W,2,12,0.8,7.605,M,-37.368,M,9.4,0135*60
$PYRTM,2024,122.701394744699,13.811042154838
$GNHDT,59.632,T*10
$PYRTM,2024,122.701400582731,13.811047992870
$GNGGA,165001.00,3354.48922274,N,11955.33809304,W,2,12,0.8,7.571,M,-37.368,M,10.0,0135*59
$PYRTM,2024,122.701400582731,13.811047992870
$GNHDT,59.577,T*12
$PYRTM,2024,122.701406320313,13.811053730451
$GNGGA,165001.50,3354.48979100,N,11955.33692996,W,2,12,0.8,7.576,M,-37.368,M,10.4,0135*5C
$PYRTM,2024,122.701406320313,13.811053730451
$GNHDT,59.709,T*19
$PYRTM,2024,122.701412158611,13.811059568750
$GNGGA,165002.00,3354.49031745,N,11955.33575616,W,2,12,0.8,7.614,M,-37.368,M,11.0,0135*56
$PYRTM,2024,122.701412158611,13.811059568750
$GNHDT,59.851,T*1B
$PYRTM,2024,122.701417895440,13.811065305579
$GNGGA,165002.50,3354.49081751,N,11955.33455178,W,2,12,0.8,7.673,M,-37.368,M,11.4,0135*54
$PYRTM,2024,122.701417895440,13.811065305579
$GNHDT,60.114,T*19
$PYRTM,2024,122.701423736493,13.811071146632
$GNGGA,165003.00,3354.49132242,N,11955.33331514,W,2,12,0.8,7.696,M,-37.368,M,12.0,0135*59
$PYRTM,2024,122.701423736493,13.811071146632
$GNHDT,59.995,T*12
$PYRTM,2024,122.701429465162,13.811076875301
$GNGGA,165003.50,3354.49185868,N,11955.33206677,W,2,12,0.8,7.653,M,-37.368,M,12.4,0135*5C
$PYRTM,2024,122.701429465162,13.811076875301
$GNHDT,59.878,T*10
$PYRTM,2024,122.701435309282,13.811082719421
$GNGGA,165004.00,3354.49243577,N,11955.33081934,W,2,12,0.8,7.574,M,-37.368,M,13.0,0135*52
$PYRTM,2024,122.701435309282,13.811082719421
$GNHDT,59.814,T*1A
$PYRTM,2024,122.701441043900,13.811088454039
$GNGGA,165004.50,3354.49303204,N,11955.32958632,W,2,12,0.8,7.515,M,-37.368,M,13.4,0135*57
$PYRTM,2024,122.701441043900,13.811088454039
$GNHDT,59.864,T*1D
$PYRTM,2024,122.701446883576,13.811094293715
$GNGGA,165005.00,3354.49361987,N,11955.32836409,W,2,12,0.8,7.524,M,-37.368,M,14.0,0135*55
$PYRTM,2024,122.701446883576,13.811094293715
$GNHDT,60.146,T*1E
$PYRTM,2024,122.701452622604,13.811100032743
$GNGGA,165005.50,3354.49419780,N,11955.32714210,W,2,12,0.8,7.611,M,-37.368,M,14.4,0135*51
$PYRTM,2024,122.701452622604,13.811100032743
$GNHDT,60.003,T*1E
$PYRTM,2024,122.701458458148,13.811105868287
$GNGGA,165006.00,3354.49477420,N,11955.32591095,W,2,12,0.8,7.737,M,-37.368,M,15.0,0135*56
$PYRTM,2024,122.701458458148,13.811105868287
$GNHDT,60.064,T*1F
$PYRTM,2024,122.701464189225,13.811111599375
$GNGGA,165006.50,3354.49536083,N,11955.32467138,W,2,12,0.8,7.861,M,-37.368,M,15.4,0135*5C
$PYRTM,2024,122.701464189225,13.811111599375
$GNHDT,60.124,T*1A
$PYRTM,2024,122.701470027141,13.811117437280
$GNGGA,165007.00,3354.49595035,N,11955.32343023,W,2,12,0.8,7.945,M,-37.368,M,16.0,0135*56
$PYRTM,2024,122.701470027141,13.811117437280
$GNHDT,59.961,T*19
$PYRTM,2024,122.701475765671,13.811123175810
$GNGGA,165007.50,3354.49653529,N,11955.32219039,W,2,12,0.8,7.981,M,-37.368,M,16.4,0135*5B
$PYRTM,2024,122.701475765671,13.811123175810
$GNHDT,59.891,T*17
$PYRTM,2024,122.701481602211,13.811129012350
$GNGGA,165008.00,3354.49710235,N,11955.32095037,W,2,12,0.8,7.971,M,-37.368,M,17.0,0135*5F
$PYRTM,2024,122.701481602211,13.811129012350
$GNHDT,59.825,T*18
$PYRTM,2024,122.701487339965,13.811134750104
$GNGGA,165008.50,3354.49764829,N,11955.31970616,W,2,12,0.8,7.930,M,-37.368,M,17.4,0135*5B
$PYRTM,2024,122.701487339965,13.811134750104
$GNHDT,59.770,T*17
$PYRTM,2024,122.701493176227,13.811140586366
$GNGGA,165009.00,3354.49818224,N,11955.31846294,W,2,12,0.8,7.859,M,-37.368,M,18.0,0135*53
$PYRTM,2024,122.701493176227,13.811140586366
$GNHDT,59.696,T*1E
$PYRTM,2024,122.701498912685,13.811146322824
$GNGGA,165009.50,3354.49872276,N,11955.31721924,W,2,12,0.8,7.790,M,-37.368,M,18.4,0135*5D
$PYRTM,2024,122.701498912685,13.811146322824
$GNHDT,59.647,T*12
$PYRTM,2024,122.701504751991,13.811152162130
$GNGGA,165010.00,3354.49927825,N,11955.31598408,W,2,12,0.8,7.708,M,-37.368,M,19.0,0135*5A
$PYRTM,2024,122.701504751991,13.811152162130
$GNHDT,59.500,T*12
$PYRTM,2024,122.701510486042,13.811157896181
$GNGGA,165010.50,3354.49984643,N,11955.31476970,W,2,12,0.8,7.649,M,-37.368,M,19.4,0135*5B
$PYRTM,2024,122.701510486042,13.811157896181
$GNHDT,59.430,T*10
$PYRTM,2024,122.701516323426,13.811163733565
$GNGGA,165011.00,3354.50041706,N,11955.31357989,W,2,12,0.8,7.623,M,-37.368,M,20.0,0135*57
$PYRTM,2024,122.701516323426,13.811163733565
$GNHDT,59.392,T*1F
$PYRTM,2024,122.701522061331,13.811169471470
$GNGGA,165011.50,3354.50099439,N,11955.31240251,W,2,12,0.8,7.638,M,-37.368,M,20.4,0135*5F
$PYRTM,2024,122.701522061331,13.811169471470
$GNHDT,59.532,T*13
$PYRTM,2024,122.701527902465,13.811175312616
$GNGGA,165012.00,3354.50157110,N,11955.31122071,W,2,12,0.8,7.670,M,-37.368,M,21.0,0135*5A
$PYRTM,2024,122.701527902465,13.811175312616
$GNHDT,59.508,T*1A
$PYRTM,2024,122.701533636123,13.811181046262
$GNGGA,165012.50,3354.50214195,N,11955.31002636,W,2,12,0.8,7.713,M,-37.368,M,21.4,0135*50
$PYRTM,2024,122.701533636123,13.811181046262
$GNHDT,59.418,T*1A
$PYRTM,2024,122.701539472037,13.811186882176
$GNGGA,165013.00,3354.50270099,N,11955.30881679,W,2,12,0.8,7.732,M,-37.368,M,22.0,0135*56
$PYRTM,2024,122.701539472037,13.811186882176
$GNHDT,59.396,T*1B
$PYRTM,2024,122.701545213056,13.811192623206
$GNGGA,165013.50,3354.50325354,N,11955.30760003,W,2,12,0.8,7.743,M,-37.368,M,22.4,0135*59
$PYRTM,2024,122.701545213056,13.811192623206
$GNHDT,59.557,T*10
$PYRTM,2024,122.701551048588,13.811198458727
$GNGGA,165014.00,3354.50380993,N,11955.30638269,W,2,12,0.8,7.730,M,-37.368,M,23.0,0135*56
$PYRTM,2024,122.701551048588,13.811198458727
$GNHDT,59.630,T*12
$PYRTM,2024,122.701556779699,13.811204189838
$GNGGA,165014.50,3354.50438299,N,11955.30517376,W,2,12,0.8,7.721,M,-37.368,M,23.4,0135*53
$PYRTM,2024,122.701556779699,13.811204189838
$GNHDT,59.636,T*14
$PYRTM,2024,122.701562622500,13.811210032639
$GNGGA,165015.00,3354.50497756,N,11955.30397775,W,2,12,0.8,7.705,M,-37.368,M,24.0,0135*58
$PYRTM,2024,122.701562622500,13.811210032639
$GNHDT,59.834,T*18
$PYRTM,2024,122.701568359120,13.811215769259
$GNGGA,165015.50,3354.50558389,N,11955.30278651,W,2,12,0.8,7.708,M,-37.368,M,24.4,0135*57
$PYRTM,2024,122.701568359120,13.811215769259
$GNHDT,59.728,T*1A
$PYRTM,2024,122.701574192373,13.811221602512
$GNGGA,165016.00,3354.50618930,N,11955.30159455,W,2,12,0.8,7.731,M,-37.368,M,25.0,0135*57
$PYRTM,2024,122.701574192373,13.811221602512
$GNHDT,59.692,T*1A
$PYRTM,2024,122.701579930521,13.811227340660
$GNGGA,165016.50,3354.50678247,N,11955.30039404,W,2,12,0.8,7.766,M,-37.368,M,25.4,0135*5A
$PYRTM,2024,122.701579930521,13.811227340660
$GNHDT,59.810,T*1E
$PYRTM,2024,122.701585768843,13.811233178981
$GNGGA,165017.00,3354.50735856,N,11955.29918203,W,2,12,0.8,7.785,M,-37.368,M,26.0,0135*55
$PYRTM,2024,122.701585768843,13.811233178981
$GNHDT,59.856,T*1C
$PYRTM,2024,122.701591508113,13.811238918252
$GNGGA,165017.50,3354.50792641,N,11955.29795855,W,2,12,0.8,7.802,M,-37.368,M,26.4,0135*53
$PYRTM,2024,122.701591508113,13.811238918252
$GNHDT,59.804,T*1B
$PYRTM,2024,122.701597344387,13.811244754525
$GNGGA,165018.00,3354.50849177,N,11955.29673158,W,2,12,0.8,7.806,M,-37.368,M,27.0,0135*5E
$PYRTM,2024,122.701597344387,13.811244754525
$GNHDT,59.764,T*12
$PYRTM,2024,122.701603079549,13.811250489687
$GNGGA,165018.50,3354.50906388,N,11955.29550843,W,2,12,0.8,7.797,M,-37.368,M,27.4,0135*51
$PYRTM,2024,122.701603079549,13.811250489687
$GNHDT,59.736,T*15
$PYRTM,2024,122.701608915174,13.811256325313
$GNGGA,165019.00,3354.50964702,N,11955.29429324,W,2,12,0.8,7.790,M,-37.368,M,28.0,0135*5E
$PYRTM,2024,122.701608915174,13.811256325313
$GNHDT,59.702,T*12
$PYRTM,2024,122.701614652303,13.811262062442
$GNGGA,165019.50,3354.51022404,N,11955.29309069,W,2,12,0.8,7.808,M,-37.368,M,28.4,0135*51
$PYRTM,2024,122.701614652303,13.811262062442
$GNHDT,59.796,T*1F
$PYRTM,2024,122.701620491146,13.811267901285
$GNGGA,165020.00,3354.51079801,N,11955.29188871,W,2,12,0.8,7.847,M,-37.368,M,29.0,0135*5D
$PYRTM,2024,122.701620491146,13.811267901285
$GNHDT,59.826,T*1B
$PYRTM,2024,122.701626223993,13.811273634132
$GNGGA,165020.50,3354.51136833,N,11955.29068064,W,2,12,0.8,7.863,M,-37.368,M,29.4,0135*52
$PYRTM,2024,122.701626223993,13.811273634132
$GNHDT,59.983,T*15
$PYRTM,2024,122.701632068449,13.811279478600
$GNGGA,165021.00,3354.51193714,N,11955.28945893,W,2,12,0.8,7.836,M,-37.368,M,30.0,0135*58
$PYRTM,2024,122.701632068449,13.811279478600
$GNHDT,60.168,T*12
$PYRTM,2024,122.701637805150,13.811285215289
$GNGGA,165021.50,3354.51249841,N,11955.28822655,W,2,12,0.8,7.764,M,-37.368,M,30.4,0135*5E
$PYRTM,2024,122.701637805150,13.811285215289
$GNHDT,60.122,T*1C
$PYRTM,2024,122.701643638472,13.811291048611
$GNGGA,165022.00,3354.51305142,N,11955.28700218,W,2,12,0.8,7.667,M,-37.368,M,31.0,0135*5E
$PYRTM,2024,122.701643638472,13.811291048611
$GNHDT,60.239,T*15
$PYRTM,2024,122.701649374595,13.811296784734
$GNGGA,165022.50,3354.51359920,N,11955.28578757,W,2,12,0.8,7.597,M,-37.368,M,31.4,0135*55
$PYRTM,2024,122.701649374595,13.811296784734
$GNHDT,60.350,T*1B
$PYRTM,2024,122.701655210498,13.811302620637
$GNGGA,165023.00,3354.51414037,N,11955.28458158,W,2,12,0.8,7.555,M,-37.368,M,32.0,0135*53
$PYRTM,2024,122.701655210498,13.811302620637
$GNHDT,60.287,T*10
$PYRTM,2024,122.701660946991,13.811308357130
$GNGGA,165023.50,3354.51468804,N,11955.28337747,W,2,12,0.8,7.551,M,-37.368,M,32.4,0135*53
$PYRTM,2024,122.701660946991,13.811308357130
$GNHDT,60.284,T*13
$PYRTM,2024,122.701666791042,13.811314201181
$GNGGA,165024.00,3354.51523268,N,11955.28217123,W,2,12,0.8,7.571,M,-37.368,M,33.0,0135*5F
$PYRTM,2024,122.701666791042,13.811314201181
$GNHDT,60.313,T*1C
$PYRTM,2024,122.701672525069,13.811319935208
$GNGGA,165024.50,3354.51578000,N,11955.28096850,W,2,12,0.8,7.592,M,-37.368,M,33.4,0135*57
$PYRTM,2024,122.701672525069,13.811319935208
$GNHDT,60.206,T*19
$PYRTM,2024,122.701678364190,13.811325774329
$GNGGA,165025.00,3354.51632908,N,11955.27977449,W,2,12,0.8,7.621,M,-37.368,M,34.0,0135*5A
$PYRTM,2024,122.701678364190,13.811325774329
$GNHDT,60.010,T*1C
$PYRTM,2024,122.701684096782,13.811331506921
$GNGGA,165025.50,3354.51688686,N,11955.27857783,W,2,12,0.8,7.629,M,-37.368,M,34.4,0135*5D
$PYRTM,2024,122.701684096782,13.811331506921
$GNHDT,60.042,T*1B
$PYRTM,2024,122.701689936053,13.811337346192
$GNGGA,165026.00,3354.51744537,N,11955.27737904,W,2,12,0.8,7.620,M,-37.368,M,35.0,0135*57
$PYRTM,2024,122.701689936053,13.811337346192
$GNHDT,59.916,T*19
$PYRTM,2024,122.701695671725,13.811343081863
$GNGGA,165026.50,3354.51800642,N,11955.27617718,W,2,12,0.8,7.595,M,-37.368,M,35.4,0135*55
$PYRTM,2024,122.701695671725,13.811343081863
$GNHDT,59.803,T*1C
$PYRTM,2024,122.701701510104,13.811348920243
$GNGGA,165027.00,3354.51857620,N,11955.27498221,W,2,12,0.8,7.592,M,-37.368,M,36.0,0135*5D
$PYRTM,2024,122.701701510104,13.811348920243
$GNHDT,59.785,T*1D
$PYRTM,2024,122.701707243079,13.811354653229
$GNGGA,165027.50,3354.51914896,N,11955.27379552,W,2,12,0.8,7.629,M,-37.368,M,36.4,0135*51
$PYRTM,2024,122.701707243079,13.811354653229
$GNHDT,59.861,T*18
$PYRTM,2024,122.701713086667,13.811360496806
$GNGGA,165028.00,3354.51971968,N,11955.27261594,W,2,12,0.8,7.698,M,-37.368,M,37.0,0135*55
$PYRTM,2024,122.701713086667,13.811360496806
$GNHDT,60.022,T*1D
$PYRTM,2024,122.701718818565,13.811366228704
$GNGGA,165028.50,3354.52028153,N,11955.27143125,W,2,12,0.8,7.812,M,-37.368,M,37.4,0135*53
$PYRTM,2024,122.701718818565,13.811366228704
$GNHDT,60.032,T*1C
$PYRTM,2024,122.701724661725,13.811372071852
$GNGGA,165029.00,3354.52083563,N,11955.27023553,W,2,12,0.8,7.927,M,-37.368,M,38.0,0135*5F
$PYRTM,2024,122.701724661725,13.811372071852
$GNHDT,60.214,T*1A
$PYRTM,2024,122.701730391134,13.811377801273
$GNGGA,165029.50,3354.52139319,N,11955.26901496,W,2,12,0.8,7.995,M,-37.368,M,38.4,0135*5C
$PYRTM,2024,122.701730391134,13.811377801273
$GNHDT,60.191,T*14
$PYRTM,2024,122.701736230706,13.811383640845
$GNGGA,165030.00,3354.52196914,N,11955.26776623,W,2,12,0.8,7.980,M,-37.368,M,39.0,0135*50
$PYRTM,2024,122.701736230706,13.811383640845
$GNHDT,60.250,T*1A
$PYRTM,2024,122.701741965220,13.811389375370
$GNGGA,165030.50,3354.52256931,N,11955.26651542,W,2,12,0.8,7.907,M,-37.368,M,39.4,0135*56
$PYRTM,2024,122.701741965220,13.811389375370
$GNHDT,60.248,T*13
$PYRTM,2024,122.701747806424,13.811395216562
$GNGGA,165031.00,3354.52317844,N,11955.26527411,W,2,12,0.8,7.813,M,-37.368,M,40.0,0135*5E
$PYRTM,2024,122.701747806424,13.811395216562
$GNHDT,60.389,T*1F
$PYRTM,2024,122.701753544606,13.811400954745
$GNGGA,165031.50,3354.52378075,N,11955.26404817,W,2,12,0.8,7.753,M,-37.369,M,40.4,0135*5C
$PYRTM,2024,122.701753544606,13.811400954745
$GNHDT,60.599,T*18
$PYRTM,2024,122.701759381782,13.811406791921
$GNGGA,165032.00,3354.52437476,N,11955.26281943,W,2,12,0.8,7.725,M,-37.369,M,41.0,0135*5E
$PYRTM,2024,122.701759381782,13.811406791921
$GNHDT,60.763,T*1F
$PYRTM,2024,122.701765112801,13.811412522940
$GNGGA,165032.50,3354.52495618,N,11955.26157586,W,2,12,0.8,7.707,M,-37.369,M,41.4,0135*50
$PYRTM,2024,122.701765112801,13.811412522940
$GNHDT,60.732,T*1B
$PYRTM,2024,122.701770956956,13.811418367106
$GNGGA,165033.00,3354.52553694,N,11955.26031300,W,2,12,0.8,7.675,M,-37.369,M,42.0,0135*51
$PYRTM,2024,122.701770956956,13.811418367106
$GNHDT,60.612,T*18
$PYRTM,2024,122.701776687697,13.811424097836
$GNGGA,165033.50,3354.52612321,N,11955.25903955,W,2,12,0.8,7.631,M,-37.369,M,42.4,0135*5C
$PYRTM,2024,122.701776687697,13.811424097836
$GNHDT,60.472,T*1C
$PYRTM,2024,122.701782526076,13.811429936215
$GNGGA,165034.00,3354.52670993,N,11955.25777455,W,2,12,0.8,7.595,M,-37.369,M,43.0,0135*51
$PYRTM,2024,122.701782526076,13.811429936215
$GNHDT,60.328,T*14
$PYRTM,2024,122.701788262917,13.811435673056
$GNGGA,165034.50,3354.52729722,N,11955.25652936,W,2,12,0.8,7.586,M,-37.369,M,43.4,0135*55
$PYRTM,2024,122.701788262917,13.811435673056
$GNHDT,60.194,T*11
$PYRTM,2024,122.701794101262,13.811441511400
$GNGGA,165035.00,3354.52787604,N,11955.25530301,W,2,12,0.8,7.623,M,-37.369,M,44.0,0135*56
$PYRTM,2024,122.701794101262,13.811441511400
$GNHDT,59.990,T*17
$PYRTM,2024,122.701799835787,13.811447245926
$GNGGA,165035.50,3354.52844999,N,11955.25408506,W,2,12,0.8,7.683,M,-37.369,M,44.4,0135*5D
$PYRTM,2024,122.701799835787,13.811447245926
$GNHDT,59.958,T*13
$PYRTM,2024,122.701805680972,13.811453091111
$GNGGA,165036.00,3354.52901403,N,11955.25287314,W,2,12,0.8,7.740,M,-37.369,M,45.0,0135*5A
$PYRTM,2024,122.701805680972,13.811453091111
$GNHDT,59.834,T*18
$PYRTM,2024,122.701811412778,13.811458822917
$GNGGA,165036.50,3354.52956870,N,11955.25165761,W,2,12,0.8,7.767,M,-37.369,M,45.4,0135*5D
$PYRTM,2024,122.701811412778,13.811458822917
$GNHDT,59.641,T*14
$PYRTM,2024,122.701817248935,13.811464659074
$GNGGA,165037.00,3354.53010545,N,11955.25044469,W,2,12,0.8,7.755,M,-37.369,M,46.0,0135*57
$PYRTM,2024,122.701817248935,13.811464659074
$GNHDT,59.606,T*17
$PYRTM,2024,122.701822988519,13.811470398657
$GNGGA,165037.50,3354.53064271,N,11955.24922982,W,2,12,0.8,7.722,M,-37.369,M,46.4,0135*55
$PYRTM,2024,122.701822988519,13.811470398657
$GNHDT,59.767,T*11
$PYRTM,2024,122.701828825405,13.811476235544
$GNGGA,165038.00,3354.53118073,N,11955.24802722,W,2,12,0.8,7.649,M,-37.369,M,47.0,0135*5B
$PYRTM,2024,122.701828825405,13.811476235544
$GNHDT,59.711,T*10
$PYRTM,2024,122.701834560926,13.811481971065
$GNGGA,165038.50,3354.53174137,N,11955.24683258,W,2,12,0.8,7.574,M,-37.369,M,47.4,0135*53
$PYRTM,2024,122.701834560926,13.811481971065
$GNHDT,59.741,T*15
$PYRTM,2024,122.701840401157,13.811487811296
$GNGGA,165039.00,3354.53231449,N,11955.24565221,W,2,12,0.8,7.510,M,-37.369,M,48.0,0135*55
$PYRTM,2024,122.701840401157,13.811487811296
$GNHDT,59.761,T*17
$PYRTM,2024,122.701846132153,13.811493542292
$GNGGA,165039.50,3354.53288884,N,11955.24449047,W,2,12,0.8,7.479,M,-37.369,M,48.4,0135*58
$PYRTM,2024,122.701846132153,13.811493542292
$GNHDT,59.708,T*18
$PYRTM,2024,122.701852017234,13.811499427373
$GNGGA,165040.00,3354.53344611,N,11955.24334581,W,2,12,0.8,7.494,M,-37.369,M,49.0,0135*54
$PYRTM,2024,122.701852017234,13.811499427373
$GNHDT,59.898,T*1E
$PYRTM,2024,122.701857710486,13.811505120637
$GNGGA,165040.50,3354.53399283,N,11955.24218635,W,2,12,0.8,7.533,M,-37.369,M,49.4,0135*55
$PYRTM,2024,122.701857710486,13.811505120637
$GNHDT,60.066,T*1D
$PYRTM,2024,122.701863545590,13.811510955729
$GNGGA,165041.00,3354.53453723,N,11955.24099788,W,2,12,0.8,7.561,M,-37.369,M,50.0,0135*58
$PYRTM,2024,122.701863545590,13.811510955729
$GNHDT,60.073,T*19
$PYRTM,2024,122.701869280475,13.811516690613
$GNGGA,165041.50,3354.53508980,N,11955.23978663,W,2,12,0.8,7.559,M,-37.369,M,50.4,0135*5F
$PYRTM,2024,122.701869280475,13.811516690613
$GNHDT,60.069,T*12
$PYRTM,2024,122.701875123079,13.811522533229
$GNGGA,165042.00,3354.53565410,N,11955.23856338,W,2,12,0.8,7.527,M,-37.369,M,51.0,0135*5C
$PYRTM,2024,122.701875123079,13.811522533229
$GNHDT,59.998,T*1F
$PYRTM,2024,122.701880853762,13.811528263900
$GNGGA,165042.50,3354.53622440,N,11955.23734515,W,2,12,0.8,7.488,M,-37.369,M,51.4,0135*5E
$PYRTM,2024,122.701880853762,13.811528263900
$GNHDT,59.895,T*13
$PYRTM,2024,122.701886696181,13.811534106319
$GNGGA,165043.00,3354.53681056,N,11955.23612997,W,2,12,0.8,7.487,M,-37.369,M,52.0,0135*5B
$PYRTM,2024,122.701886696181,13.811534106319
$GNHDT,59.999,T*1E
$PYRTM,2024,122.701892432743,13.811539842882
$GNGGA,165043.50,3354.53740640,N,11955.23492025,W,2,12,0.8,7.535,M,-37.369,M,52.4,0135*55
$PYRTM,2024,122.701892432743,13.811539842882
$GNHDT,60.142,T*1A
$PYRTM,2024,122.701898268912,13.811545679051
$GNGGA,165044.00,3354.53800711,N,11955.23370589,W,2,12,0.8,7.620,M,-37.369,M,53.0,0135*53
$PYRTM,2024,122.701898268912,13.811545679051
$GNHDT,60.228,T*15
$PYRTM,2024,122.701904002720,13.811551412859
$GNGGA,165044.50,3354.53861468,N,11955.23247602,W,2,12,0.8,7.719,M,-37.369,M,53.4,0135*56
$PYRTM,2024,122.701904002720,13.811551412859
$GNHDT,60.223,T*1E
$PYRTM,2024,122.701909845984,13.811557256123
$GNGGA,165045.00,3354.53922358,N,11955.23122339,W,2,12,0.8,7.795,M,-37.369,M,54.0,0135*5A
$PYRTM,2024,122.701909845984,13.811557256123
$GNHDT,60.115,T*18
$PYRTM,2024,122.701915577153,13.811562987292
$GNGGA,165045.50,3354.53982850,N,11955.22995372,W,2,12,0.8,7.839,M,-37.369,M,54.4,0135*51
$PYRTM,2024,122.701915577153,13.811562987292
$GNHDT,60.100,T*1C
$PYRTM,2024,122.701921417303,13.811568827442
$GNGGA,165046.00,3354.54042390,N,11955.22867448,W,2,12,0.8,7.856,M,-37.369,M,55.0,0135*5C
$PYRTM,2024,122.701921417303,13.811568827442
$GNHDT,60.091,T*15
$PYRTM,2024,122.701927155150,13.811574565289
$GNGGA,165046.50,3354.54101340,N,11955.22740188,W,2,12,0.8,7.877,M,-37.369,M,55.4,0135*56
$PYRTM,2024,122.701927155150,13.811574565289
$GNHDT,59.979,T*10
$PYRTM,2024,122.701932995370,13.811580405509
$GNGGA,165047.00,3354.54159457,N,11955.22613771,W,2,12,0.8,7.885,M,-37.369,M,56.0,0135*53
$PYRTM,2024,122.701932995370,13.811580405509
$GNHDT,60.032,T*1C
$PYRTM,2024,122.701938725023,13.811586135162
$GNGGA,165047.50,3354.54218916,N,11955.22487879,W,2,12,0.8,7.891,M,-37.369,M,56.4,0135*51
$PYRTM,2024,122.701938725023,13.811586135162
$GNHDT,59.941,T*1B
$PYRTM,2024,122.701944570081,13.811591980220
$GNGGA,165048.00,3354.54279067,N,11955.22362625,W,2,12,0.8,7.872,M,-37.369,M,57.0,0135*50
$PYRTM,2024,122.701944570081,13.811591980220
$GNHDT,59.812,T*1C
$PYRTM,2024,122.701950301748,13.811597711887
$GNGGA,165048.50,3354.54340039,N,11955.22237719,W,2,12,0.8,7.834,M,-37.369,M,57.4,0135*5C
$PYRTM,2024,122.701950301748,13.811597711887
$GNHDT,59.670,T*16
$PYRTM,2024,122.701956142245,13.811603552384
$GNGGA,165049.00,3354.54400138,N,11955.22114230,W,2,12,0.8,7.771,M,-37.369,M,58.0,0135*52
$PYRTM,2024,122.701956142245,13.811603552384
$GNHDT,59.737,T*14
$PYRTM,2024,122.701961876076,13.811609286215
$GNGGA,165049.50,3354.54458758,N,11955.21991840,W,2,12,0.8,7.699,M,-37.369,M,58.4,0135*52
$PYRTM,2024,122.701961876076,13.811609286215
$GNHDT,59.560,T*14
$PYRTM,2024,122.701967713021,13.811615123160
$GNGGA,165050.00,3354.54515927,N,11955.21870624,W,2,12,0.8,7.622,M,-37.369,M,59.0,0135*56
$PYRTM,2024,122.701967713021,13.811615123160
$GNHDT,59.437,T*17
$PYRTM,2024,122.701973447315,13.811620857454
$GNGGA,165050.50,3354.54572153,N,11955.21749944,W,2,12,0.8,7.554,M,-37.369,M,59.4,0135*53
$PYRTM,2024,122.701973447315,13.811620857454
$GNHDT,59.421,T*10
$PYRTM,2024,122.701979289375,13.811626699514
$GNGGA,165051.00,3354.54627623,N,11955.21630457,W,2,12,0.8,7.491,M,-37.369,M,60.0,0135*52
$PYRTM,2024,122.701979289375,13.811626699514
$GNHDT,59.386,T*1A
$PYRTM,2024,122.701985020937,13.811632431076
$GNGGA,165051.50,3354.54683272,N,11955.21512057,W,2,12,0.8,7.441,M,-37.369,M,60.4,0135*57
$PYRTM,2024,122.701985020937,13.811632431076
$GNHDT,59.338,T*1F
$PYRTM,2024,122.701990866447,13.811638276586
$GNGGA,165052.00,3354.54740903,N,11955.21395225,W,2,12,0.8,7.406,M,-37.369,M,61.0,0135*5A
$PYRTM,2024,122.701990866447,13.811638276586
$GNHDT,59.399,T*14
$PYRTM,2024,122.701996600208,13.811644010347
$GNGGA,165052.50,3354.54799612,N,11955.21279689,W,2,12,0.8,7.393,M,-37.369,M,61.4,0135*5A
$PYRTM,2024,122.701996600208,13.811644010347
$GNHDT,59.433,T*13
$PYRTM,2024,122.702002435521,13.811649845660
$GNGGA,165053.00,3354.54857514,N,11955.21164658,W,2,12,0.8,7.387,M,-37.369,M,62.0,0135*57
$PYRTM,2024,122.702002435521,13.811649845660
$GNHDT,59.593,T*18
$PYRTM,2024,122.702008168773,13.811655578912
$GNGGA,165053.50,3354.54914388,N,11955.21047333,W,2,12,0.8,7.374,M,-37.369,M,62.4,0135*57
$PYRTM,2024,122.702008168773,13.811655578912
$GNHDT,59.695,T*1D
$PYRTM,2024,122.702014010174,13.811661420312
$GNGGA,165054.00,3354.54969852,N,11955.20927394,W,2,12,0.8,7.356,M,-37.369,M,63.0,0135*55
$PYRTM,2024,122.702014010174,13.811661420312
$GNHDT,59.967,T*1F
$PYRTM,2024,122.702019746354,13.811667156493
$GNGGA,165054.50,3354.55025107,N,11955.20806374,W,2,12,0.8,7.334,M,-37.369,M,63.4,0135*55
$PYRTM,2024,122.702019746354,13.811667156493
$GNHDT,60.122,T*1C
$PYRTM,2024,122.702025585197,13.811672995347
$GNGGA,165055.00,3354.55080177,N,11955.20684961,W,2,12,0.8,7.342,M,-37.369,M,64.0,0135*51
$PYRTM,2024,122.702025585197,13.811672995347
$GNHDT,60.275,T*1D
$PYRTM,2024,122.702031319595,13.811678729734
$GNGGA,165055.50,3354.55136091,N,11955.20563811,W,2,12,0.8,7.383,M,-37.369,M,64.4,0135*54
$PYRTM,2024,122.702031319595,13.811678729734
$GNHDT,60.257,T*1D
$PYRTM,2024,122.702037163623,13.811684573762
$GNGGA,165056.00,3354.55193487,N,11955.20442624,W,2,12,0.8,7.477,M,-37.369,M,65.0,0135*5D
$PYRTM,2024,122.702037163623,13.811684573762
$GNHDT,60.290,T*16
$PYRTM,2024,122.702042894086,13.811690304225
$GNGGA,165056.50,3354.55253280,N,11955.20321276,W,2,12,0.8,7.606,M,-37.369,M,65.4,0135*57
$PYRTM,2024,122.702042894086,13.811690304225
$GNHDT,60.306,T*18
$PYRTM,2024,122.702048736748,13.811696146887
$GNGGA,165057.00,3354.55315448,N,11955.20199347,W,2,12,0.8,7.750,M,-37.369,M,66.0,0135*55
$PYRTM,2024,122.702048736748,13.811696146887
$GNHDT,60.233,T*1F
$PYRTM,2024,122.702054485764,13.811701895903
$GNGGA,165057.50,3354.55379001,N,11955.20077377,W,2,12,0.8,7.869,M,-37.369,M,66.4,0135*50
$PYRTM,2024,122.702054485764,13.811701895903
$GNHDT,60.238,T*14
$PYRTM,2024,122.702060308924,13.811707719062
$GNGGA,165058.00,3354.55441798,N,11955.19955446,W,2,12,0.8,7.945,M,-37.369,M,67.0,0135*5D
$PYRTM,2024,122.702060308924,13.811707719062
$GNHDT,60.146,T*1E
$PYRTM,2024,122.702066041169,13.811713451308
$GNGGA,165058.50,3354.55503556,N,11955.19832633,W,2,12,0.8,7.974,M,-37.369,M,67.4,0135*59
$PYRTM,2024,122.702066041169,13.811713451308
$GNHDT,59.825,T*18
$PYRTM,2024,122.702071877905,13.811719288044
$GNGGA,165059.00,3354.55562730,N,11955.19708901,W,2,12,0.8,7.965,M,-37.369,M,68.0,0135*5B
$PYRTM,2024,122.702071877905,13.811719288044
$GNHDT,59.647,T*12
$PYRTM,2024,122.702077613866,13.811725024005
$GNGGA,165059.50,3354.55619794,N,11955.19583884,W,2,12,0.8,7.920,M,-37.369,M,68.4,0135*57
$PYRTM,2024,122.702077613866,13.811725024005
$GNHDT,59.666,T*11
$PYRTM,2024,122.702083454711,13.811730864850
$GNGGA,165100.00,3354.55675976,N,11955.19457350,W,2,12,0.8,7.855,M,-37.369,M,69.0,0135*5B
$PYRTM,2024,122.702083454711,13.811730864850
$GNHDT,59.561,T*15
$PYRTM,2024,122.702089190868,13.811736601007
$GNGGA,165100.50,3354.55732441,N,11955.19330798,W,2,12,0.8,7.770,M,-37.369,M,69.4,0135*5F
$PYRTM,2024,122.702089190868,13.811736601007
$GNHDT,59.606,T*17
$PYRTM,2024,122.702095025683,13.811742435822
$GNGGA,165101.00,3354.55790144,N,11955.19205673,W,2,12,0.8,7.685,M,-37.369,M,70.0,0135*57
$PYRTM,2024,122.702095025683,13.811742435822
$GNHDT,59.576,T*13
$PYRTM,2024,122.702100763947,13.811748174086
$GNGGA,165101.50,3354.55849206,N,11955.19083200,W,2,12,0.8,7.641,M,-37.369,M,70.4,0135*5C
$PYRTM,2024,122.702100763947,13.811748174086
$GNHDT,59.566,T*12
$PYRTM,2024,122.702106604375,13.811754014514
$GNGGA,165102.00,3354.55909931,N,11955.18963202,W,2,12,0.8,7.627,M,-37.369,M,71.0,0135*51
$PYRTM,2024,122.702106604375,13.811754014514
$GNHDT,59.827,T*1A
$PYRTM,2024,122.702112341296,13.811759751435
$GNGGA,165102.50,3354.55971412,N,11955.18845213,W,2,12,0.8,7.651,M,-37.369,M,71.4,0135*57
$PYRTM,2024,122.702112341296,13.811759751435
$GNHDT,59.848,T*13
$PYRTM,2024,122.702118177928,13.811765588067
$GNGGA,165103.00,3354.56032791,N,11955.18728093,W,2,12,0.8,7.671,M,-37.369,M,72.0,0135*5D
$PYRTM,2024,122.702118177928,13.811765588067
$GNHDT,59.947,T*1D
$PYRTM,2024,122.702123912870,13.811771323009
$GNGGA,165103.50,3354.56092196,N,11955.18609563,W,2,12,0.8,7.655,M,-37.369,M,72.4,0135*59
$PYRTM,2024,122.702123912870,13.811771323009
$GNHDT,60.043,T*1A
$PYRTM,2024,122.702129753449,13.811777163588
$GNGGA,165104.00,3354.56149330,N,11955.18489231,W,2,12,0.8,7.608,M,-37.369,M,73.0,0135*55
$PYRTM,2024,122.702129753449,13.811777163588
$GNHDT,60.151,T*18
$PYRTM,2024,122.702135485475,13.811782895613
$GNGGA,165104.50,3354.56204184,N,11955.18367786,W,2,12,0.8,7.538,M,-37.369,M,73.4,0135*5D
$PYRTM,2024,122.702135485475,13.811782895613
$GNHDT,60.364,T*1C
$PYRTM,2024,122.702141322292,13.811788732431
$GNGGA,165105.00,3354.56257343,N,11955.18245409,W,2,12,0.8,7.447,M,-37.369,M,74.0,0135*59
$PYRTM,2024,122.702141322292,13.811788732431
$GNHDT,60.457,T*1B
$PYRTM,2024,122.702147061331,13.811794471470
$GNGGA,165105.50,3354.56309348,N,11955.18123588,W,2,12,0.8,7.377,M,-37.369,M,74.4,0135*56
$PYRTM,2024,122.702147061331,13.811794471470
$GNHDT,60.330,T*1D
$PYRTM,2024,122.702152899155,13.811800309294
$GNGGA,165106.00,3354.56362257,N,11955.18003104,W,2,12,0.8,7.336,M,-37.369,M,75.0,0135*51
$PYRTM,2024,122.702152899155,13.811800309294
$GNHDT,60.326,T*1A
$PYRTM,2024,122.702158633264,13.811806043414
$GNGGA,165106.50,3354.56417670,N,11955.17884161,W,2,12,0.8,7.327,M,-37.369,M,75.4,0135*5F
$PYRTM,2024,122.702158633264,13.811806043414
$GNHDT,60.492,T*12
$PYRTM,2024,122.702164473102,13.811811883241
$GNGGA,165107.00,3354.56475600,N,11955.17766917,W,2,12,0.8,7.344,M,-37.369,M,76.0,0135*50
$PYRTM,2024,122.702164473102,13.811811883241
$GNHDT,60.548,T*14
$PYRTM,2024,122.702170211644,13.811817621782
$GNGGA,165107.50,3354.56534252,N,11955.17650519,W,2,12,0.8,7.385,M,-37.369,M,76.4,0135*5D
$PYRTM,2024,122.702170211644,13.811817621782
$GNHDT,60.624,T*1D
$PYRTM,2024,122.702176049468,13.811823459606
$GNGGA,165108.00,3354.56591862,N,11955.17533987,W,2,12,0.8,7.452,M,-37.369,M,77.0,0135*54
$PYRTM,2024,122.702176049468,13.811823459606
$GNHDT,60.665,T*18
$PYRTM,2024,122.702181782951,13.811829193090
$GNGGA,165108.50,3354.56648555,N,11955.17415424,W,2,12,0.8,7.514,M,-37.369,M,77.4,0135*59
$PYRTM,2024,122.702181782951,13.811829193090
$GNHDT,60.503,T*1B
$PYRTM,2024,122.702187623727,13.811835033866
$GNGGA,165109.00,3354.56704804,N,11955.17294340,W,2,12,0.8,7.547,M,-37.369,M,78.0,0135*5A
$PYRTM,2024,122.702187623727,13.811835033866
$GNHDT,60.285,T*12
$PYRTM,2024,122.702193362072,13.811840772211
$GNGGA,165109.50,3354.56761616,N,11955.17172036,W,2,12,0.8,7.549,M,-37.369,M,78.4,0135*52
$PYRTM,2024,122.702193362072,13.811840772211
$GNHDT,59.845,T*1E
$PYRTM,2024,122.702199196505,13.811846606644
$GNGGA,165110.00,3354.56819626,N,11955.17049012,W,2,12,0.8,7.545,M,-37.369,M,79.0,0135*5A
$PYRTM,2024,122.702199196505,13.811846606644
$GNHDT,59.698,T*10
$PYRTM,2024,122.702204932234,13.811852342373
$GNGGA,165110.50,3354.56877688,N,11955.16926621,W,2,12,0.8,7.566,M,-37.369,M,79.4,0135*51
$PYRTM,2024,122.702204932234,13.811852342373
$GNHDT,59.666,T*11
$PYRTM,2024,122.702210771968,13.811858182106
$GNGGA,165111.00,3354.56936013,N,11955.16803751,W,2,12,0.8,7.581,M,-37.369,M,80.0,0135*5E
$PYRTM,2024,122.702210771968,13.811858182106
$GNHDT,59.404,T*17
$PYRTM,2024,122.702216502882,13.811863913021
$GNGGA,165111.50,3354.56994956,N,11955.16680713,W,2,12,0.8,7.628,M,-37.369,M,80.4,0135*5C
$PYRTM,2024,122.702216502882,13.811863913021
$GNHDT,59.151,T*12
$PYRTM,2024,122.702222351528,13.811869761667
$GNGGA,165112.00,3354.57055254,N,11955.16557382,W,2,12,0.8,7.671,M,-37.369,M,81.0,0135*5A
$PYRTM,2024,122.702222351528,13.811869761667
$GNHDT,59.024,T*11
$PYRTM,2024,122.702228077130,13.811875487269
$GNGGA,165112.50,3354.57116495,N,11955.16434572,W,2,12,0.8,7.715,M,-37.369,M,81.4,0135*58
$PYRTM,2024,122.702228077130,13.811875487269
$GNHDT,58.843,T*19
$PYRTM,2024,122.702233919282,13.811881329421
$GNGGA,165113.00,3354.57179399,N,11955.16311488,W,2,12,0.8,7.729,M,-37.369,M,82.0,0135*52
$PYRTM,2024,122.702233919282,13.811881329421
$GNHDT,58.577,T*13
$PYRTM,2024,122.702239655579,13.811887065718
$GNGGA,165113.50,3354.57242565,N,11955.16189234,W,2,12,0.8,7.722,M,-37.369,M,82.4,0135*54
$PYRTM,2024,122.702239655579,13.811887065718
$GNHDT,58.624,T*16
$PYRTM,2024,122.702245490613,13.811892900764
$GNGGA,165114.00,3354.57304647,N,11955.16067792,W,2,12,0.8,7.718,M,-37.369,M,83.0,0135*52
$PYRTM,2024,122.702245490613,13.811892900764
$GNHDT,58.717,T*17
$PYRTM,2024,122.702251227072,13.811898637211
$GNGGA,165114.50,3354.57365060,N,11955.15946821,W,2,12,0.8,7.741,M,-37.369,M,83.4,0135*55
$PYRTM,2024,122.702251227072,13.811898637211
$GNHDT,58.823,T*1F
$PYRTM,2024,122.702257069144,13.811904479282
$GNGGA,165115.00,3354.57423001,N,11955.15825705,W,2,12,0.8,7.767,M,-37.369,M,84.0,0135*59
$PYRTM,2024,122.702257069144,13.811904479282
$GNHDT,59.013,T*15
$PYRTM,2024,122.702262805313,13.811910215451
$GNGGA,165115.50,3354.57479937,N,11955.15703499,W,2,12,0.8,7.772,M,-37.369,M,84.4,0135*52
$PYRTM,2024,122.702262805313,13.811910215451
$GNHDT,59.104,T*12
$PYRTM,2024,122.702268637118,13.811916047257
$GNGGA,165116.00,3354.57536642,N,11955.15580984,W,2,12,0.8,7.724,M,-37.369,M,85.0,0135*5D
$PYRTM,2024,122.702268637118,13.811916047257
$GNHDT,59.402,T*11
$PYRTM,2024,122.702274376690,13.811921786829
$GNGGA,165116.50,3354.57593768,N,11955.15458474,W,2,12,0.8,7.629,M,-37.369,M,85.4,0135*50
$PYRTM,2024,122.702274376690,13.811921786829
$GNHDT,59.802,T*1D
$PYRTM,2024,122.702280214757,13.811927624896
$GNGGA,165117.00,3354.57651360,N,11955.15337685,W,2,12,0.8,7.496,M,-37.369,M,86.0,0135*56
$PYRTM,2024,122.702280214757,13.811927624896
$GNHDT,59.924,T*18
$PYRTM,2024,122.702285945949,13.811933356088
$GNGGA,165117.50,3354.57709180,N,11955.15218809,W,2,12,0.8,7.383,M,-37.369,M,86.4,0135*52
$PYRTM,2024,122.702285945949,13.811933356088
$GNHDT,60.139,T*16
$PYRTM,2024,122.702291792049,13.811939202188
$GNGGA,165118.00,3354.57767241,N,11955.15100789,W,2,12,0.8,7.303,M,-37.369,M,87.0,0135*5E
$PYRTM,2024,122.702291792049,13.811939202188
$GNHDT,60.146,T*1E
$PYRTM,2024,122.702297520058,13.811944930197
$GNGGA,165118.50,3354.57825128,N,11955.14982207,W,2,12,0.8,7.267,M,-37.369,M,87.4,0135*59
$PYRTM,2024,122.702297520058,13.811944930197
$GNHDT,60.238,T*14
$PYRTM,2024,122.702303363252,13.811950773391
$GNGGA,165119.00,3354.57883417,N,11955.14863877,W,2,12,0.8,7.281,M,-37.369,M,88.0,0135*58
$PYRTM,2024,122.702303363252,13.811950773391
$GNHDT,60.223,T*1E
$PYRTM,2024,122.702309098900,13.811956509039
$GNGGA,165119.50,3354.57942160,N,11955.14745919,W,2,12,0.8,7.342,M,-37.369,M,88.4,0135*5C
$PYRTM,2024,122.702309098900,13.811956509039
$GNHDT,60.002,T*1F
$PYRTM,2024,122.702314937940,13.811962348079
$GNGGA,165120.00,3354.58001659,N,11955.14627886,W,2,12,0.8,7.415,M,-37.369,M,89.0,0135*5D
$PYRTM,2024,122.702314937940,13.811962348079
$GNHDT,59.836,T*1A
$PYRTM,2024,122.702320672766,13.811968082905
$GNGGA,165120.50,3354.58060593,N,11955.14509572,W,2,12,0.8,7.492,M,-37.369,M,89.4,0135*58
$PYRTM,2024,122.702320672766,13.811968082905
$GNHDT,59.810,T*1E
$PYRTM,2024,122.702326516991,13.811973927130
$GNGGA,165121.00,3354.58117505,N,11955.14390116,W,2,12,0.8,7.597,M,-37.369,M,90.0,0135*5A
$PYRTM,2024,122.702326516991,13.811973927130
$GNHDT,59.838,T*14
$PYRTM,2024,122.702332244919,13.811979655058
$GNGGA,165121.50,3354.58172141,N,11955.14269243,W,2,12,0.8,7.690,M,-37.369,M,90.4,0135*5C
$PYRTM,2024,122.702332244919,13.811979655058
$GNHDT,59.724,T*16
$PYRTM,2024,122.702338086632,13.811985496771
$GNGGA,165122.00,3354.58226681,N,11955.14146459,W,2,12,0.8,7.750,M,-37.369,M,91.0,0135*58
$PYRTM,2024,122.702338086632,13.811985496771
$GNHDT,59.635,T*17
$PYRTM,2024,122.702343818947,13.811991229097
$GNGGA,165122.50,3354.58283736,N,11955.14022979,W,2,12,0.8,7.762,M,-37.369,M,91.4,0135*56
$PYRTM,2024,122.702343818947,13.811991229097
$GNHDT,59.501,T*13
$PYRTM,2024,122.702349661539,13.811997071690
$GNGGA,165123.00,3354.58343099,N,11955.13900336,W,2,12,0.8,7.772,M,-37.369,M,92.0,0135*54
$PYRTM,2024,122.702349661539,13.811997071690
$GNHDT,59.295,T*19
$PYRTM,2024,122.702355391134,13.812002801273
$GNGGA,165123.50,3354.58403381,N,11955.13779784,W,2,12,0.8,7.802,M,-37.369,M,92.4,0135*59
$PYRTM,2024,122.702355391134,13.812002801273
$GNHDT,59.572,T*17
$PYRTM,2024,122.702361235185,13.812008645324
$GNGGA,165124.00,3354.58463655,N,11955.13660098,W,2,12,0.8,7.865,M,-37.369,M,93.0,0135*56
$PYRTM,2024,122.702361235185,13.812008645324
$GNHDT,59.609,T*18
$PYRTM,2024,122.702366967743,13.812014377882
$GNGGA,165124.50,3354.58523902,N,11955.13540424,W,2,12,0.8,7.932,M,-37.369,M,93.4,0135*5E
$PYRTM,2024,122.702366967743,13.812014377882
$GNHDT,59.583,T*19
$PYRTM,2024,122.702372803600,13.812020213750
$GNGGA,165125.00,3354.58584664,N,11955.13418708,W,2,12,0.8,7.978,M,-37.369,M,94.0,0135*54
$PYRTM,2024,122.702372803600,13.812020213750
$GNHDT,59.626,T*15
$PYRTM,2024,122.702378545069,13.812025955208
$GNGGA,165125.50,3354.58646431,N,11955.13295679,W,2,12,0.8,7.959,M,-37.369,M,94.4,0135*5D
$PYRTM,2024,122.702378545069,13.812025955208
$GNHDT,59.562,T*16
$PYRTM,2024,122.702384380532,13.812031790671
$GNGGA,165126.00,3354.58709042,N,11955.13172539,W,2,12,0.8,7.911,M,-37.369,M,95.0,0135*55
$PYRTM,2024,122.702384380532,13.812031790671
$GNHDT,59.531,T*10
$PYRTM,2024,122.702390114329,13.812037524468
$GNGGA,165126.50,3354.58770905,N,11955.13050696,W,2,12,0.8,7.853,M,-37.369,M,95.4,0135*50
$PYRTM,2024,122.702390114329,13.812037524468
$GNHDT,59.717,T*16
$PYRTM,2024,122.702395959907,13.812043370058
$GNGGA,165127.00,3354.58830383,N,11955.12929040,W,2,12,0.8,7.807,M,-37.369,M,96.0,0135*56
$PYRTM,2024,122.702395959907,13.812043370058
$GNHDT,59.910,T*1F
$PYRTM,2024,122.702401690718,13.812049100868
$GNGGA,165127.50,3354.58887461,N,11955.12807183,W,2,12,0.8,7.773,M,-37.369,M,96.4,0135*5F
$PYRTM,2024,122.702401690718,13.812049100868
$GNHDT,59.959,T*12
$PYRTM,2024,122.702407528819,13.812054938970
$GNGGA,165128.00,3354.58943163,N,11955.12685127,W,2,12,0.8,7.780,M,-37.369,M,97.0,0135*58
$PYRTM,2024,122.702407528819,13.812054938970
$GNHDT,60.089,T*1C
$PYRTM,2024,122.702413262940,13.812060673079
$GNGGA,165128.50,3354.58999040,N,11955.12563301,W,2,12,0.8,7.790,M,-37.369,M,97.4,0135*52
$PYRTM,2024,122.702413262940,13.812060673079
$GNHDT,60.285,T*12
$PYRTM,2024,122.702419106238,13.812066516377
$GNGGA,165129.00,3354.59056971,N,11955.12442184,W,2,12,0.8,7.794,M,-37.369,M,98.0,0135*54
$PYRTM,2024,122.702419106238,13.812066516377
$GNHDT,60.327,T*1B
$PYRTM,2024,122.702424840127,13.812072250266
$GNGGA,165129.50,3354.59116128,N,11955.12322597,W,2,12,0.8,7.794,M,-37.369,M,98.4,0135*53
$PYRTM,2024,122.702424840127,13.812072250266
$GNHDT,60.349,T*13
$PYRTM,2024,122.702430681204,13.812078091343
$GNGGA,165130.00,3354.59176075,N,11955.12204458,W,2,12,0.8,7.805,M,-37.369,M,99.0,0135*54
$PYRTM,2024,122.702430681204,13.812078091343
$GNHDT,60.635,T*1D
$PYRTM,2024,122.702436414282,13.812083824433
$GNGGA,165130.50,3354.59235872,N,11955.12087044,W,2,12,0.8,7.812,M,-37.369,M,99.4,0135*58
$PYRTM,2024,122.702436414282,13.812083824433
$GNHDT,60.432,T*18
$PYRTM,2024,122.702442254873,13.812089665012
$GNGGA,165131.00,3354.59294611,N,11955.11968796,W,2,12,0.8,7.845,M,-37.369,M,100.0,0135*68
$PYRTM,2024,122.702442254873,13.812089665012
$GNHDT,60.343,T*19
$PYRTM,2024,122.702447988218,13.812095398356
$GNGGA,165131.50,3354.59350329,N,11955.11849639,W,2,12,0.8,7.887,M,-37.369,M,100.4,0135*66
$PYRTM,2024,122.702447988218,13.812095398356
$GNHDT,60.402,T*1B
$PYRTM,2024,122.702453830174,13.812101240313
$GNGGA,165132.00,3354.59402499,N,11955.11728365,W,2,12,0.8,7.932,M,-37.369,M,101.0,0135*62
$PYRTM,2024,122.702453830174,13.812101240313
$GNHDT,60.448,T*15
$PYRTM,2024,122.702459561806,13.812106971956
$GNGGA,165132.50,3354.59452784,N,11955.11604972,W,2,12,0.8,7.948,M,-37.369,M,101.4,0135*67
$PYRTM,2024,122.702459561806,13.812106971956
$GNHDT,60.305,T*1B
$PYRTM,2024,122.702465401377,13.812112811516
$GNGGA,165133.00,3354.59504403,N,11955.11480422,W,2,12,0.8,7.925,M,-37.369,M,102.0,0135*67
$PYRTM,2024,122.702465401377,13.812112811516
$GNHDT,60.197,T*12
$PYRTM,2024,122.702471136181,13.812118546319
$GNGGA,165133.50,3354.59559004,N,11955.11356152,W,2,12,0.8,7.858,M,-37.369,M,102.4,0135*68
$PYRTM,2024,122.702471136181,13.812118546319
$GNHDT,60.087,T*12
$PYRTM,2024,122.702476979687,13.812124389826
$GNGGA,165134.00,3354.59616906,N,11955.11233264,W,2,12,0.8,7.804,M,-37.369,M,103.0,0135*61
$PYRTM,2024,122.702476979687,13.812124389826
$GNHDT,59.952,T*19
$PYRTM,2024,122.702482709942,13.812130120081
$GNGGA,165134.50,3354.59677003,N,11955.11112087,W,2,12,0.8,7.780,M,-37.369,M,103.4,0135*67
$PYRTM,2024,122.702482709942,13.812130120081
$GNHDT,60.022,T*1D
$PYRTM,2024,122.702488554433,13.812135964572
$GNGGA,165135.00,3354.59738343,N,11955.10991276,W,2,12,0.8,7.829,M,-37.369,M,104.0,0135*6F
$PYRTM,2024,122.702488554433,13.812135964572
$GNHDT,59.768,T*1E
$PYRTM,2024,122.702494283160,13.812141693299
$GNGGA,165135.50,3354.59799125,N,11955.10869735,W,2,12,0.8,7.925,M,-37.369,M,104.4,0135*6E
$PYRTM,2024,122.702494283160,13.812141693299
$GNHDT,59.841,T*1A
$PYRTM,2024,122.702500121956,13.812147532095
$GNGGA,165136.00,3354.59858050,N,11955.10746469,W,2,12,0.8,8.047,M,-37.369,M,105.0,0135*66
$PYRTM,2024,122.702500121956,13.812147532095
$GNHDT,59.741,T*15
$PYRTM,2024,122.702505858148,13.812153268287
$GNGGA,165136.50,3354.59915130,N,11955.10621618,W,2,12,0.8,8.160,M,-37.369,M,105.4,0135*68
$PYRTM,2024,122.702505858148,13.812153268287
$GNHDT,59.580,T*1A
$PYRTM,2024,122.702511696424,13.812159106562
$GNGGA,165137.00,3354.59971539,N,11955.10495446,W,2,12,0.8,8.248,M,-37.369,M,106.0,0135*69
$PYRTM,2024,122.702511696424,13.812159106562
$GNHDT,59.594,T*1F
$PYRTM,2024,122.702517432187,13.812164842326
$GNGGA,165137.50,3354.60028979,N,11955.10369147,W,2,12,0.8,8.275,M,-37.369,M,106.4,0135*61
$PYRTM,2024,122.702517432187,13.812164842326
$GNHDT,59.572,T*17
$PYRTM,2024,122.702523269190,13.812170679340
$GNGGA,165138.00,3354.60088038,N,11955.10243945,W,2,12,0.8,8.270,M,-37.369,M,107.0,0135*6E
$PYRTM,2024,122.702523269190,13.812170679340
$GNHDT,59.596,T*1D
$PYRTM,2024,122.702529006493,13.812176416632
$GNGGA,165138.50,3354.60147441,N,11955.10120798,W,2,12,0.8,8.250,M,-37.369,M,107.4,0135*6D
$PYRTM,2024,122.702529006493,13.812176416632
$GNHDT,59.646,T*13
$PYRTM,2024,122.702534842431,13.812182252569
$GNGGA,165139.00,3354.60206051,N,11955.09999660,W,2,12,0.8,8.263,M,-37.369,M,108.0,0135*65
$PYRTM,2024,122.702534842431,13.812182252569
$GNHDT,59.811,T*1F
$PYRTM,2024,122.702540575810,13.812187985949
$GNGGA,165139.50,3354.60264273,N,11955.09879897,W,2,12,0.8,8.307,M,-37.369,M,108.4,0135*68
$PYRTM,2024,122.702540575810,13.812187985949
$GNHDT,59.927,T*1B
$PYRTM,2024,122.702546421875,13.812193832014
$GNGGA,165140.00,3354.60322813,N,11955.09760577,W,2,12,0.8,8.353,M,-37.369,M,109.0,0135*6C
$PYRTM,2024,122.702546421875,13.812193832014
$GNHDT,59.979,T*10
$PYRTM,2024,122.702552156019,13.812199566157
$GNGGA,165140.50,3354.60381022,N,11955.09641119,W,2,12,0.8,8.394,M,-37.369,M,109.4,0135*6B
$PYRTM,2024,122.702552156019,13.812199566157
$GNHDT,60.032,T*1C
$PYRTM,2024,122.702557994201,13.812205404340
$GNGGA,165141.00,3354.60437658,N,11955.09521936,W,2,12,0.8,8.427,M,-37.369,M,110.0,0135*6D
$PYRTM,2024,122.702557994201,13.812205404340
$GNHDT,60.156,T*1F
$PYRTM,2024,122.702563728634,13.812211138785
$GNGGA,165141.50,3354.60492905,N,11955.09403329,W,2,12,0.8,8.440,M,-37.369,M,110.4,0135*60
$PYRTM,2024,122.702563728634,13.812211138785
$GNHDT,60.249,T*12
$PYRTM,2024,122.702569564491,13.812216974630
$GNGGA,165142.00,3354.60547162,N,11955.09284224,W,2,12,0.8,8.432,M,-37.369,M,111.0,0135*63
$PYRTM,2024,122.702569564491,13.812216974630
$GNHDT,60.417,T*1F
$PYRTM,2024,122.702575297905,13.812222708044
$GNGGA,165142.50,3354.60602219,N,11955.09164388,W,2,12,0.8,8.399,M,-37.369,M,111.4,0135*63
$PYRTM,2024,122.702575297905,13.812222708044
$GNHDT,60.548,T*14
$PYRTM,2024,122.702581139282,13.812228549421
$GNGGA,165143.00,3354.60658464,N,11955.09044131,W,2,12,0.8,8.357,M,-37.369,M,112.0,0135*62
$PYRTM,2024,122.702581139282,13.812228549421
$GNHDT,60.538,T*13
$PYRTM,2024,122.702586875185,13.812234285324
$GNGGA,165143.50,3354.60715515,N,11955.08925036,W,2,12,0.8,8.312,M,-37.369,M,112.4,0135*64
$PYRTM,2024,122.702586875185,13.812234285324
$GNHDT,60.475,T*1B
$PYRTM,2024,122.702592713391,13.812240123530
$GNGGA,165144.00,3354.60772972,N,11955.08807080,W,2,12,0.8,8.311,M,-37.369,M,113.0,0135*60
$PYRTM,2024,122.702592713391,13.812240123530
$GNHDT,60.564,T*1A
$PYRTM,2024,122.702598448125,13.812245858264
$GNGGA,165144.50,3354.60830062,N,11955.08688597,W,2,12,0.8,8.322,M,-37.369,M,113.4,0135*6A
$PYRTM,2024,122.702598448125,13.812245858264
$GNHDT,60.631,T*19
$PYRTM,2024,122.702604286250,13.812251696389
$GNGGA,165145.00,3354.60886453,N,11955.08568484,W,2,12,0.8,8.339,M,-37.369,M,114.0,0135*62
$PYRTM,2024,122.702604286250,13.812251696389
$GNHDT,60.615,T*1F
$PYRTM,2024,122.702610020174,13.812257430312
$GNGGA,165145.50,3354.60942264,N,11955.08447185,W,2,12,0.8,8.369,M,-37.369,M,114.4,0135*65
$PYRTM,2024,122.702610020174,13.812257430312
$GNHDT,60.655,T*1B
$PYRTM,2024,122.702615861042,13.812263271192
$GNGGA,165146.00,3354.60997838,N,11955.08324116,W,2,12,0.8,8.393,M,-37.369,M,115.0,0135*60
$PYRTM,2024,122.702615861042,13.812263271192
$GNHDT,60.590,T*11
$PYRTM,2024,122.702621598762,13.812269008900
$GNGGA,165146.50,3354.61053139,N,11955.08200023,W,2,12,0.8,8.412,M,-37.369,M,115.4,0135*67
$PYRTM,2024,122.702621598762,13.812269008900
$GNHDT,60.537,T*1C
$PYRTM,2024,122.702627433750,13.812274843900
$GNGGA,165147.00,3354.61108942,N,11955.08074554,W,2,12,0.8,8.421,M,-37.369,M,116.0,0135*6B
$PYRTM,2024,122.702627433750,13.812274843900
$GNHDT,60.470,T*1E
$PYRTM,2024,122.702633172986,13.812280583125
$GNGGA,165147.50,3354.61165926,N,11955.07948491,W,2,12,0.8,8.432,M,-37.369,M,116.4,0135*60
$PYRTM,2024,122.702633172986,13.812280583125
$GNHDT,60.376,T*1F
$PYRTM,2024,122.702639015428,13.812286425567
$GNGGA,165148.00,3354.61224531,N,11955.07822253,W,2,12,0.8,8.439,M,-37.369,M,117.0,0135*6D
$PYRTM,2024,122.702639015428,13.812286425567
$GNHDT,60.234,T*18
$PYRTM,2024,122.702644748819,13.812292158958
$GNGGA,165148.50,3354.61283811,N,11955.07696496,W,2,12,0.8,8.454,M,-37.369,M,117.4,0135*6B
$PYRTM,2024,122.702644748819,13.812292158958
$GNHDT,60.189,T*1D
$PYRTM,2024,122.702650587187,13.812297997326
$GNGGA,165149.00,3354.61343708,N,11955.07571191,W,2,12,0.8,8.470,M,-37.369,M,118.0,0135*60
$PYRTM,2024,122.702650587187,13.812297997326
$GNHDT,60.112,T*1F
$PYRTM,2024,122.702656317836,13.812303727975
$GNGGA,165149.50,3354.61403906,N,11955.07446390,W,2,12,0.8,8.499,M,-37.369,M,118.4,0135*63
$PYRTM,2024,122.702656317836,13.812303727975
$GNHDT,60.073,T*19
$PYRTM,2024,122.702662160289,13.812309570428
$GNGGA,165150.00,3354.61464020,N,11955.07321928,W,2,12,0.8,8.533,M,-37.369,M,119.0,0135*69
$PYRTM,2024,122.702662160289,13.812309570428
$GNHDT,60.040,T*19
$PYRTM,2024,122.702667896354,13.812315306493
$GNGGA,165150.50,3354.61523420,N,11955.07197440,W,2,12,0.8,8.543,M,-37.369,M,119.4,0135*65
$PYRTM,2024,122.702667896354,13.812315306493
$GNHDT,60.103,T*1F
$PYRTM,2024,122.702673730475,13.812321140613
$GNGGA,165151.00,3354.61581732,N,11955.07073009,W,2,12,0.8,8.542,M,-37.369,M,120.0,0135*64
$PYRTM,2024,122.702673730475,13.812321140613
$GNHDT,60.045,T*1C
$PYRTM,2024,122.702679464977,13.812326875116
$GNGGA,165151.50,3354.61638340,N,11955.06948627,W,2,12,0.8,8.527,M,-37.369,M,120.4,0135*6C
$PYRTM,2024,122.702679464977,13.812326875116
$GNHDT,60.037,T*19
$PYRTM,2024,122.702685308160,13.812332718299
$GNGGA,165152.00,3354.61693244,N,11955.06824010,W,2,12,0.8,8.509,M,-37.369,M,121.0,0135*6E
$PYRTM,2024,122.702685308160,13.812332718299
$GNHDT,59.933,T*1E
$PYRTM,2024,122.702691040000,13.812338450139
$GNGGA,165152.50,3354.61746681,N,11955.06699218,W,2,12,0.8,8.493,M,-37.369,M,121.4,0135*6B
$PYRTM,2024,122.702691040000,13.812338450139
$GNHDT,60.001,T*1C
$PYRTM,2024,122.702696884086,13.812344294225
$GNGGA,165153.00,3354.61799313,N,11955.06574685,W,2,12,0.8,8.480,M,-37.369,M,122.0,0135*66
$PYRTM,2024,122.702696884086,13.812344294225
$GNHDT,59.947,T*1D
$PYRTM,2024,122.702702616528,13.812350026667
$GNGGA,165153.50,3354.61852690,N,11955.06451619,W,2,12,0.8,8.461,M,-37.369,M,122.4,0135*6D
$PYRTM,2024,122.702702616528,13.812350026667
$GNHDT,60.093,T*17
$PYRTM,2024,122.702708452257,13.812355862396
$GNGGA,165154.00,3354.61907535,N,11955.06330366,W,2,12,0.8,8.454,M,-37.369,M,123.0,0135*6C
$PYRTM,2024,122.702708452257,13.812355862396
$GNHDT,60.071,T*1B
$PYRTM,2024,122.702714190602,13.812361600741
$GNGGA,165154.50,3354.61964324,N,11955.06211415,W,2,12,0.8,8.460,M,-37.369,M,123.4,0135*68
$PYRTM,2024,122.702714190602,13.812361600741
$GNHDT,59.992,T*15
$PYRTM,2024,122.702720033345,13.812367443484
$GNGGA,165155.00,3354.62021379,N,11955.06094638,W,2,12,0.8,8.480,M,-37.369,M,124.0,0135*60
$PYRTM,2024,122.702720033345,13.812367443484
$GNHDT,59.940,T*1A
$PYRTM,2024,122.702725761887,13.812373172025
$GNGGA,165155.50,3354.62077648,N,11955.05977773,W,2,12,0.8,8.511,M,-37.369,M,124.4,0135*65
$PYRTM,2024,122.702725761887,13.812373172025
$GNHDT,59.699,T*11
$PYRTM,2024,122.702731605602,13.812379015741
$GNGGA,165156.00,3354.62132120,N,11955.05859476,W,2,12,0.8,8.535,M,-37.369,M,125.0,0135*62
$PYRTM,2024,122.702731605602,13.812379015741
$GNHDT,59.713,T*12
$PYRTM,2024,122.702737338970,13.812384749120
$GNGGA,165156.50,3354.62184716,N,11955.05739125,W,2,12,0.8,8.545,M,-37.369,M,125.4,0135*60
$PYRTM,2024,122.702737338970,13.812384749120
$GNHDT,59.667,T*10
$PYRTM,2024,122.702743178009,13.812390588148
$GNGGA,165157.00,3354.62236609,N,11955.05617596,W,2,12,0.8,8.542,M,-37.369,M,126.0,0135*60
$PYRTM,2024,122.702743178009,13.812390588148
$GNHDT,59.573,T*16
$PYRTM,2024,122.702748910903,13.812396321042
$GNGGA,165157.50,3354.62289382,N,11955.05495154,W,2,12,0.8,8.519,M,-37.369,M,126.4,0135*6F
$PYRTM,2024,122.702748910903,13.812396321042
$GNHDT,59.636,T*14
$PYRTM,2024,122.702754751285,13.812402161424
$GNGGA,165158.00,3354.62343487,N,11955.05372821,W,2,12,0.8,8.490,M,-37.369,M,127.0,0135*60
$PYRTM,2024,122.702754751285,13.812402161424
$GNHDT,59.492,T*18
$PYRTM,2024,122.702760486852,13.812407896991
$GNGGA,165158.50,3354.62399813,N,11955.05250956,W,2,12,0.8,8.474,M,-37.369,M,127.4,0135*6D
$PYRTM,2024,122.702760486852,13.812407896991
$GNHDT,59.606,T*17
$PYRTM,2024,122.702766328403,13.812413738542
$GNGGA,165159.00,3354.62458040,N,11955.05130082,W,2,12,0.8,8.511,M,-37.369,M,128.0,0135*61
$PYRTM,2024,122.702766328403,13.812413738542
$GNHDT,59.741,T*15
$PYRTM,2024,122.702772064734,13.812419474873
$GNGGA,165159.50,3354.62518822,N,11955.05010668,W,2,12,0.8,8.599,M,-37.369,M,128.4,0135*68
$PYRTM,2024,122.702772064734,13.812419474873
$GNHDT,59.556,T*11
$PYRTM,2024,122.702777904606,13.812425314745
$GNGGA,165200.00,3354.62581747,N,11955.04892153,W,2,12,0.8,8.723,M,-37.369,M,129.0,0135*64
$PYRTM,2024,122.702777904606,13.812425314745
$GNHDT,59.659,T*1D
$PYRTM,2024,122.702783634792,13.812431044931
$GNGGA,165200.50,3354.62645724,N,11955.04772847,W,2,12,0.8,8.860,M,-37.369,M,129.4,0135*6E
$PYRTM,2024,122.702783634792,13.812431044931
$GNHDT,59.650,T*14
$PYRTM,2024,122.702789472940,13.812436883079
$GNGGA,165201.00,3354.62709013,N,11955.04651515,W,2,12,0.8,8.979,M,-37.369,M,130.0,0135*6F
$PYRTM,2024,122.702789472940,13.812436883079
$GNHDT,59.658,T*1C
$PYRTM,2024,122.702795205984,13.812442616123
$GNGGA,165201.50,3354.62770743,N,11955.04527638,W,2,12,0.8,9.058,M,-37.369,M,130.4,0135*67
$PYRTM,2024,122.702795205984,13.812442616123
$GNHDT,59.771,T*16
$PYRTM,2024,122.702801049016,13.812448459155
$GNGGA,165202.00,3354.62831234,N,11955.04401587,W,2,12,0.8,9.090,M,-37.369,M,131.0,0135*6D
$PYRTM,2024,122.702801049016,13.812448459155
$GNHDT,59.892,T*14
$PYRTM,2024,122.702806785579,13.812454195718
$GNGGA,165202.50,3354.62891544,N,11955.04275126,W,2,12,0.8,9.065,M,-37.369,M,131.4,0135*66
$PYRTM,2024,122.702806785579,13.812454195718
$GNHDT,59.753,T*16
$PYRTM,2024,122.702812623299,13.812460033449
$GNGGA,165203.00,3354.62948604,N,11955.04148150,W,2,12,0.8,8.996,M,-37.369,M,132.0,0135*6F
$PYRTM,2024,122.702812623299,13.812460033449
$GNHDT,59.903,T*1D
$PYRTM,2024,122.702818358843,13.812465768993
$GNGGA,165203.50,3354.63005799,N,11955.04021742,W,2,12,0.8,8.941,M,-37.369,M,132.4,0135*6B
$PYRTM,2024,122.702818358843,13.812465768993
$GNHDT,59.837,T*1B
$PYRTM,2024,122.702824198935,13.812471609074
$GNGGA,165204.00,3354.63062374,N,11955.03895871,W,2,12,0.8,8.862,M,-37.369,M,133.0,0135*65
$PYRTM,2024,122.702824198935,13.812471609074
$GNHDT,59.905,T*1B
$PYRTM,2024,122.702829930961,13.812477341100
$GNGGA,165204.50,3354.63120378,N,11955.03770721,W,2,12,0.8,8.792,M,-37.369,M,133.4,0135*61
$PYRTM,2024,122.702829930961,13.812477341100
$GNHDT,59.936,T*1B
$PYRTM,2024,122.702835771829,13.812483181968
$GNGGA,165205.00,3354.63178717,N,11955.03646535,W,2,12,0.8,8.722,M,-37.369,M,134.0,0135*6E
$PYRTM,2024,122.702835771829,13.812483181968
$GNHDT,59.927,T*1B
$PYRTM,2024,122.702841501956,13.812488912095
$GNGGA,165205.50,3354.63237357,N,11955.03523271,W,2,12,0.8,8.660,M,-37.369,M,134.4,0135*67
$PYRTM,2024,122.702841501956,13.812488912095
$GNHDT,59.871,T*19
$PYRTM,2024,122.702847347546,13.812494757685
$GNGGA,165206.00,3354.63293666,N,11955.03401209,W,2,12,0.8,8.603,M,-37.369,M,135.0,0135*66
$PYRTM,2024,122.702847347546,13.812494757685
$GNHDT,59.928,T*14
$PYRTM,2024,122.702853082604,13.812500492743
$GNGGA,165206.50,3354.63348334,N,11955.03278708,W,2,12,0.8,8.570,M,-37.369,M,135.4,0135*69
$PYRTM,2024,122.702853082604,13.812500492743
$GNHDT,59.916,T*19
$PYRTM,2024,122.702858916458,13.812506326597
$GNGGA,165207.00,3354.63401262,N,11955.03155684,W,2,12,0.8,8.527,M,-37.369,M,136.0,0135*69
$PYRTM,2024,122.702858916458,13.812506326597
$GNHDT,59.842,T*19
$PYRTM,2024,122.702864653727,13.812512063866
$GNGGA,165207.50,3354.63453521,N,11955.03031922,W,2,12,0.8,8.467,M,-37.369,M,136.4,0135*6A
$PYRTM,2024,122.702864653727,13.812512063866
$GNHDT,59.684,T*1D
$PYRTM,2024,122.702870495347,13.812517905486
$GNGGA,165208.00,3354.63504480,N,11955.02909124,W,2,12,0.8,8.399,M,-37.369,M,137.0,0135*67
$PYRTM,2024,122.702870495347,13.812517905486
$GNHDT,59.651,T*15
$PYRTM,2024,122.702876227419,13.812523637558
