$PYRTM,2024,125.250000157708,16.359647567847
$GNGGA,060000.00,3514.11988037,N,12152.08219450,W,2,11,0.9,8.780,M,-38.599,M,5.0,0131*68
$PYRTM,2024,125.250000157708,16.359647567847
$GNHDT,313.103,T*28
$PYRTM,2024,125.250005886285,16.359653296424
$GNGGA,060000.50,3514.12021212,N,12152.08236755,W,2,11,0.9,8.776,M,-38.599,M,5.4,0131*67
$PYRTM,2024,125.250005886285,16.359653296424
$GNHDT,313.016,T*2D
$PYRTM,2024,125.250011729537,16.359659139688
$GNGGA,060001.00,3514.12054611,N,12152.08257292,W,2,11,0.9,8.621,M,-38.599,M,6.0,0131*6B
$PYRTM,2024,125.250011729537,16.359659139688
$GNHDT,313.117,T*2D
$PYRTM,2024,125.250017460914,16.359664871053
$GNGGA,060001.50,3514.12082462,N,12152.08286494,W,2,11,0.9,8.359,M,-38.599,M,6.4,0131*61
$PYRTM,2024,125.250017460914,16.359664871053
$GNHDT,313.104,T*2F
$PYRTM,2024,125.250023306262,16.359670716400
$GNGGA,060002.00,3514.12102004,N,12152.08324856,W,2,11,0.9,8.074,M,-38.599,M,7.0,0131*68
$PYRTM,2024,125.250023306262,16.359670716400
$GNHDT,313.123,T*2A
$PYRTM,2024,125.250029034456,16.359676444595
$GNGGA,060002.50,3514.12114305,N,12152.08370190,W,2,11,0.9,7.870,M,-38.599,M,7.4,0131*6D
$PYRTM,2024,125.250029034456,16.359676444595
$GNHDT,312.975,T*20
$PYRTM,2024,125.250034880891,16.359682291030
$GNGGA,060003.00,3514.12121923,N,12152.08415361,W,2,11,0.9,7.843,M,-38.599,M,7.0,0131*6D
$PYRTM,2024,125.250034880891,16.359682291030
$GNHDT,312.806,T*25
$PYRTM,2024,125.250040611019,16.359688021157
$GNGGA,060003.50,3514.12130656,N,12152.08453762,W,2,11,0.9,7.974,M,-38.599,M,7.4,0131*61
$PYRTM,2024,125.250040611019,16.359688021157
$GNHDT,312.812,T*20
$PYRTM,2024,125.250046449931,16.359693860069
$GNGGA,060004.00,3514.12145150,N,12152.08482241,W,2,11,0.9,8.262,M,-38.599,M,7.0,0131*6F
$PYRTM,2024,125.250046449931,16.359693860069
$GNHDT,312.634,T*2A
$PYRTM,2024,125.250052188843,16.359699598993
$GNGGA,060004.50,3514.12168639,N,12152.08501919,W,2,11,0.9,8.594,M,-38.599,M,7.4,0131*6B
$PYRTM,2024,125.250052188843,16.359699598993
$GNHDT,312.562,T*2A
$PYRTM,2024,125.250058023507,16.359705433646
$GNGGA,060005.00,3514.12201460,N,12152.08517942,W,2,11,0.9,8.833,M,-38.599,M,4.0,0131*63
$PYRTM,2024,125.250058023507,16.359705433646
$GNHDT,312.377,T*28
$PYRTM,2024,125.250063760972,16.359711171111
$GNGGA,060005.50,3514.12238557,N,12152.08537273,W,2,11,0.9,8.896,M,-38.599,M,4.4,0131*69
$PYRTM,2024,125.250063760972,16.359711171111
$GNHDT,312.070,T*2C
$PYRTM,2024,125.250069598738,16.359717008877
$GNGGA,060006.00,3514.12275484,N,12152.08561077,W,2,11,0.9,8.806,M,-38.599,M,5.0,0131*60
$PYRTM,2024,125.250069598738,16.359717008877
$GNHDT,312.087,T*24
$PYRTM,2024,125.250075333819,16.359722743970
$GNGGA,060006.50,3514.12306803,N,12152.08590365,W,2,11,0.9,8.636,M,-38.599,M,5.4,0131*64
$PYRTM,2024,125.250075333819,16.359722743970
$GNHDT,311.963,T*24
$PYRTM,2024,125.250081174375,16.359728584514
$GNGGA,060007.00,3514.12329870,N,12152.08624968,W,2,11,0.9,8.493,M,-38.599,M,6.0,0131*68
$PYRTM,2024,125.250081174375,16.359728584514
$GNHDT,311.812,T*23
$PYRTM,2024,125.250086904861,16.359734315000
$GNGGA,060007.50,3514.12345261,N,12152.08661914,W,2,11,0.9,8.438,M,-38.599,M,6.4,0131*62
$PYRTM,2024,125.250086904861,16.359734315000
$GNHDT,311.971,T*27
$PYRTM,2024,125.250092748403,16.359740158542
$GNGGA,060008.00,3514.12353903,N,12152.08698492,W,2,11,0.9,8.518,M,-38.599,M,7.0,0131*63
$PYRTM,2024,125.250092748403,16.359740158542
$GNHDT,312.106,T*2C
$PYRTM,2024,125.250098481725,16.359745891863
$GNGGA,060008.50,3514.12360941,N,12152.08734360,W,2,11,0.9,8.629,M,-38.599,M,7.4,0131*68
$PYRTM,2024,125.250098481725,16.359745891863
$GNHDT,312.093,T*21
$PYRTM,2024,125.250104320799,16.359751730949
$GNGGA,060009.00,3514.12369832,N,12152.08767668,W,2,11,0.9,8.726,M,-38.599,M,7.0,0131*61
$PYRTM,2024,125.250104320799,16.359751730949
$GNHDT,312.270,T*2E
$PYRTM,2024,125.250110053009,16.359757463148
$GNGGA,060009.50,3514.12386643,N,12152.08798308,W,2,11,0.9,8.730,M,-38.599,M,7.4,0131*6D
$PYRTM,2024,125.250110053009,16.359757463148
$GNHDT,311.567,T*2C
$PYRTM,2024,125.250115896644,16.359763306794
$GNGGA,060010.00,3514.12414840,N,12152.08826105,W,2,11,0.9,8.536,M,-38.599,M,7.0,0131*64
$PYRTM,2024,125.250115896644,16.359763306794
$GNHDT,311.008,T*20
$PYRTM,2024,125.250121629502,16.359769039641
$GNGGA,060010.50,3514.12449068,N,12152.08853005,W,2,11,0.9,8.242,M,-38.599,M,7.4,0131*68
$PYRTM,2024,125.250121629502,16.359769039641
$GNHDT,310.678,T*20
$PYRTM,2024,125.250127471377,16.359774881516
$GNGGA,060011.00,3514.12485070,N,12152.08879400,W,2,11,0.9,7.873,M,-38.599,M,4.0,0131*6C
$PYRTM,2024,125.250127471377,16.359774881516
$GNHDT,310.562,T*28
$PYRTM,2024,125.250133202234,16.359780612384
$GNGGA,060011.50,3514.12516263,N,12152.08905252,W,2,11,0.9,7.644,M,-38.599,M,4.4,0131*67
$PYRTM,2024,125.250133202234,16.359780612384
$GNHDT,310.579,T*22
$PYRTM,2024,125.250139044850,16.359786454988
$GNGGA,060012.00,3514.12539146,N,12152.08932399,W,2,11,0.9,7.614,M,-38.599,M,5.0,0131*6A
$PYRTM,2024,125.250139044850,16.359786454988
$GNHDT,310.656,T*2C
$PYRTM,2024,125.250144778009,16.359792188148
$GNGGA,060012.50,3514.12554336,N,12152.08962740,W,2,11,0.9,7.754,M,-38.599,M,5.4,0131*65
$PYRTM,2024,125.250144778009,16.359792188148
$GNHDT,310.838,T*2A
$PYRTM,2024,125.250150619421,16.359798029560
$GNGGA,060013.00,3514.12564040,N,12152.08998126,W,2,11,0.9,7.979,M,-38.599,M,6.0,0131*65
$PYRTM,2024,125.250150619421,16.359798029560
$GNHDT,311.046,T*2A
$PYRTM,2024,125.250156350324,16.359803760463
$GNGGA,060013.50,3514.12573096,N,12152.09037396,W,2,11,0.9,8.181,M,-38.599,M,6.4,0131*6D
$PYRTM,2024,125.250156350324,16.359803760463
$GNHDT,311.161,T*2E
$PYRTM,2024,125.250162194745,16.359809604884
$GNGGA,060014.00,3514.12585509,N,12152.09077273,W,2,11,0.9,8.275,M,-38.599,M,7.0,0131*66
$PYRTM,2024,125.250162194745,16.359809604884
$GNHDT,311.073,T*2C
$PYRTM,2024,125.250167922801,16.359815332951
$GNGGA,060014.50,3514.12604108,N,12152.09113180,W,2,11,0.9,8.321,M,-38.599,M,7.4,0131*64
$PYRTM,2024,125.250167922801,16.359815332951
$GNHDT,310.869,T*2E
$PYRTM,2024,125.250173764931,16.359821175069
$GNGGA,060015.00,3514.12629432,N,12152.09143310,W,2,11,0.9,8.249,M,-38.599,M,7.0,0131*66
$PYRTM,2024,125.250173764931,16.359821175069
$GNHDT,310.693,T*25
$PYRTM,2024,125.250179497963,16.359826908102
$GNGGA,060015.50,3514.12659320,N,12152.09168763,W,2,11,0.9,8.139,M,-38.599,M,7.4,0131*69
$PYRTM,2024,125.250179497963,16.359826908102
$GNHDT,310.574,T*2F
$PYRTM,2024,125.250185340231,16.359832750370
$GNGGA,060016.00,3514.12690559,N,12152.09192654,W,2,11,0.9,7.954,M,-38.599,M,7.0,0131*6A
$PYRTM,2024,125.250185340231,16.359832750370
$GNHDT,310.404,T*29
$PYRTM,2024,125.250191074062,16.359838484201
$GNGGA,060016.50,3514.12718856,N,12152.09217263,W,2,11,0.9,7.840,M,-38.599,M,7.4,0131*62
$PYRTM,2024,125.250191074062,16.359838484201
$GNHDT,310.160,T*2E
$PYRTM,2024,125.250196916655,16.359844326794
$GNGGA,060017.00,3514.12742067,N,12152.09243707,W,2,11,0.9,7.818,M,-38.599,M,4.0,0131*6F
$PYRTM,2024,125.250196916655,16.359844326794
$GNHDT,310.125,T*2F
$PYRTM,2024,125.250202645417,16.359850055556
$GNGGA,060017.50,3514.12760235,N,12152.09273006,W,2,11,0.9,7.926,M,-38.599,M,4.4,0131*62
$PYRTM,2024,125.250202645417,16.359850055556
$GNHDT,310.098,T*28
$PYRTM,2024,125.250208490139,16.359855900278
$GNGGA,060018.00,3514.12773985,N,12152.09306360,W,2,11,0.9,8.129,M,-38.599,M,5.0,0131*67
$PYRTM,2024,125.250208490139,16.359855900278
$GNHDT,310.131,T*2A
$PYRTM,2024,125.250214222512,16.359861632650
$GNGGA,060018.50,3514.12785357,N,12152.09343297,W,2,11,0.9,8.359,M,-38.599,M,5.4,0131*67
$PYRTM,2024,125.250214222512,16.359861632650
$GNHDT,310.089,T*28
$PYRTM,2024,125.250220063970,16.359867474109
$GNGGA,060019.00,3514.12797133,N,12152.09380575,W,2,11,0.9,8.514,M,-38.599,M,6.0,0131*6C
$PYRTM,2024,125.250220063970,16.359867474109
$GNHDT,310.110,T*29
$PYRTM,2024,125.250225800856,16.359873210995
$GNGGA,060019.50,3514.12814102,N,12152.09414270,W,2,11,0.9,8.571,M,-38.599,M,6.4,0131*60
$PYRTM,2024,125.250225800856,16.359873210995
$GNHDT,310.319,T*22
$PYRTM,2024,125.250231639074,16.359879049213
$GNGGA,060020.00,3514.12837593,N,12152.09443852,W,2,11,0.9,8.501,M,-38.599,M,7.0,0131*68
$PYRTM,2024,125.250231639074,16.359879049213
$GNHDT,310.388,T*2A
$PYRTM,2024,125.250237372083,16.359884782234
$GNGGA,060020.50,3514.12865955,N,12152.09470359,W,2,11,0.9,8.335,M,-38.599,M,7.4,0131*69
$PYRTM,2024,125.250237372083,16.359884782234
$GNHDT,310.812,T*22
$PYRTM,2024,125.250243208669,16.359890618808
$GNGGA,060021.00,3514.12896565,N,12152.09496194,W,2,11,0.9,8.111,M,-38.599,M,7.0,0131*65
$PYRTM,2024,125.250243208669,16.359890618808
$GNHDT,310.635,T*29
$PYRTM,2024,125.250248945567,16.359896355718
$GNGGA,060021.50,3514.12925469,N,12152.09524530,W,2,11,0.9,7.942,M,-38.599,M,7.4,0131*63
$PYRTM,2024,125.250248945567,16.359896355718
$GNHDT,310.218,T*22
$PYRTM,2024,125.250254785486,16.359902195625
$GNGGA,060022.00,3514.12950168,N,12152.09556034,W,2,11,0.9,7.866,M,-38.599,M,7.0,0131*64
$PYRTM,2024,125.250254785486,16.359902195625
$GNHDT,310.107,T*2F
$PYRTM,2024,125.250260515556,16.359907925706
$GNGGA,060022.50,3514.12970237,N,12152.09590616,W,2,11,0.9,7.888,M,-38.599,M,7.4,0131*62
$PYRTM,2024,125.250260515556,16.359907925706
$GNHDT,309.779,T*28
$PYRTM,2024,125.250266356852,16.359913766991
$GNGGA,060023.00,3514.12986408,N,12152.09628300,W,2,11,0.9,8.038,M,-38.599,M,4.0,0131*6C
$PYRTM,2024,125.250266356852,16.359913766991
$GNHDT,309.722,T*26
$PYRTM,2024,125.250272092280,16.359919502419
$GNGGA,060023.50,3514.13000948,N,12152.09666084,W,2,11,0.9,8.245,M,-38.599,M,4.4,0131*6F
$PYRTM,2024,125.250272092280,16.359919502419
$GNHDT,309.814,T*2C
$PYRTM,2024,125.250277936840,16.359925346979
$GNGGA,060024.00,3514.13016697,N,12152.09701885,W,2,11,0.9,8.461,M,-38.599,M,5.0,0131*6B
$PYRTM,2024,125.250277936840,16.359925346979
$GNHDT,310.181,T*21
$PYRTM,2024,125.250283666794,16.359931076933
$GNGGA,060024.50,3514.13035931,N,12152.09733991,W,2,11,0.9,8.610,M,-38.600,M,5.4,0131*6A
$PYRTM,2024,125.250283666794,16.359931076933
$GNHDT,310.440,T*29
$PYRTM,2024,125.250289505139,16.359936915278
$GNGGA,060025.00,3514.13058954,N,12152.09762906,W,2,11,0.9,8.633,M,-38.600,M,6.0,0131*6A
$PYRTM,2024,125.250289505139,16.359936915278
$GNHDT,310.505,T*29
$PYRTM,2024,125.250295239225,16.359942649363
$GNGGA,060025.50,3514.13084354,N,12152.09790720,W,2,11,0.9,8.539,M,-38.600,M,6.4,0131*6E
$PYRTM,2024,125.250295239225,16.359942649363
$GNHDT,310.338,T*21
$PYRTM,2024,125.250301083206,16.359948493345
$GNGGA,060026.00,3514.13110430,N,12152.09819089,W,2,11,0.9,8.353,M,-38.600,M,7.0,0131*64
$PYRTM,2024,125.250301083206,16.359948493345
$GNHDT,310.326,T*2E
$PYRTM,2024,125.250306818391,16.359954228530
$GNGGA,060026.50,3514.13135351,N,12152.09849428,W,2,11,0.9,8.149,M,-38.600,M,7.4,0131*61
$PYRTM,2024,125.250306818391,16.359954228530
$GNHDT,310.169,T*27
$PYRTM,2024,125.250312657859,16.359960067998
$GNGGA,060027.00,3514.13158474,N,12152.09881569,W,2,11,0.9,7.967,M,-38.600,M,7.0,0131*61
$PYRTM,2024,125.250312657859,16.359960067998
$GNHDT,310.035,T*2F
$PYRTM,2024,125.250318386771,16.359965796910
$GNGGA,060027.50,3514.13178714,N,12152.09914690,W,2,11,0.9,7.912,M,-38.600,M,7.4,0131*6D
$PYRTM,2024,125.250318386771,16.359965796910
$GNHDT,310.217,T*2D
$PYRTM,2024,125.250324229734,16.359971639873
$GNGGA,060028.00,3514.13196088,N,12152.09947554,W,2,11,0.9,7.999,M,-38.600,M,7.0,0131*6F
$PYRTM,2024,125.250324229734,16.359971639873
$GNHDT,310.452,T*2A
$PYRTM,2024,125.250329964537,16.359977374676
$GNGGA,060028.50,3514.13212085,N,12152.09978998,W,2,11,0.9,8.170,M,-38.600,M,7.4,0131*6C
$PYRTM,2024,125.250329964537,16.359977374676
$GNHDT,310.532,T*2D
$PYRTM,2024,125.250335803657,16.359983213796
$GNGGA,060029.00,3514.13229674,N,12152.10008963,W,2,11,0.9,8.343,M,-38.600,M,4.0,0131*6F
$PYRTM,2024,125.250335803657,16.359983213796
$GNHDT,310.707,T*29
$PYRTM,2024,125.250341535833,16.359988945972
$GNGGA,060029.50,3514.13251030,N,12152.10038489,W,2,11,0.9,8.410,M,-38.600,M,4.4,0131*6C
$PYRTM,2024,125.250341535833,16.359988945972
$GNHDT,310.889,T*20
$PYRTM,2024,125.250347377859,16.359994788021
$GNGGA,060030.00,3514.13276123,N,12152.10068778,W,2,11,0.9,8.341,M,-38.600,M,5.0,0131*69
$PYRTM,2024,125.250347377859,16.359994788021
$GNHDT,310.946,T*22
$PYRTM,2024,125.250353116111,16.360000526250
$GNGGA,060030.50,3514.13303395,N,12152.10100313,W,2,11,0.9,8.161,M,-38.600,M,5.4,0131*62
$PYRTM,2024,125.250353116111,16.360000526250
$GNHDT,310.775,T*2C
$PYRTM,2024,125.250358951204,16.360006361343
$GNGGA,060031.00,3514.13330093,N,12152.10132908,W,2,11,0.9,7.945,M,-38.600,M,6.0,0131*64
$PYRTM,2024,125.250358951204,16.360006361343
$GNHDT,310.718,T*27
$PYRTM,2024,125.250364684433,16.360012094572
$GNGGA,060031.50,3514.13354084,N,12152.10165703,W,2,11,0.9,7.789,M,-38.600,M,6.4,0131*68
$PYRTM,2024,125.250364684433,16.360012094572
$GNHDT,310.846,T*23
$PYRTM,2024,125.250370525382,16.360017935521
$GNGGA,060032.00,3514.13374280,N,12152.10199209,W,2,11,0.9,7.721,M,-38.600,M,7.0,0131*61
$PYRTM,2024,125.250370525382,16.360017935521
$GNHDT,310.940,T*24
$PYRTM,2024,125.250376258588,16.360023668727
$GNGGA,060032.50,3514.13390954,N,12152.10233053,W,2,11,0.9,7.787,M,-38.600,M,7.4,0131*6A
$PYRTM,2024,125.250376258588,16.360023668727
$GNHDT,310.902,T*22
$PYRTM,2024,125.250382103113,16.360029513252
$GNGGA,060033.00,3514.13405285,N,12152.10267044,W,2,11,0.9,7.898,M,-38.600,M,7.0,0131*60
$PYRTM,2024,125.250382103113,16.360029513252
$GNHDT,310.963,T*25
$PYRTM,2024,125.250387831192,16.360035241331
$GNGGA,060033.50,3514.13420179,N,12152.10301876,W,2,11,0.9,7.998,M,-38.600,M,7.4,0131*6F
$PYRTM,2024,125.250387831192,16.360035241331
$GNHDT,310.911,T*20
$PYRTM,2024,125.250393679005,16.360041089144
$GNGGA,060034.00,3514.13439177,N,12152.10336865,W,2,11,0.9,8.000,M,-38.600,M,7.0,0131*6E
$PYRTM,2024,125.250393679005,16.360041089144
$GNHDT,310.976,T*21
$PYRTM,2024,125.250399410521,16.360046820660
$GNGGA,060034.50,3514.13465379,N,12152.10369394,W,2,11,0.9,7.889,M,-38.600,M,7.4,0131*63
$PYRTM,2024,125.250399410521,16.360046820660
$GNHDT,311.424,T*2A
$PYRTM,2024,125.250405248681,16.360052658819
$GNGGA,060035.00,3514.13497055,N,12152.10399613,W,2,11,0.9,7.710,M,-38.600,M,4.0,0131*6A
$PYRTM,2024,125.250405248681,16.360052658819
$GNHDT,311.621,T*2D
$PYRTM,2024,125.250410981759,16.360058391898
$GNGGA,060035.50,3514.13529089,N,12152.10428767,W,2,11,0.9,7.588,M,-38.600,M,4.4,0131*62
$PYRTM,2024,125.250410981759,16.360058391898
$GNHDT,311.384,T*27
$PYRTM,2024,125.250416821262,16.360064231400
$GNGGA,060036.00,3514.13555645,N,12152.10460127,W,2,11,0.9,7.618,M,-38.600,M,5.0,0131*68
$PYRTM,2024,125.250416821262,16.360064231400
$GNHDT,311.121,T*2A
$PYRTM,2024,125.250422556481,16.360069966620
$GNGGA,060036.50,3514.13573690,N,12152.10495838,W,2,11,0.9,7.832,M,-38.600,M,5.4,0131*6E
$PYRTM,2024,125.250422556481,16.360069966620
$GNHDT,310.720,T*2C
$PYRTM,2024,125.250428395336,16.360075805486
$GNGGA,060037.00,3514.13584463,N,12152.10534653,W,2,11,0.9,8.161,M,-38.600,M,6.0,0131*62
$PYRTM,2024,125.250428395336,16.360075805486
$GNHDT,310.308,T*22
$PYRTM,2024,125.250434131817,16.360081541956
$GNGGA,060037.50,3514.13593236,N,12152.10573375,W,2,11,0.9,8.483,M,-38.600,M,6.4,0131*68
$PYRTM,2024,125.250434131817,16.360081541956
$GNHDT,310.149,T*25
$PYRTM,2024,125.250439968356,16.360087378495
$GNGGA,060038.00,3514.13604838,N,12152.10609654,W,2,11,0.9,8.671,M,-38.600,M,7.0,0131*69
$PYRTM,2024,125.250439968356,16.360087378495
$GNHDT,310.075,T*2B
$PYRTM,2024,125.250445701481,16.360093111620
$GNGGA,060038.50,3514.13622240,N,12152.10642181,W,2,11,0.9,8.717,M,-38.600,M,7.4,0131*68
$PYRTM,2024,125.250445701481,16.360093111620
$GNHDT,310.612,T*2C
$PYRTM,2024,125.250451546505,16.360098956644
$GNGGA,060039.00,3514.13645412,N,12152.10671245,W,2,11,0.9,8.599,M,-38.600,M,7.0,0131*67
$PYRTM,2024,125.250451546505,16.360098956644
$GNHDT,311.035,T*2E
$PYRTM,2024,125.250457274988,16.360104685127
$GNGGA,060039.50,3514.13673921,N,12152.10698802,W,2,11,0.9,8.361,M,-38.600,M,7.4,0131*61
$PYRTM,2024,125.250457274988,16.360104685127
$GNHDT,311.031,T*2A
$PYRTM,2024,125.250463123287,16.360110533437
$GNGGA,060040.00,3514.13705679,N,12152.10725694,W,2,11,0.9,8.027,M,-38.600,M,7.0,0131*6B
$PYRTM,2024,125.250463123287,16.360110533437
$GNHDT,311.011,T*28
$PYRTM,2024,125.250468849155,16.360116259306
$GNGGA,060040.50,3514.13737526,N,12152.10752616,W,2,11,0.9,7.747,M,-38.600,M,7.4,0131*66
$PYRTM,2024,125.250468849155,16.360116259306
$GNHDT,310.655,T*2F
$PYRTM,2024,125.250474689086,16.360122099225
$GNGGA,060041.00,3514.13765393,N,12152.10782770,W,2,11,0.9,7.578,M,-38.600,M,4.0,0131*68
$PYRTM,2024,125.250474689086,16.360122099225
$GNHDT,310.170,T*2F
$PYRTM,2024,125.250480422384,16.360127832523
$GNGGA,060041.50,3514.13787663,N,12152.10815353,W,2,11,0.9,7.585,M,-38.600,M,4.4,0131*69
$PYRTM,2024,125.250480422384,16.360127832523
$GNHDT,309.787,T*29
$PYRTM,2024,125.250486269884,16.360133680023
$GNGGA,060042.00,3514.13801744,N,12152.10853434,W,2,11,0.9,7.773,M,-38.600,M,5.0,0131*60
$PYRTM,2024,125.250486269884,16.360133680023
$GNHDT,309.637,T*23
$PYRTM,2024,125.250491999062,16.360139409201
$GNGGA,060042.50,3514.13810669,N,12152.10895527,W,2,11,0.9,8.055,M,-38.600,M,5.4,0131*6A
$PYRTM,2024,125.250491999062,16.360139409201
$GNHDT,309.736,T*23
$PYRTM,2024,125.250497841956,16.360145252095
$GNGGA,060043.00,3514.13818036,N,12152.10937222,W,2,11,0.9,8.329,M,-38.600,M,6.0,0131*6E
$PYRTM,2024,125.250497841956,16.360145252095
$GNHDT,309.804,T*2D
$PYRTM,2024,125.250503573981,16.360150984120
$GNGGA,060043.50,3514.13829168,N,12152.10976221,W,2,11,0.9,8.513,M,-38.600,M,6.4,0131*6E
$PYRTM,2024,125.250503573981,16.360150984120
$GNHDT,310.176,T*29
$PYRTM,2024,125.250509415521,16.360156825660
$GNGGA,060044.00,3514.13849376,N,12152.11009460,W,2,11,0.9,8.560,M,-38.600,M,7.0,0131*65
$PYRTM,2024,125.250509415521,16.360156825660
$GNHDT,310.163,T*2D
$PYRTM,2024,125.250515145509,16.360162555648
$GNGGA,060044.50,3514.13877804,N,12152.11037790,W,2,11,0.9,8.475,M,-38.600,M,7.4,0131*63
$PYRTM,2024,125.250515145509,16.360162555648
$GNHDT,310.048,T*25
$PYRTM,2024,125.250520987685,16.360168397824
$GNGGA,060045.00,3514.13911481,N,12152.11061561,W,2,11,0.9,8.226,M,-38.600,M,7.0,0131*6C
$PYRTM,2024,125.250520987685,16.360168397824
$GNHDT,309.803,T*2A
$PYRTM,2024,125.250526729954,16.360174140093
$GNGGA,060045.50,3514.13944732,N,12152.11083996,W,2,11,0.9,7.966,M,-38.600,M,7.4,0131*6E
$PYRTM,2024,125.250526729954,16.360174140093
$GNHDT,309.607,T*20
$PYRTM,2024,125.250532563241,16.360179973380
$GNGGA,060046.00,3514.13973186,N,12152.11108053,W,2,11,0.9,7.785,M,-38.600,M,7.0,0131*60
$PYRTM,2024,125.250532563241,16.360179973380
$GNHDT,309.666,T*27
$PYRTM,2024,125.250538299039,16.360185709178
$GNGGA,060046.50,3514.13994827,N,12152.11137222,W,2,11,0.9,7.710,M,-38.600,M,7.4,0131*6E
$PYRTM,2024,125.250538299039,16.360185709178
$GNHDT,309.537,T*20
$PYRTM,2024,125.250544139745,16.360191549884
$GNGGA,060047.00,3514.14009669,N,12152.11174631,W,2,11,0.9,7.710,M,-38.600,M,4.0,0131*62
$PYRTM,2024,125.250544139745,16.360191549884
$GNHDT,309.545,T*25
$PYRTM,2024,125.250549868993,16.360197279132
$GNGGA,060047.50,3514.14020736,N,12152.11217748,W,2,11,0.9,7.732,M,-38.600,M,4.4,0131*6A
$PYRTM,2024,125.250549868993,16.360197279132
$GNHDT,309.886,T*27
$PYRTM,2024,125.250555710799,16.360203120937
$GNGGA,060048.00,3514.14030345,N,12152.11265345,W,2,11,0.9,7.742,M,-38.600,M,5.0,0131*6F
$PYRTM,2024,125.250555710799,16.360203120937
$GNHDT,309.928,T*22
$PYRTM,2024,125.250561445509,16.360208855648
$GNGGA,060048.50,3514.14043570,N,12152.11308965,W,2,11,0.9,7.719,M,-38.600,M,5.4,0131*66
$PYRTM,2024,125.250561445509,16.360208855648
$GNHDT,309.891,T*21
$PYRTM,2024,125.250567285498,16.360214695648
$GNGGA,060049.00,3514.14061789,N,12152.11346486,W,2,11,0.9,7.752,M,-38.600,M,6.0,0131*64
$PYRTM,2024,125.250567285498,16.360214695648
$GNHDT,309.898,T*28
$PYRTM,2024,125.250573017963,16.360220428102
$GNGGA,060049.50,3514.14084698,N,12152.11377512,W,2,11,0.9,7.811,M,-38.600,M,6.4,0131*69
$PYRTM,2024,125.250573017963,16.360220428102
$GNHDT,309.625,T*20
$PYRTM,2024,125.250578858634,16.360226268773
$GNGGA,060050.00,3514.14111112,N,12152.11405130,W,2,11,0.9,7.898,M,-38.600,M,7.0,0131*6E
$PYRTM,2024,125.250578858634,16.360226268773
$GNHDT,309.504,T*20
$PYRTM,2024,125.250584600347,16.360232010486
$GNGGA,060050.50,3514.14139029,N,12152.11434028,W,2,11,0.9,7.956,M,-38.600,M,7.4,0131*65
$PYRTM,2024,125.250584600347,16.360232010486
$GNHDT,309.619,T*2F
$PYRTM,2024,125.250590436516,16.360237846655
$GNGGA,060051.00,3514.14166426,N,12152.11464273,W,2,11,0.9,7.997,M,-38.600,M,7.0,0131*60
$PYRTM,2024,125.250590436516,16.360237846655
$GNHDT,309.650,T*22
$PYRTM,2024,125.250596168194,16.360243578333
$GNGGA,060051.50,3514.14191973,N,12152.11495764,W,2,11,0.9,8.024,M,-38.600,M,7.4,0131*67
$PYRTM,2024,125.250596168194,16.360243578333
$GNHDT,309.608,T*2F
$PYRTM,2024,125.250602007593,16.360249417731
$GNGGA,060052.00,3514.14214531,N,12152.11528831,W,2,11,0.9,8.042,M,-38.600,M,7.0,0131*69
$PYRTM,2024,125.250602007593,16.360249417731
$GNHDT,309.737,T*22
$PYRTM,2024,125.250607743565,16.360255153704
$GNGGA,060052.50,3514.14233074,N,12152.11564065,W,2,11,0.9,8.079,M,-38.600,M,7.4,0131*60
$PYRTM,2024,125.250607743565,16.360255153704
$GNHDT,309.871,T*2F
$PYRTM,2024,125.250613581088,16.360260991227
$GNGGA,060053.00,3514.14248148,N,12152.11601968,W,2,11,0.9,8.142,M,-38.600,M,4.0,0131*6C
$PYRTM,2024,125.250613581088,16.360260991227
$GNHDT,309.924,T*2E
$PYRTM,2024,125.250619311921,16.360266722060
$GNGGA,060053.50,3514.14260488,N,12152.11642087,W,2,11,0.9,8.196,M,-38.600,M,4.4,0131*68
$PYRTM,2024,125.250619311921,16.360266722060
$GNHDT,309.896,T*26
$PYRTM,2024,125.250625154479,16.360272564618
$GNGGA,060054.00,3514.14273025,N,12152.11682182,W,2,11,0.9,8.212,M,-38.600,M,5.0,0131*69
$PYRTM,2024,125.250625154479,16.360272564618
$GNHDT,309.826,T*2D
$PYRTM,2024,125.250630890000,16.360278300139
$GNGGA,060054.50,3514.14288844,N,12152.11721155,W,2,11,0.9,8.179,M,-38.600,M,5.4,0131*6F
$PYRTM,2024,125.250630890000,16.360278300139
$GNHDT,309.829,T*22
$PYRTM,2024,125.250636727662,16.360284137789
$GNGGA,060055.00,3514.14309703,N,12152.11755723,W,2,11,0.9,8.111,M,-38.600,M,6.0,0131*62
$PYRTM,2024,125.250636727662,16.360284137789
$GNHDT,309.896,T*26
$PYRTM,2024,125.250642464213,16.360289874352
$GNGGA,060055.50,3514.14335470,N,12152.11783708,W,2,11,0.9,8.076,M,-38.600,M,6.4,0131*69
$PYRTM,2024,125.250642464213,16.360289874352
$GNHDT,310.206,T*2D
$PYRTM,2024,125.250648301400,16.360295711539
$GNGGA,060056.00,3514.14365140,N,12152.11805466,W,2,11,0.9,8.054,M,-38.600,M,7.0,0131*63
$PYRTM,2024,125.250648301400,16.360295711539
$GNHDT,310.298,T*2A
$PYRTM,2024,125.250654039190,16.360301449340
$GNGGA,060056.50,3514.14396055,N,12152.11825351,W,2,11,0.9,8.091,M,-38.600,M,7.4,0131*63
$PYRTM,2024,125.250654039190,16.360301449340
$GNHDT,310.637,T*2B
$PYRTM,2024,125.250659877905,16.360307288044
$GNGGA,060057.00,3514.14423943,N,12152.11849490,W,2,11,0.9,8.157,M,-38.600,M,7.0,0131*6F
$PYRTM,2024,125.250659877905,16.360307288044
$GNHDT,310.744,T*2E
$PYRTM,2024,125.250665613900,16.360313024039
$GNGGA,060057.50,3514.14447201,N,12152.11881411,W,2,11,0.9,8.256,M,-38.600,M,7.4,0131*6E
$PYRTM,2024,125.250665613900,16.360313024039
$GNHDT,310.521,T*2F
$PYRTM,2024,125.250671449942,16.360318860081
$GNGGA,060058.00,3514.14465130,N,12152.11919636,W,2,11,0.9,8.396,M,-38.600,M,7.0,0131*6B
$PYRTM,2024,125.250671449942,16.360318860081
$GNHDT,310.392,T*21
$PYRTM,2024,125.250677185197,16.360324595336
$GNGGA,060058.50,3514.14479196,N,12152.11961421,W,2,11,0.9,8.493,M,-38.600,M,7.4,0131*62
$PYRTM,2024,125.250677185197,16.360324595336
$GNHDT,310.260,T*2D
$PYRTM,2024,125.250683025069,16.360330435208
$GNGGA,060059.00,3514.14491776,N,12152.12004293,W,2,11,0.9,8.548,M,-38.600,M,4.0,0131*6E
$PYRTM,2024,125.250683025069,16.360330435208
$GNHDT,310.250,T*2E
$PYRTM,2024,125.250688761343,16.360336171481
$GNGGA,060059.50,3514.14505791,N,12152.12046482,W,2,11,0.9,8.504,M,-38.600,M,4.4,0131*62
$PYRTM,2024,125.250688761343,16.360336171481
$GNHDT,310.467,T*2C
$PYRTM,2024,125.250694604282,16.360342014421
$GNGGA,060100.00,3514.14523255,N,12152.12085396,W,2,11,0.9,8.407,M,-38.600,M,5.0,0131*69
$PYRTM,2024,125.250694604282,16.360342014421
$GNHDT,310.655,T*2F
$PYRTM,2024,125.250700333056,16.360347743194
$GNGGA,060100.50,3514.14544803,N,12152.12116960,W,2,11,0.9,8.300,M,-38.600,M,5.4,0131*68
$PYRTM,2024,125.250700333056,16.360347743194
$GNHDT,311.116,T*2E
$PYRTM,2024,125.250706172199,16.360353582338
$GNGGA,060101.00,3514.14570025,N,12152.12141094,W,2,11,0.9,8.222,M,-38.600,M,6.0,0131*61
$PYRTM,2024,125.250706172199,16.360353582338
$GNHDT,311.602,T*2C
$PYRTM,2024,125.250711910197,16.360359320336
$GNGGA,060101.50,3514.14598394,N,12152.12162157,W,2,11,0.9,8.148,M,-38.600,M,6.4,0131*6F
$PYRTM,2024,125.250711910197,16.360359320336
$GNHDT,311.614,T*2B
$PYRTM,2024,125.250717748993,16.360365159132
$GNGGA,060102.00,3514.14629021,N,12152.12182614,W,2,11,0.9,8.075,M,-38.600,M,7.0,0131*69
$PYRTM,2024,125.250717748993,16.360365159132
$GNHDT,311.465,T*2F
$PYRTM,2024,125.250723483773,16.360370893912
$GNGGA,060102.50,3514.14659182,N,12152.12207743,W,2,11,0.9,8.037,M,-38.600,M,7.4,0131*6C
$PYRTM,2024,125.250723483773,16.360370893912
$GNHDT,311.487,T*23
$PYRTM,2024,125.250729326898,16.360376737049
$GNGGA,060103.00,3514.14686675,N,12152.12240675,W,2,11,0.9,8.029,M,-38.600,M,7.0,0131*69
$PYRTM,2024,125.250729326898,16.360376737049
$GNHDT,311.340,T*2F
$PYRTM,2024,125.250735059491,16.360382469630
$GNGGA,060103.50,3514.14708732,N,12152.12280004,W,2,11,0.9,8.064,M,-38.600,M,7.4,0131*68
$PYRTM,2024,125.250735059491,16.360382469630
$GNHDT,311.309,T*22
$PYRTM,2024,125.250740895799,16.360388305938
$GNGGA,060104.00,3514.14724162,N,12152.12324876,W,2,11,0.9,8.137,M,-38.600,M,7.0,0131*66
$PYRTM,2024,125.250740895799,16.360388305938
$GNHDT,311.346,T*29
$PYRTM,2024,125.250746632882,16.360394043021
$GNGGA,060104.50,3514.14736176,N,12152.12371187,W,2,11,0.9,8.266,M,-38.600,M,7.4,0131*61
$PYRTM,2024,125.250746632882,16.360394043021
$GNHDT,311.645,T*2F
$PYRTM,2024,125.250752472396,16.360399882535
$GNGGA,060105.00,3514.14747450,N,12152.12414848,W,2,11,0.9,8.379,M,-38.600,M,4.0,0131*64
$PYRTM,2024,125.250752472396,16.360399882535
$GNHDT,311.843,T*27
$PYRTM,2024,125.250758202465,16.360405612616
$GNGGA,060105.50,3514.14761696,N,12152.12451372,W,2,11,0.9,8.456,M,-38.600,M,4.4,0131*60
$PYRTM,2024,125.250758202465,16.360405612616
$GNHDT,312.223,T*28
$PYRTM,2024,125.250764046412,16.360411456551
$GNGGA,060106.00,3514.14780702,N,12152.12479936,W,2,11,0.9,8.482,M,-38.600,M,5.0,0131*69
$PYRTM,2024,125.250764046412,16.360411456551
$GNHDT,312.288,T*29
$PYRTM,2024,125.250769780093,16.360417190231
$GNGGA,060106.50,3514.14805487,N,12152.12502789,W,2,11,0.9,8.423,M,-38.600,M,5.4,0131*68
$PYRTM,2024,125.250769780093,16.360417190231
$GNHDT,312.284,T*25
$PYRTM,2024,125.250775618206,16.360423028356
$GNGGA,060107.00,3514.14836310,N,12152.12525108,W,2,11,0.9,8.245,M,-38.600,M,6.0,0131*6E
$PYRTM,2024,125.250775618206,16.360423028356
$GNHDT,312.192,T*21
$PYRTM,2024,125.250781352176,16.360428762315
$GNGGA,060107.50,3514.14870773,N,12152.12551381,W,2,11,0.9,7.936,M,-38.600,M,6.4,0131*6C
$PYRTM,2024,125.250781352176,16.360428762315
$GNHDT,312.429,T*24
$PYRTM,2024,125.250787192836,16.360434602975
$GNGGA,060108.00,3514.14904836,N,12152.12582824,W,2,11,0.9,7.624,M,-38.600,M,7.0,0131*69
$PYRTM,2024,125.250787192836,16.360434602975
$GNHDT,312.457,T*2D
$PYRTM,2024,125.250792926435,16.360440336574
$GNGGA,060108.50,3514.14933947,N,12152.12619943,W,2,11,0.9,7.431,M,-38.600,M,7.4,0131*6C
$PYRTM,2024,125.250792926435,16.360440336574
$GNHDT,312.363,T*2D
$PYRTM,2024,125.250798769387,16.360446179525
$GNGGA,060109.00,3514.14953555,N,12152.12661119,W,2,11,0.9,7.498,M,-38.600,M,7.0,0131*6E
$PYRTM,2024,125.250798769387,16.360446179525
$GNHDT,312.442,T*29
$PYRTM,2024,125.250804501019,16.360451911169
$GNGGA,060109.50,3514.14964309,N,12152.12702841,W,2,11,0.9,7.811,M,-38.600,M,7.4,0131*69
$PYRTM,2024,125.250804501019,16.360451911169
$GNHDT,312.326,T*2C
$PYRTM,2024,125.250810339329,16.360457749468
$GNGGA,060110.00,3514.14969692,N,12152.12742248,W,2,11,0.9,8.283,M,-38.600,M,7.0,0131*63
$PYRTM,2024,125.250810339329,16.360457749468
$GNHDT,312.595,T*22
$PYRTM,2024,125.250816073403,16.360463483542
$GNGGA,060110.50,3514.14975982,N,12152.12777111,W,2,11,0.9,8.762,M,-38.600,M,7.4,0131*62
$PYRTM,2024,125.250816073403,16.360463483542
$GNHDT,312.957,T*20
$PYRTM,2024,125.250821915394,16.360469325532
$GNGGA,060111.00,3514.14990540,N,12152.12808287,W,2,11,0.9,9.111,M,-38.600,M,4.0,0131*60
$PYRTM,2024,125.250821915394,16.360469325532
$GNHDT,312.910,T*23
$PYRTM,2024,125.250827648889,16.360475059028
$GNGGA,060111.50,3514.15017637,N,12152.12836811,W,2,11,0.9,9.186,M,-38.600,M,4.4,0131*63
$PYRTM,2024,125.250827648889,16.360475059028
$GNHDT,312.801,T*22
$PYRTM,2024,125.250833486806,16.360480896944
$GNGGA,060112.00,3514.15052127,N,12152.12863490,W,2,11,0.9,9.049,M,-38.600,M,5.0,0131*60
$PYRTM,2024,125.250833486806,16.360480896944
$GNHDT,312.729,T*27
$PYRTM,2024,125.250839223773,16.360486633912
$GNGGA,060112.50,3514.15088438,N,12152.12889355,W,2,11,0.9,8.758,M,-38.600,M,5.4,0131*61
$PYRTM,2024,125.250839223773,16.360486633912
$GNHDT,312.254,T*28
$PYRTM,2024,125.250845062627,16.360492472766
$GNGGA,060113.00,3514.15121592,N,12152.12914115,W,2,11,0.9,8.449,M,-38.600,M,6.0,0131*61
$PYRTM,2024,125.250845062627,16.360492472766
$GNHDT,312.196,T*25
$PYRTM,2024,125.250850795509,16.360498205648
$GNGGA,060113.50,3514.15148656,N,12152.12937996,W,2,11,0.9,8.255,M,-38.600,M,6.4,0131*6D
$PYRTM,2024,125.250850795509,16.360498205648
$GNHDT,312.355,T*28
$PYRTM,2024,125.250856637581,16.360504047720
$GNGGA,060114.00,3514.15168753,N,12152.12962189,W,2,11,0.9,8.286,M,-38.600,M,7.0,0131*64
$PYRTM,2024,125.250856637581,16.360504047720
$GNHDT,312.560,T*28
$PYRTM,2024,125.250862373414,16.360509783553
$GNGGA,060114.50,3514.15184151,N,12152.12988807,W,2,11,0.9,8.471,M,-38.600,M,7.4,0131*66
$PYRTM,2024,125.250862373414,16.360509783553
$GNHDT,312.594,T*23
$PYRTM,2024,125.250868214699,16.360515624838
$GNGGA,060115.00,3514.15196491,N,12152.13019829,W,2,11,0.9,8.759,M,-38.600,M,7.0,0131*69
$PYRTM,2024,125.250868214699,16.360515624838
$GNHDT,312.540,T*2A
$PYRTM,2024,125.250873947234,16.360521357373
$GNGGA,060115.50,3514.15210389,N,12152.13056142,W,2,11,0.9,8.946,M,-38.600,M,7.4,0131*64
$PYRTM,2024,125.250873947234,16.360521357373
$GNHDT,312.576,T*2F
$PYRTM,2024,125.250879787095,16.360527197234
$GNGGA,060116.00,3514.15227276,N,12152.13097665,W,2,11,0.9,8.968,M,-38.600,M,7.0,0131*60
$PYRTM,2024,125.250879787095,16.360527197234
$GNHDT,312.492,T*24
$PYRTM,2024,125.250885518079,16.360532928218
$GNGGA,060116.50,3514.15249138,N,12152.13141229,W,2,11,0.9,8.774,M,-38.600,M,7.4,0131*65
$PYRTM,2024,125.250885518079,16.360532928218
$GNHDT,312.531,T*2C
$PYRTM,2024,125.250891362130,16.360538772280
$GNGGA,060117.00,3514.15275314,N,12152.13181661,W,2,11,0.9,8.443,M,-38.601,M,4.0,0131*67
$PYRTM,2024,125.250891362130,16.360538772280
$GNHDT,312.414,T*2A
$PYRTM,2024,125.250897092049,16.360544502188
$GNGGA,060117.50,3514.15303753,N,12152.13214306,W,2,11,0.9,8.122,M,-38.601,M,4.4,0131*68
$PYRTM,2024,125.250897092049,16.360544502188
$GNHDT,312.665,T*2E
$PYRTM,2024,125.250902933472,16.360550343611
$GNGGA,060118.00,3514.15334784,N,12152.13237245,W,2,11,0.9,7.876,M,-38.601,M,5.0,0131*69
$PYRTM,2024,125.250902933472,16.360550343611
$GNHDT,312.657,T*2F
$PYRTM,2024,125.250908669873,16.360556080012
$GNGGA,060118.50,3514.15365347,N,12152.13251874,W,2,11,0.9,7.828,M,-38.601,M,5.4,0131*64
$PYRTM,2024,125.250908669873,16.360556080012
$GNHDT,312.593,T*24
$PYRTM,2024,125.250914508414,16.360561918553
$GNGGA,060119.00,3514.15395084,N,12152.13264790,W,2,11,0.9,7.921,M,-38.601,M,6.0,0131*6F
$PYRTM,2024,125.250914508414,16.360561918553
$GNHDT,312.986,T*2C
$PYRTM,2024,125.250920241366,16.360567651505
$GNGGA,060119.50,3514.15422433,N,12152.13284123,W,2,11,0.9,8.068,M,-38.601,M,6.4,0131*66
$PYRTM,2024,125.250920241366,16.360567651505
$GNHDT,313.089,T*2B
$PYRTM,2024,125.250926084352,16.360573494491
$GNGGA,060120.00,3514.15445725,N,12152.13314226,W,2,11,0.9,8.186,M,-38.601,M,7.0,0131*66
$PYRTM,2024,125.250926084352,16.360573494491
$GNHDT,313.016,T*2D
$PYRTM,2024,125.250931816262,16.360579226400
$GNGGA,060120.50,3514.15464253,N,12152.13354866,W,2,11,0.9,8.243,M,-38.601,M,7.4,0131*60
$PYRTM,2024,125.250931816262,16.360579226400
$GNHDT,312.735,T*2A
$PYRTM,2024,125.250937662257,16.360585072396
$GNGGA,060121.00,3514.15478147,N,12152.13402779,W,2,11,0.9,8.242,M,-38.601,M,7.0,0131*6F
$PYRTM,2024,125.250937662257,16.360585072396
$GNHDT,312.765,T*2F
$PYRTM,2024,125.250943398044,16.360590808183
$GNGGA,060121.50,3514.15488516,N,12152.13450049,W,2,11,0.9,8.209,M,-38.601,M,7.4,0131*6D
$PYRTM,2024,125.250943398044,16.360590808183
$GNHDT,312.936,T*27
$PYRTM,2024,125.250949232060,16.360596642199
$GNGGA,060122.00,3514.15497070,N,12152.13492356,W,2,11,0.9,8.203,M,-38.601,M,7.0,0131*6D
$PYRTM,2024,125.250949232060,16.360596642199
$GNHDT,312.783,T*27
$PYRTM,2024,125.250954964988,16.360602375127
$GNGGA,060122.50,3514.15507556,N,12152.13525529,W,2,11,0.9,8.265,M,-38.601,M,7.4,0131*66
$PYRTM,2024,125.250954964988,16.360602375127
$GNHDT,313.005,T*2F
$PYRTM,2024,125.250960806412,16.360608216551
$GNGGA,060123.00,3514.15525332,N,12152.13550009,W,2,11,0.9,8.323,M,-38.601,M,4.0,0131*67
$PYRTM,2024,125.250960806412,16.360608216551
$GNHDT,312.930,T*21
$PYRTM,2024,125.250966538275,16.360613948414
$GNGGA,060123.50,3514.15554516,N,12152.13568515,W,2,11,0.9,8.248,M,-38.601,M,4.4,0131*6F
$PYRTM,2024,125.250966538275,16.360613948414
$GNHDT,312.843,T*24
$PYRTM,2024,125.250972377338,16.360619787477
$GNGGA,060124.00,3514.15594289,N,12152.13583421,W,2,11,0.9,8.013,M,-38.601,M,5.0,0131*6A
$PYRTM,2024,125.250972377338,16.360619787477
$GNHDT,312.833,T*23
$PYRTM,2024,125.250978111146,16.360625521285
$GNGGA,060124.50,3514.15635930,N,12152.13601352,W,2,11,0.9,7.741,M,-38.601,M,5.4,0131*6F
$PYRTM,2024,125.250978111146,16.360625521285
$GNHDT,312.766,T*2C
$PYRTM,2024,125.250983954873,16.360631365012
$GNGGA,060125.00,3514.15672317,N,12152.13624895,W,2,11,0.9,7.590,M,-38.601,M,6.0,0131*69
$PYRTM,2024,125.250983954873,16.360631365012
$GNHDT,312.668,T*23
$PYRTM,2024,125.250989690660,16.360637100799
$GNGGA,060125.50,3514.15696515,N,12152.13656498,W,2,11,0.9,7.709,M,-38.601,M,6.4,0131*60
$PYRTM,2024,125.250989690660,16.360637100799
$GNHDT,312.443,T*28
$PYRTM,2024,125.250995528299,16.360642938438
$GNGGA,060126.00,3514.15708541,N,12152.13693928,W,2,11,0.9,8.061,M,-38.601,M,7.0,0131*6D
$PYRTM,2024,125.250995528299,16.360642938438
$GNHDT,311.907,T*26
$PYRTM,2024,125.251001266644,16.360648676782
$GNGGA,060126.50,3514.15712177,N,12152.13735643,W,2,11,0.9,8.473,M,-38.601,M,7.4,0131*6E
$PYRTM,2024,125.251001266644,16.360648676782
$GNHDT,311.834,T*27
$PYRTM,2024,125.251007103924,16.360654514062
$GNGGA,060127.00,3514.15713420,N,12152.13780572,W,2,11,0.9,8.874,M,-38.601,M,7.0,0131*6C
$PYRTM,2024,125.251007103924,16.360654514062
$GNHDT,311.655,T*2E
$PYRTM,2024,125.251012838843,16.360660248981
$GNGGA,060127.50,3514.15723639,N,12152.13823271,W,2,11,0.9,9.026,M,-38.601,M,7.4,0131*68
$PYRTM,2024,125.251012838843,16.360660248981
$GNHDT,311.522,T*2D
$PYRTM,2024,125.251018678113,16.360666088252
$GNGGA,060128.00,3514.15748436,N,12152.13860693,W,2,11,0.9,8.940,M,-38.601,M,7.0,0131*61
$PYRTM,2024,125.251018678113,16.360666088252
$GNHDT,311.657,T*2C
$PYRTM,2024,125.251024411458,16.360671821597
$GNGGA,060128.50,3514.15784895,N,12152.13890386,W,2,11,0.9,8.658,M,-38.601,M,7.4,0131*6D
$PYRTM,2024,125.251024411458,16.360671821597
$GNHDT,311.516,T*2A
$PYRTM,2024,125.251030248785,16.360677658924
$GNGGA,060129.00,3514.15824574,N,12152.13914020,W,2,11,0.9,8.278,M,-38.601,M,4.0,0131*6D
$PYRTM,2024,125.251030248785,16.360677658924
$GNHDT,311.236,T*2F
$PYRTM,2024,125.251035988553,16.360683398692
$GNGGA,060129.50,3514.15861484,N,12152.13935851,W,2,11,0.9,7.935,M,-38.601,M,4.4,0131*63
$PYRTM,2024,125.251035988553,16.360683398692
$GNHDT,310.719,T*26
$PYRTM,2024,125.251041822187,16.360689232338
$GNGGA,060130.00,3514.15890823,N,12152.13958473,W,2,11,0.9,7.791,M,-38.601,M,5.0,0131*63
$PYRTM,2024,125.251041822187,16.360689232338
$GNHDT,310.479,T*23
$PYRTM,2024,125.251047555984,16.360694966123
$GNGGA,060130.50,3514.15912181,N,12152.13982712,W,2,11,0.9,7.825,M,-38.601,M,5.4,0131*6B
$PYRTM,2024,125.251047555984,16.360694966123
$GNHDT,310.059,T*25
$PYRTM,2024,125.251053398553,16.360700808692
$GNGGA,060131.00,3514.15926232,N,12152.14010604,W,2,11,0.9,8.063,M,-38.601,M,6.0,0131*62
$PYRTM,2024,125.251053398553,16.360700808692
$GNHDT,309.829,T*22
$PYRTM,2024,125.251059131400,16.360706541539
$GNGGA,060131.50,3514.15937079,N,12152.14042594,W,2,11,0.9,8.350,M,-38.601,M,6.4,0131*60
$PYRTM,2024,125.251059131400,16.360706541539
$GNHDT,310.258,T*26
$PYRTM,2024,125.251064970949,16.360712381100
$GNGGA,060132.00,3514.15947772,N,12152.14079529,W,2,11,0.9,8.600,M,-38.601,M,7.0,0131*66
$PYRTM,2024,125.251064970949,16.360712381100
$GNHDT,310.615,T*2B
$PYRTM,2024,125.251070706470,16.360718116609
$GNGGA,060132.50,3514.15962387,N,12152.14119975,W,2,11,0.9,8.687,M,-38.601,M,7.4,0131*63
$PYRTM,2024,125.251070706470,16.360718116609
$GNHDT,310.912,T*23
$PYRTM,2024,125.251076552986,16.360723963125
$GNGGA,060133.00,3514.15982570,N,12152.14161379,W,2,11,0.9,8.575,M,-38.601,M,7.0,0131*64
$PYRTM,2024,125.251076552986,16.360723963125
$GNHDT,310.625,T*28
$PYRTM,2024,125.251082281632,16.360729691771
$GNGGA,060133.50,3514.16006504,N,12152.14197692,W,2,11,0.9,8.365,M,-38.601,M,7.4,0131*6E
$PYRTM,2024,125.251082281632,16.360729691771
$GNHDT,310.223,T*2A
$PYRTM,2024,125.251088118241,16.360735528380
$GNGGA,060134.00,3514.16031661,N,12152.14226469,W,2,11,0.9,8.167,M,-38.601,M,7.0,0131*63
$PYRTM,2024,125.251088118241,16.360735528380
$GNHDT,309.752,T*21
$PYRTM,2024,125.251093851979,16.360741262118
$GNGGA,060134.50,3514.16055581,N,12152.14248983,W,2,11,0.9,8.062,M,-38.601,M,7.4,0131*68
$PYRTM,2024,125.251093851979,16.360741262118
$GNHDT,309.411,T*25
$PYRTM,2024,125.251099693206,16.360747103345
$GNGGA,060135.00,3514.16076235,N,12152.14269398,W,2,11,0.9,8.054,M,-38.601,M,4.0,0131*64
$PYRTM,2024,125.251099693206,16.360747103345
$GNHDT,309.057,T*23
$PYRTM,2024,125.251105425671,16.360752835810
$GNGGA,060135.50,3514.16093610,N,12152.14294047,W,2,11,0.9,8.107,M,-38.601,M,4.4,0131*69
$PYRTM,2024,125.251105425671,16.360752835810
$GNHDT,308.929,T*22
$PYRTM,2024,125.251111273218,16.360758683356
$GNGGA,060136.00,3514.16107207,N,12152.14324782,W,2,11,0.9,8.175,M,-38.601,M,5.0,0131*65
$PYRTM,2024,125.251111273218,16.360758683356
$GNHDT,309.027,T*24
$PYRTM,2024,125.251117002245,16.360764412384
$GNGGA,060136.50,3514.16120156,N,12152.14358926,W,2,11,0.9,8.204,M,-38.601,M,5.4,0131*68
$PYRTM,2024,125.251117002245,16.360764412384
$GNHDT,309.134,T*27
$PYRTM,2024,125.251122841771,16.360770251910
$GNGGA,060137.00,3514.16133592,N,12152.14394161,W,2,11,0.9,8.200,M,-38.601,M,6.0,0131*6A
$PYRTM,2024,125.251122841771,16.360770251910
$GNHDT,309.419,T*2D
$PYRTM,2024,125.251128575266,16.360775985405
$GNGGA,060137.50,3514.16149536,N,12152.14427585,W,2,11,0.9,8.158,M,-38.601,M,6.4,0131*67
$PYRTM,2024,125.251128575266,16.360775985405
$GNHDT,309.736,T*23
$PYRTM,2024,125.251134414815,16.360781824954
$GNGGA,060138.00,3514.16169878,N,12152.14460096,W,2,11,0.9,8.058,M,-38.601,M,7.0,0131*68
$PYRTM,2024,125.251134414815,16.360781824954
$GNHDT,309.825,T*2E
$PYRTM,2024,125.251140151528,16.360787561667
$GNGGA,060138.50,3514.16195371,N,12152.14491147,W,2,11,0.9,7.927,M,-38.601,M,7.4,0131*65
$PYRTM,2024,125.251140151528,16.360787561667
$GNHDT,309.896,T*26
$PYRTM,2024,125.251145992037,16.360793402176
$GNGGA,060139.00,3514.16225006,N,12152.14521521,W,2,11,0.9,7.787,M,-38.601,M,7.0,0131*64
$PYRTM,2024,125.251145992037,16.360793402176
$GNHDT,309.573,T*20
$PYRTM,2024,125.251151722546,16.360799132685
$GNGGA,060139.50,3514.16254553,N,12152.14553087,W,2,11,0.9,7.712,M,-38.601,M,7.4,0131*66
$PYRTM,2024,125.251151722546,16.360799132685
$GNHDT,309.268,T*2D
$PYRTM,2024,125.251157562998,16.360804973137
$GNGGA,060140.00,3514.16279023,N,12152.14586329,W,2,11,0.9,7.776,M,-38.601,M,7.0,0131*69
$PYRTM,2024,125.251157562998,16.360804973137
$GNHDT,309.129,T*2B
$PYRTM,2024,125.251163296539,16.360810706678
$GNGGA,060140.50,3514.16295984,N,12152.14621951,W,2,11,0.9,8.018,M,-38.601,M,7.4,0131*65
$PYRTM,2024,125.251163296539,16.360810706678
$GNHDT,308.814,T*2D
$PYRTM,2024,125.251169136968,16.360816547106
$GNGGA,060141.00,3514.16307765,N,12152.14658933,W,2,11,0.9,8.370,M,-38.601,M,4.0,0131*6A
$PYRTM,2024,125.251169136968,16.360816547106
$GNHDT,308.766,T*27
$PYRTM,2024,125.251174881852,16.360822291991
$GNGGA,060141.50,3514.16318472,N,12152.14694546,W,2,11,0.9,8.741,M,-38.601,M,4.4,0131*68
$PYRTM,2024,125.251174881852,16.360822291991
$GNHDT,308.821,T*2B
$PYRTM,2024,125.251180717477,16.360828127616
$GNGGA,060142.00,3514.16332980,N,12152.14729139,W,2,11,0.9,9.020,M,-38.601,M,5.0,0131*69
$PYRTM,2024,125.251180717477,16.360828127616
$GNHDT,308.929,T*22
$PYRTM,2024,125.251186442824,16.360833852963
$GNGGA,060142.50,3514.16354321,N,12152.14761316,W,2,11,0.9,9.135,M,-38.601,M,5.4,0131*6F
$PYRTM,2024,125.251186442824,16.360833852963
$GNHDT,309.295,T*2F
$PYRTM,2024,125.251192288484,16.360839698623
$GNGGA,060143.00,3514.16383031,N,12152.14787973,W,2,11,0.9,9.063,M,-38.601,M,6.0,0131*67
$PYRTM,2024,125.251192288484,16.360839698623
$GNHDT,309.461,T*22
$PYRTM,2024,125.251198022269,16.360845432407
$GNGGA,060143.50,3514.16417091,N,12152.14811869,W,2,11,0.9,8.810,M,-38.601,M,6.4,0131*61
$PYRTM,2024,125.251198022269,16.360845432407
$GNHDT,309.698,T*26
$PYRTM,2024,125.251203857766,16.360851267905
$GNGGA,060144.00,3514.16451975,N,12152.14834917,W,2,11,0.9,8.461,M,-38.601,M,7.0,0131*62
$PYRTM,2024,125.251203857766,16.360851267905
$GNHDT,309.677,T*27
$PYRTM,2024,125.251209592743,16.360857002882
$GNGGA,060144.50,3514.16483057,N,12152.14859081,W,2,11,0.9,8.150,M,-38.601,M,7.4,0131*6F
$PYRTM,2024,125.251209592743,16.360857002882
$GNHDT,309.726,T*22
$PYRTM,2024,125.251215436134,16.360862846273
$GNGGA,060145.00,3514.16505234,N,12152.14886727,W,2,11,0.9,8.031,M,-38.601,M,7.0,0131*68
$PYRTM,2024,125.251215436134,16.360862846273
$GNHDT,309.475,T*27
$PYRTM,2024,125.251221170741,16.360868580880
$GNGGA,060145.50,3514.16519086,N,12152.14917638,W,2,11,0.9,8.128,M,-38.601,M,7.4,0131*60
$PYRTM,2024,125.251221170741,16.360868580880
$GNHDT,309.445,T*24
$PYRTM,2024,125.251227009537,16.360874419676
$GNGGA,060146.00,3514.16526305,N,12152.14951381,W,2,11,0.9,8.388,M,-38.601,M,7.0,0131*6B
$PYRTM,2024,125.251227009537,16.360874419676
$GNHDT,309.610,T*26
$PYRTM,2024,125.251232740463,16.360880150602
$GNGGA,060146.50,3514.16531998,N,12152.14985609,W,2,11,0.9,8.700,M,-38.601,M,7.4,0131*6A
$PYRTM,2024,125.251232740463,16.360880150602
$GNHDT,309.806,T*2F
$PYRTM,2024,125.251238585081,16.360885995220
$GNGGA,060147.00,3514.16539468,N,12152.15020697,W,2,11,0.9,8.988,M,-38.601,M,4.0,0131*6D
$PYRTM,2024,125.251238585081,16.360885995220
$GNHDT,309.829,T*22
$PYRTM,2024,125.251244316400,16.360891726539
$GNGGA,060147.50,3514.16553862,N,12152.15055132,W,2,11,0.9,9.101,M,-38.601,M,4.4,0131*64
$PYRTM,2024,125.251244316400,16.360891726539
$GNHDT,309.596,T*2B
$PYRTM,2024,125.251250155301,16.360897565440
$GNGGA,060148.00,3514.16576457,N,12152.15088252,W,2,11,0.9,8.955,M,-38.601,M,5.0,0131*6B
$PYRTM,2024,125.251250155301,16.360897565440
$GNHDT,309.669,T*28
$PYRTM,2024,125.251255896262,16.360903306400
$GNGGA,060148.50,3514.16604287,N,12152.15118014,W,2,11,0.9,8.641,M,-38.601,M,5.4,0131*65
$PYRTM,2024,125.251255896262,16.360903306400
$GNHDT,309.595,T*28
$PYRTM,2024,125.251261734826,16.360909144965
$GNGGA,060149.00,3514.16635023,N,12152.15145824,W,2,11,0.9,8.166,M,-38.601,M,6.0,0131*69
$PYRTM,2024,125.251261734826,16.360909144965
$GNHDT,309.824,T*2F
$PYRTM,2024,125.251267461748,16.360914871887
$GNGGA,060149.50,3514.16664368,N,12152.15170650,W,2,11,0.9,7.777,M,-38.601,M,6.4,0131*62
$PYRTM,2024,125.251267461748,16.360914871887
$GNHDT,310.110,T*29
$PYRTM,2024,125.251273302581,16.360920712720
$GNGGA,060150.00,3514.16687092,N,12152.15195820,W,2,11,0.9,7.607,M,-38.601,M,7.0,0131*65
$PYRTM,2024,125.251273302581,16.360920712720
$GNHDT,310.251,T*2F
$PYRTM,2024,125.251279036331,16.360926446481
$GNGGA,060150.50,3514.16701337,N,12152.15223178,W,2,11,0.9,7.739,M,-38.601,M,7.4,0131*61
$PYRTM,2024,125.251279036331,16.360926446481
$GNHDT,310.446,T*2F
$PYRTM,2024,125.251284880463,16.360932290613
$GNGGA,060151.00,3514.16709609,N,12152.15256327,W,2,11,0.9,8.048,M,-38.601,M,7.0,0131*65
$PYRTM,2024,125.251284880463,16.360932290613
$GNHDT,310.153,T*2E
$PYRTM,2024,125.251290619653,16.360938029792
$GNGGA,060151.50,3514.16716509,N,12152.15293642,W,2,11,0.9,8.434,M,-38.601,M,7.4,0131*69
$PYRTM,2024,125.251290619653,16.360938029792
$GNHDT,310.289,T*2A
$PYRTM,2024,125.251296453681,16.360943863819
$GNGGA,060152.00,3514.16725318,N,12152.15334620,W,2,11,0.9,8.736,M,-38.601,M,7.0,0131*64
$PYRTM,2024,125.251296453681,16.360943863819
$GNHDT,310.209,T*22
$PYRTM,2024,125.251302189525,16.360949599664
$GNGGA,060152.50,3514.16739981,N,12152.15375711,W,2,11,0.9,8.878,M,-38.601,M,7.4,0131*61
$PYRTM,2024,125.251302189525,16.360949599664
$GNHDT,310.036,T*2C
$PYRTM,2024,125.251308030579,16.360955440718
$GNGGA,060153.00,3514.16761036,N,12152.15415536,W,2,11,0.9,8.866,M,-38.601,M,4.0,0131*63
$PYRTM,2024,125.251308030579,16.360955440718
$GNHDT,309.821,T*2A
$PYRTM,2024,125.251313760949,16.360961171088
$GNGGA,060153.50,3514.16787542,N,12152.15450477,W,2,11,0.9,8.755,M,-38.601,M,4.4,0131*66
$PYRTM,2024,125.251313760949,16.360961171088
$GNHDT,310.180,T*20
$PYRTM,2024,125.251319606690,16.360967016829
$GNGGA,060154.00,3514.16818026,N,12152.15479277,W,2,11,0.9,8.555,M,-38.601,M,5.0,0131*60
$PYRTM,2024,125.251319606690,16.360967016829
$GNHDT,310.386,T*24
$PYRTM,2024,125.251325334444,16.360972744583
$GNGGA,060154.50,3514.16847888,N,12152.15502539,W,2,11,0.9,8.341,M,-38.601,M,5.4,0131*64
$PYRTM,2024,125.251325334444,16.360972744583
$GNHDT,310.290,T*22
$PYRTM,2024,125.251331173947,16.360978584097
$GNGGA,060155.00,3514.16872711,N,12152.15523981,W,2,11,0.9,8.253,M,-38.601,M,6.0,0131*60
$PYRTM,2024,125.251331173947,16.360978584097
$GNHDT,310.370,T*2D
$PYRTM,2024,125.251336906400,16.360984316539
$GNGGA,060155.50,3514.16890314,N,12152.15547345,W,2,11,0.9,8.290,M,-38.601,M,6.4,0131*63
$PYRTM,2024,125.251336906400,16.360984316539
$GNHDT,310.470,T*2A
$PYRTM,2024,125.251342752604,16.360990162743
$GNGGA,060156.00,3514.16902767,N,12152.15576002,W,2,11,0.9,8.449,M,-38.601,M,7.0,0131*6A
$PYRTM,2024,125.251342752604,16.360990162743
$GNHDT,310.509,T*25
$PYRTM,2024,125.251348481088,16.360995891227
$GNGGA,060156.50,3514.16915082,N,12152.15609504,W,2,11,0.9,8.638,M,-38.601,M,7.4,0131*6D
$PYRTM,2024,125.251348481088,16.360995891227
$GNHDT,310.445,T*2C
$PYRTM,2024,125.251354321551,16.361001731690
$GNGGA,060157.00,3514.16931113,N,12152.15647095,W,2,11,0.9,8.747,M,-38.601,M,7.0,0131*6C
$PYRTM,2024,125.251354321551,16.361001731690
$GNHDT,310.273,T*2F
$PYRTM,2024,125.251360054201,16.361007464340
$GNGGA,060157.50,3514.16952732,N,12152.15685099,W,2,11,0.9,8.724,M,-38.601,M,7.4,0131*6A
$PYRTM,2024,125.251360054201,16.361007464340
$GNHDT,310.223,T*2A
$PYRTM,2024,125.251365900683,16.361013310822
$GNGGA,060158.00,3514.16978382,N,12152.15723151,W,2,11,0.9,8.578,M,-38.601,M,7.0,0131*60
$PYRTM,2024,125.251365900683,16.361013310822
$GNHDT,310.517,T*2A
$PYRTM,2024,125.251371626840,16.361019036979
$GNGGA,060158.50,3514.17003892,N,12152.15759158,W,2,11,0.9,8.403,M,-38.601,M,7.4,0131*66
$PYRTM,2024,125.251371626840,16.361019036979
$GNHDT,310.583,T*27
$PYRTM,2024,125.251377471470,16.361024881609
$GNGGA,060159.00,3514.17026333,N,12152.15792522,W,2,11,0.9,8.306,M,-38.601,M,4.0,0131*6E
$PYRTM,2024,125.251377471470,16.361024881609
$GNHDT,310.422,T*2D
$PYRTM,2024,125.251383202199,16.361030612338
$GNGGA,060159.50,3514.17044585,N,12152.15822197,W,2,11,0.9,8.336,M,-38.601,M,4.4,0131*6D
$PYRTM,2024,125.251383202199,16.361030612338
$GNHDT,310.319,T*22
$PYRTM,2024,125.251389044109,16.361036454248
$GNGGA,060200.00,3514.17061010,N,12152.15850569,W,2,11,0.9,8.464,M,-38.601,M,5.0,0131*6C
$PYRTM,2024,125.251389044109,16.361036454248
$GNHDT,310.068,T*27
$PYRTM,2024,125.251394784317,16.361042194456
$GNGGA,060200.50,3514.17077054,N,12152.15879402,W,2,11,0.9,8.607,M,-38.601,M,5.4,0131*6A
$PYRTM,2024,125.251394784317,16.361042194456
$GNHDT,310.081,T*20
$PYRTM,2024,125.251400619109,16.361048029248
$GNGGA,060201.00,3514.17094121,N,12152.15910907,W,2,11,0.9,8.685,M,-38.601,M,6.0,0131*6B
$PYRTM,2024,125.251400619109,16.361048029248
$GNHDT,310.113,T*2A
$PYRTM,2024,125.251406350359,16.361053760498
$GNGGA,060201.50,3514.17113139,N,12152.15944157,W,2,11,0.9,8.685,M,-38.601,M,6.4,0131*61
$PYRTM,2024,125.251406350359,16.361053760498
$GNHDT,310.311,T*2A
$PYRTM,2024,125.251412191435,16.361059601574
$GNGGA,060202.00,3514.17134125,N,12152.15977563,W,2,11,0.9,8.602,M,-38.601,M,7.0,0131*66
$PYRTM,2024,125.251412191435,16.361059601574
$GNHDT,310.360,T*2C
$PYRTM,2024,125.251417927824,16.361065337963
$GNGGA,060202.50,3514.17156889,N,12152.16007668,W,2,11,0.9,8.511,M,-38.601,M,7.4,0131*68
$PYRTM,2024,125.251417927824,16.361065337963
$GNHDT,310.467,T*2C
$PYRTM,2024,125.251423773819,16.361071183958
$GNGGA,060203.00,3514.17180565,N,12152.16033824,W,2,11,0.9,8.463,M,-38.601,M,7.0,0131*69
$PYRTM,2024,125.251423773819,16.361071183958
$GNHDT,310.612,T*2C
$PYRTM,2024,125.251429499468,16.361076909606
$GNGGA,060203.50,3514.17204105,N,12152.16057778,W,2,11,0.9,8.492,M,-38.601,M,7.4,0131*6F
$PYRTM,2024,125.251429499468,16.361076909606
$GNHDT,310.586,T*22
$PYRTM,2024,125.251435340961,16.361082751100
$GNGGA,060204.00,3514.17225692,N,12152.16082746,W,2,11,0.9,8.557,M,-38.601,M,7.0,0131*6E
$PYRTM,2024,125.251435340961,16.361082751100
$GNHDT,310.515,T*28
$PYRTM,2024,125.251441072951,16.361088483090
$GNGGA,060204.50,3514.17243532,N,12152.16111676,W,2,11,0.9,8.631,M,-38.601,M,7.4,0131*6C
$PYRTM,2024,125.251441072951,16.361088483090
$GNHDT,310.556,T*2F
$PYRTM,2024,125.251446914699,16.361094324838
$GNGGA,060205.00,3514.17256777,N,12152.16144393,W,2,11,0.9,8.711,M,-38.601,M,4.0,0131*65
$PYRTM,2024,125.251446914699,16.361094324838
$GNHDT,310.354,T*2B
$PYRTM,2024,125.251452653912,16.361100064051
$GNGGA,060205.50,3514.17267691,N,12152.16180130,W,2,11,0.9,8.699,M,-38.601,M,4.4,0131*6D
$PYRTM,2024,125.251452653912,16.361100064051
$GNHDT,310.515,T*28
$PYRTM,2024,125.251458493264,16.361105903403
$GNGGA,060206.00,3514.17278785,N,12152.16217684,W,2,11,0.9,8.597,M,-38.601,M,5.0,0131*6C
$PYRTM,2024,125.251458493264,16.361105903403
$GNHDT,310.740,T*2A
$PYRTM,2024,125.251464223241,16.361111633391
$GNGGA,060206.50,3514.17293083,N,12152.16253871,W,2,11,0.9,8.480,M,-38.601,M,5.4,0131*6A
$PYRTM,2024,125.251464223241,16.361111633391
$GNHDT,310.281,T*22
$PYRTM,2024,125.251470067847,16.361117477986
$GNGGA,060207.00,3514.17312542,N,12152.16287619,W,2,11,0.9,8.371,M,-38.601,M,6.0,0131*69
$PYRTM,2024,125.251470067847,16.361117477986
$GNHDT,310.235,T*2D
$PYRTM,2024,125.251475797616,16.361123207755
$GNGGA,060207.50,3514.17336796,N,12152.16317817,W,2,11,0.9,8.318,M,-38.601,M,6.4,0131*62
$PYRTM,2024,125.251475797616,16.361123207755
$GNHDT,310.256,T*28
$PYRTM,2024,125.251481639931,16.361129050069
$GNGGA,060208.00,3514.17363978,N,12152.16344019,W,2,11,0.9,8.314,M,-38.601,M,7.0,0131*6F
$PYRTM,2024,125.251481639931,16.361129050069
$GNHDT,310.188,T*28
$PYRTM,2024,125.251487371204,16.361134781343
$GNGGA,060208.50,3514.17391411,N,12152.16366491,W,2,11,0.9,8.428,M,-38.601,M,7.4,0131*6D
$PYRTM,2024,125.251487371204,16.361134781343
$GNHDT,310.277,T*2B
$PYRTM,2024,125.251493212870,16.361140623009
$GNGGA,060209.00,3514.17417226,N,12152.16383511,W,2,11,0.9,8.564,M,-38.601,M,7.0,0131*6D
$PYRTM,2024,125.251493212870,16.361140623009
$GNHDT,310.751,T*2A
$PYRTM,2024,125.251498943171,16.361146353310
$GNGGA,060209.50,3514.17437851,N,12152.16403043,W,2,11,0.9,8.726,M,-38.601,M,7.4,0131*6D
$PYRTM,2024,125.251498943171,16.361146353310
$GNHDT,310.948,T*2C
$PYRTM,2024,125.251504787569,16.361152197708
$GNGGA,060210.00,3514.17453121,N,12152.16429381,W,2,11,0.9,8.831,M,-38.601,M,7.0,0131*64
$PYRTM,2024,125.251504787569,16.361152197708
$GNHDT,311.145,T*28
$PYRTM,2024,125.251510519514,16.361157929664
$GNGGA,060210.50,3514.17465529,N,12152.16465531,W,2,11,0.9,8.829,M,-38.601,M,7.4,0131*60
$PYRTM,2024,125.251510519514,16.361157929664
$GNHDT,311.111,T*29
$PYRTM,2024,125.251516362303,16.361163772454
$GNGGA,060211.00,3514.17477732,N,12152.16510216,W,2,11,0.9,8.724,M,-38.601,M,4.0,0131*6B
$PYRTM,2024,125.251516362303,16.361163772454
$GNHDT,311.291,T*22
$PYRTM,2024,125.251522096470,16.361169506609
$GNGGA,060211.50,3514.17494364,N,12152.16556336,W,2,11,0.9,8.480,M,-38.601,M,4.4,0131*6C
$PYRTM,2024,125.251522096470,16.361169506609
$GNHDT,310.809,T*28
$PYRTM,2024,125.251527938738,16.361175348889
$GNGGA,060212.00,3514.17515476,N,12152.16599615,W,2,11,0.9,8.227,M,-38.601,M,5.0,0131*6F
$PYRTM,2024,125.251527938738,16.361175348889
$GNHDT,310.691,T*27
$PYRTM,2024,125.251533666481,16.361181076620
$GNGGA,060212.50,3514.17539538,N,12152.16636886,W,2,11,0.9,8.113,M,-38.602,M,5.4,0131*6E
$PYRTM,2024,125.251533666481,16.361181076620
$GNHDT,310.882,T*2B
$PYRTM,2024,125.251539508507,16.361186918646
$GNGGA,060213.00,3514.17566005,N,12152.16664386,W,2,11,0.9,8.154,M,-38.602,M,6.0,0131*63
$PYRTM,2024,125.251539508507,16.361186918646
$GNHDT,310.729,T*25
$PYRTM,2024,125.251545248565,16.361192658715
$GNGGA,060213.50,3514.17591668,N,12152.16685452,W,2,11,0.9,8.297,M,-38.602,M,6.4,0131*6A
$PYRTM,2024,125.251545248565,16.361192658715
$GNHDT,310.657,T*2D
$PYRTM,2024,125.251551090671,16.361198500810
$GNGGA,060214.00,3514.17615334,N,12152.16706393,W,2,11,0.9,8.475,M,-38.602,M,7.0,0131*64
$PYRTM,2024,125.251551090671,16.361198500810
$GNHDT,310.966,T*20
$PYRTM,2024,125.251556815289,16.361204225428
$GNGGA,060214.50,3514.17636152,N,12152.16730140,W,2,11,0.9,8.648,M,-38.602,M,7.4,0131*63
$PYRTM,2024,125.251556815289,16.361204225428
$GNHDT,311.093,T*22
$PYRTM,2024,125.251562664595,16.361210074734
$GNGGA,060215.00,3514.17656089,N,12152.16759739,W,2,11,0.9,8.729,M,-38.602,M,7.0,0131*63
$PYRTM,2024,125.251562664595,16.361210074734
$GNHDT,311.448,T*20
$PYRTM,2024,125.251568391065,16.361215801204
$GNGGA,060215.50,3514.17676105,N,12152.16793960,W,2,11,0.9,8.729,M,-38.602,M,7.4,0131*61
$PYRTM,2024,125.251568391065,16.361215801204
$GNHDT,311.869,T*2F
$PYRTM,2024,125.251574234595,16.361221644734
$GNGGA,060216.00,3514.17696141,N,12152.16829915,W,2,11,0.9,8.684,M,-38.602,M,7.0,0131*67
$PYRTM,2024,125.251574234595,16.361221644734
$GNHDT,311.909,T*28
$PYRTM,2024,125.251579964074,16.361227374213
$GNGGA,060216.50,3514.17717246,N,12152.16864572,W,2,11,0.9,8.645,M,-38.602,M,7.4,0131*63
$PYRTM,2024,125.251579964074,16.361227374213
$GNHDT,311.919,T*29
$PYRTM,2024,125.251585806111,16.361233216250
$GNGGA,060217.00,3514.17739205,N,12152.16895556,W,2,11,0.9,8.636,M,-38.602,M,4.0,0131*67
$PYRTM,2024,125.251585806111,16.361233216250
$GNHDT,311.817,T*26
$PYRTM,2024,125.251591535671,16.361238945810
$GNGGA,060217.50,3514.17761325,N,12152.16922704,W,2,11,0.9,8.647,M,-38.602,M,4.4,0131*66
$PYRTM,2024,125.251591535671,16.361238945810
$GNHDT,311.750,T*2A
$PYRTM,2024,125.251597377558,16.361244787697
$GNGGA,060218.00,3514.17782558,N,12152.16947634,W,2,11,0.9,8.712,M,-38.602,M,5.0,0131*68
$PYRTM,2024,125.251597377558,16.361244787697
$GNHDT,311.792,T*24
$PYRTM,2024,125.251603112280,16.361250522419
$GNGGA,060218.50,3514.17802167,N,12152.16973402,W,2,11,0.9,8.772,M,-38.602,M,5.4,0131*60
$PYRTM,2024,125.251603112280,16.361250522419
$GNHDT,312.138,T*21
$PYRTM,2024,125.251608953981,16.361256364132
$GNGGA,060219.00,3514.17820503,N,12152.17002143,W,2,11,0.9,8.766,M,-38.602,M,6.0,0131*6E
$PYRTM,2024,125.251608953981,16.361256364132
$GNHDT,312.073,T*2F
$PYRTM,2024,125.251614691597,16.361262101736
$GNGGA,060219.50,3514.17839677,N,12152.17035443,W,2,11,0.9,8.672,M,-38.602,M,6.4,0131*62
$PYRTM,2024,125.251614691597,16.361262101736
$GNHDT,311.884,T*2C
$PYRTM,2024,125.251620528380,16.361267938519
$GNGGA,060220.00,3514.17859962,N,12152.17072048,W,2,11,0.9,8.490,M,-38.602,M,7.0,0131*67
$PYRTM,2024,125.251620528380,16.361267938519
$GNHDT,311.725,T*28
$PYRTM,2024,125.251626259722,16.361273669861
$GNGGA,060220.50,3514.17881528,N,12152.17108987,W,2,11,0.9,8.300,M,-38.602,M,7.4,0131*69
$PYRTM,2024,125.251626259722,16.361273669861
$GNHDT,311.728,T*25
$PYRTM,2024,125.251632099884,16.361279510023
$GNGGA,060221.00,3514.17904278,N,12152.17142115,W,2,11,0.9,8.189,M,-38.602,M,7.0,0131*69
$PYRTM,2024,125.251632099884,16.361279510023
$GNHDT,311.903,T*22
$PYRTM,2024,125.251637841123,16.361285251262
$GNGGA,060221.50,3514.17928245,N,12152.17169536,W,2,11,0.9,8.200,M,-38.602,M,7.4,0131*66
$PYRTM,2024,125.251637841123,16.361285251262
$GNHDT,312.305,T*2D
$PYRTM,2024,125.251643676157,16.361291086296
$GNGGA,060222.00,3514.17953747,N,12152.17189888,W,2,11,0.9,8.335,M,-38.602,M,7.0,0131*6E
$PYRTM,2024,125.251643676157,16.361291086296
$GNHDT,312.586,T*20
$PYRTM,2024,125.251649410706,16.361296820845
$GNGGA,060222.50,3514.17980040,N,12152.17207885,W,2,11,0.9,8.564,M,-38.602,M,7.4,0131*6B
$PYRTM,2024,125.251649410706,16.361296820845
$GNHDT,312.908,T*2A
$PYRTM,2024,125.251655252778,16.361302662928
$GNGGA,060223.00,3514.18004656,N,12152.17228264,W,2,11,0.9,8.821,M,-38.602,M,4.0,0131*67
$PYRTM,2024,125.251655252778,16.361302662928
$GNHDT,312.797,T*22
$PYRTM,2024,125.251660989606,16.361308399745
$GNGGA,060223.50,3514.18025439,N,12152.17255527,W,2,11,0.9,9.032,M,-38.602,M,4.4,0131*6F
$PYRTM,2024,125.251660989606,16.361308399745
$GNHDT,312.524,T*28
$PYRTM,2024,125.251666822083,16.361314232222
$GNGGA,060224.00,3514.18042565,N,12152.17290226,W,2,11,0.9,9.137,M,-38.602,M,5.0,0131*6A
$PYRTM,2024,125.251666822083,16.361314232222
$GNHDT,312.133,T*2A
$PYRTM,2024,125.251672554861,16.361319965000
$GNGGA,060224.50,3514.18056911,N,12152.17330804,W,2,11,0.9,9.110,M,-38.602,M,5.4,0131*65
$PYRTM,2024,125.251672554861,16.361319965000
$GNHDT,312.013,T*29
$PYRTM,2024,125.251678400880,16.361325811030
$GNGGA,060225.00,3514.18070207,N,12152.17373534,W,2,11,0.9,8.953,M,-38.602,M,6.0,0131*69
$PYRTM,2024,125.251678400880,16.361325811030
$GNHDT,312.078,T*24
$PYRTM,2024,125.251684129954,16.361331540093
$GNGGA,060225.50,3514.18085120,N,12152.17413966,W,2,11,0.9,8.740,M,-38.602,M,6.4,0131*62
$PYRTM,2024,125.251684129954,16.361331540093
$GNHDT,312.054,T*2A
$PYRTM,2024,125.251689974873,16.361337385012
$GNGGA,060226.00,3514.18103388,N,12152.17449924,W,2,11,0.9,8.553,M,-38.602,M,7.0,0131*67
$PYRTM,2024,125.251689974873,16.361337385012
$GNHDT,312.322,T*28
$PYRTM,2024,125.251695706250,16.361343116389
$GNGGA,060226.50,3514.18126381,N,12152.17477333,W,2,11,0.9,8.427,M,-38.602,M,7.4,0131*6B
$PYRTM,2024,125.251695706250,16.361343116389
$GNHDT,312.833,T*23
$PYRTM,2024,125.251701546991,16.361348957130
$GNGGA,060227.00,3514.18155243,N,12152.17497335,W,2,11,0.9,8.381,M,-38.602,M,7.0,0131*63
$PYRTM,2024,125.251701546991,16.361348957130
$GNHDT,313.234,T*2F
$PYRTM,2024,125.251707287095,16.361354697234
$GNGGA,060227.50,3514.18188303,N,12152.17512898,W,2,11,0.9,8.400,M,-38.602,M,7.4,0131*69
$PYRTM,2024,125.251707287095,16.361354697234
$GNHDT,313.004,T*2E
$PYRTM,2024,125.251713122905,16.361360533044
$GNGGA,060228.00,3514.18222198,N,12152.17529779,W,2,11,0.9,8.463,M,-38.602,M,7.0,0131*69
$PYRTM,2024,125.251713122905,16.361360533044
$GNHDT,312.929,T*29
$PYRTM,2024,125.251718852095,16.361366262245
$GNGGA,060228.50,3514.18253206,N,12152.17555013,W,2,11,0.9,8.547,M,-38.602,M,7.4,0131*6D
$PYRTM,2024,125.251718852095,16.361366262245
$GNHDT,312.600,T*2D
$PYRTM,2024,125.251724695150,16.361372105289
