$PYRTM,2024,127.333333567975,18.442980978113
$GNGGA,080000.00,3351.20148802,N,11925.11767466,W,2,11,0.9,4.836,M,-37.756,M,4.0,0131*62
$PYRTM,2024,127.333333567975,18.442980978113
$GNHDT,145.146,T*28
$PYRTM,2024,127.333339304259,18.442986714398
$GNGGA,080000.50,3351.20056482,N,11925.11714408,W,2,11,0.9,4.701,M,-37.756,M,4.4,0131*6E
$PYRTM,2024,127.333339304259,18.442986714398
$GNHDT,145.028,T*21
$PYRTM,2024,127.333345139884,18.442992550023
$GNGGA,080001.00,3351.19963934,N,11925.11660773,W,2,10,1.1,4.673,M,-37.756,M,5.0,0131*6B
$PYRTM,2024,127.333345139884,18.442992550023
$GNHDT,144.970,T*24
$PYRTM,2024,127.333350885081,18.442998295220
$GNGGA,080001.50,3351.19872182,N,11925.11605243,W,2,10,1.1,4.775,M,-37.756,M,5.4,0131*6C
$PYRTM,2024,127.333350885081,18.442998295220
$GNHDT,145.363,T*2D
$PYRTM,2024,127.333356716377,18.443004126516
$GNGGA,080002.00,3351.19781362,N,11925.11547078,W,2,10,1.1,4.959,M,-37.756,M,6.0,0131*6D
$PYRTM,2024,127.333356716377,18.443004126516
$GNHDT,145.622,T*2D
$PYRTM,2024,127.333362453507,18.443009863646
$GNGGA,080002.50,3351.19691506,N,11925.11487120,W,2,10,1.1,5.214,M,-37.756,M,6.4,0131*6A
$PYRTM,2024,127.333362453507,18.443009863646
$GNHDT,145.871,T*25
$PYRTM,2024,127.333368297014,18.443015707153
$GNGGA,080003.00,3351.19601473,N,11925.11424701,W,2,10,1.1,5.507,M,-37.756,M,7.0,0131*68
$PYRTM,2024,127.333368297014,18.443015707153
$GNHDT,146.073,T*2C
$PYRTM,2024,127.333374028021,18.443021438160
$GNGGA,080003.50,3351.19511541,N,11925.11360879,W,2,10,1.1,5.791,M,-37.756,M,7.4,0131*61
$PYRTM,2024,127.333374028021,18.443021438160
$GNHDT,146.275,T*28
$PYRTM,2024,127.333379864236,18.443027274375
$GNGGA,080004.00,3351.19420748,N,11925.11295441,W,2,10,1.1,6.038,M,-37.756,M,7.0,0131*64
$PYRTM,2024,127.333379864236,18.443027274375
$GNHDT,146.545,T*2C
$PYRTM,2024,127.333385599225,18.443033009363
$GNGGA,080004.50,3351.19329495,N,11925.11229228,W,2,10,1.1,6.200,M,-37.756,M,7.4,0131*6F
$PYRTM,2024,127.333385599225,18.443033009363
$GNHDT,146.265,T*29
$PYRTM,2024,127.333391435428,18.443038845567
$GNGGA,080005.00,3351.19236827,N,11925.11164003,W,2,10,1.1,6.239,M,-37.757,M,7.0,0131*6F
$PYRTM,2024,127.333391435428,18.443038845567
$GNHDT,146.213,T*28
$PYRTM,2024,127.333397175150,18.443044585289
$GNGGA,080005.50,3351.19145068,N,11925.11097323,W,2,10,1.1,6.215,M,-37.757,M,7.4,0131*68
$PYRTM,2024,127.333397175150,18.443044585289
$GNHDT,145.902,T*20
$PYRTM,2024,127.333403010463,18.443050420613
$GNGGA,080006.00,3351.19054124,N,11925.11029474,W,2,10,1.1,6.104,M,-37.757,M,4.0,0131*62
$PYRTM,2024,127.333403010463,18.443050420613
$GNHDT,145.301,T*29
$PYRTM,2024,127.333408747975,18.443056158125
$GNGGA,080006.50,3351.18964803,N,11925.10960584,W,2,10,1.1,5.964,M,-37.757,M,4.4,0131*62
$PYRTM,2024,127.333408747975,18.443056158125
$GNHDT,144.703,T*2E
$PYRTM,2024,127.333414581968,18.443061992106
$GNGGA,080007.00,3351.18876438,N,11925.10891516,W,2,10,1.1,5.799,M,-37.757,M,5.0,0131*6D
$PYRTM,2024,127.333414581968,18.443061992106
$GNHDT,144.148,T*27
$PYRTM,2024,127.333420323565,18.443067733704
$GNGGA,080007.50,3351.18789738,N,11925.10822062,W,2,10,1.1,5.664,M,-37.757,M,5.4,0131*6D
$PYRTM,2024,127.333420323565,18.443067733704
$GNHDT,143.893,T*2F
$PYRTM,2024,127.333426160903,18.443073571042
$GNGGA,080008.00,3351.18704165,N,11925.10753339,W,2,10,1.1,5.569,M,-37.757,M,6.0,0131*61
$PYRTM,2024,127.333426160903,18.443073571042
$GNHDT,143.682,T*21
$PYRTM,2024,127.333431905405,18.443079315556
$GNGGA,080008.50,3351.18618447,N,11925.10687316,W,2,10,1.1,5.528,M,-37.757,M,6.4,0131*69
$PYRTM,2024,127.333431905405,18.443079315556
$GNHDT,143.620,T*29
$PYRTM,2024,127.333437730486,18.443085140625
$GNGGA,080009.00,3351.18530967,N,11925.10624457,W,2,10,1.1,5.524,M,-37.757,M,7.0,0131*69
$PYRTM,2024,127.333437730486,18.443085140625
$GNHDT,143.761,T*2D
$PYRTM,2024,127.333443470509,18.443090880648
$GNGGA,080009.50,3351.18442155,N,11925.10564258,W,2,10,1.1,5.582,M,-37.757,M,7.4,0131*67
$PYRTM,2024,127.333443470509,18.443090880648
$GNHDT,143.784,T*26
$PYRTM,2024,127.333449305347,18.443096715486
$GNGGA,080010.00,3351.18354370,N,11925.10503363,W,2,10,1.1,5.669,M,-37.757,M,7.0,0131*65
$PYRTM,2024,127.333449305347,18.443096715486
$GNHDT,143.870,T*22
$PYRTM,2024,127.333455045208,18.443102455347
$GNGGA,080010.50,3351.18269345,N,11925.10440162,W,2,10,1.1,5.805,M,-37.757,M,7.4,0131*6C
$PYRTM,2024,127.333455045208,18.443102455347
$GNHDT,143.843,T*22
$PYRTM,2024,127.333460879387,18.443108289525
$GNGGA,080011.00,3351.18184851,N,11925.10376034,W,2,10,1.1,5.953,M,-37.757,M,7.0,0131*60
$PYRTM,2024,127.333460879387,18.443108289525
$GNHDT,143.958,T*29
$PYRTM,2024,127.333466618808,18.443114028947
$GNGGA,080011.50,3351.18098885,N,11925.10312565,W,2,10,1.1,6.056,M,-37.757,M,7.4,0131*68
$PYRTM,2024,127.333466618808,18.443114028947
$GNHDT,144.227,T*2D
$PYRTM,2024,127.333472454699,18.443119864838
$GNGGA,080012.00,3351.18009363,N,11925.10251302,W,2,10,1.1,6.037,M,-37.757,M,4.0,0131*64
$PYRTM,2024,127.333472454699,18.443119864838
$GNHDT,144.683,T*27
$PYRTM,2024,127.333478193171,18.443125603310
$GNGGA,080012.50,3351.17919160,N,11925.10190034,W,2,10,1.1,5.933,M,-37.757,M,4.4,0131*65
$PYRTM,2024,127.333478193171,18.443125603310
$GNHDT,145.182,T*20
$PYRTM,2024,127.333484033681,18.443131443831
$GNGGA,080013.00,3351.17829238,N,11925.10127992,W,2,10,1.1,5.796,M,-37.757,M,5.0,0131*60
$PYRTM,2024,127.333484033681,18.443131443831
$GNHDT,145.767,T*2D
$PYRTM,2024,127.333489769884,18.443137180035
$GNGGA,080013.50,3351.17740661,N,11925.10064066,W,2,10,1.1,5.675,M,-37.757,M,5.4,0131*61
$PYRTM,2024,127.333489769884,18.443137180035
$GNHDT,146.414,T*29
$PYRTM,2024,127.333495604421,18.443143014560
$GNGGA,080014.00,3351.17653602,N,11925.09998246,W,2,10,1.1,5.634,M,-37.757,M,6.0,0131*65
$PYRTM,2024,127.333495604421,18.443143014560
$GNHDT,146.808,T*28
$PYRTM,2024,127.333501342963,18.443148753102
$GNGGA,080014.50,3351.17568178,N,11925.09929965,W,2,10,1.1,5.678,M,-37.757,M,6.4,0131*6D
$PYRTM,2024,127.333501342963,18.443148753102
$GNHDT,147.032,T*28
$PYRTM,2024,127.333507178565,18.443154588704
$GNGGA,080015.00,3351.17483378,N,11925.09860346,W,2,10,1.1,5.776,M,-37.757,M,7.0,0131*62
$PYRTM,2024,127.333507178565,18.443154588704
$GNHDT,147.113,T*2A
$PYRTM,2024,127.333512914769,18.443160324907
$GNGGA,080015.50,3351.17398023,N,11925.09791196,W,2,10,1.1,5.891,M,-37.757,M,7.4,0131*6B
$PYRTM,2024,127.333512914769,18.443160324907
$GNHDT,146.893,T*2A
$PYRTM,2024,127.333518758623,18.443166168762
$GNGGA,080016.00,3351.17310912,N,11925.09723147,W,2,10,1.1,5.963,M,-37.757,M,7.0,0131*6B
$PYRTM,2024,127.333518758623,18.443166168762
$GNHDT,146.554,T*2C
$PYRTM,2024,127.333524492581,18.443171902720
$GNGGA,080016.50,3351.17220928,N,11925.09656382,W,2,10,1.1,5.937,M,-37.757,M,7.4,0131*68
$PYRTM,2024,127.333524492581,18.443171902720
$GNHDT,146.252,T*2D
$PYRTM,2024,127.333530327396,18.443177737535
$GNGGA,080017.00,3351.17127431,N,11925.09593123,W,2,10,1.1,5.764,M,-37.757,M,7.0,0131*62
$PYRTM,2024,127.333530327396,18.443177737535
$GNHDT,146.175,T*2B
$PYRTM,2024,127.333536068588,18.443183478727
$GNGGA,080017.50,3351.17033009,N,11925.09533034,W,2,10,1.1,5.519,M,-37.757,M,7.4,0131*6D
$PYRTM,2024,127.333536068588,18.443183478727
$GNHDT,145.789,T*2D
$PYRTM,2024,127.333541901597,18.443189311736
$GNGGA,080018.00,3351.16938009,N,11925.09477138,W,2,10,1.1,5.246,M,-37.757,M,4.0,0131*62
$PYRTM,2024,127.333541901597,18.443189311736
$GNHDT,145.672,T*28
$PYRTM,2024,127.333547638113,18.443195048252
$GNGGA,080018.50,3351.16843202,N,11925.09425381,W,2,10,1.1,5.045,M,-37.757,M,4.4,0131*61
$PYRTM,2024,127.333547638113,18.443195048252
$GNHDT,145.869,T*2C
$PYRTM,2024,127.333553472338,18.443200882477
$GNGGA,080019.00,3351.16749274,N,11925.09375599,W,2,10,1.1,4.977,M,-37.757,M,5.0,0131*60
$PYRTM,2024,127.333553472338,18.443200882477
$GNHDT,146.089,T*29
$PYRTM,2024,127.333559210949,18.443206621100
$GNGGA,080019.50,3351.16657819,N,11925.09323010,W,2,10,1.1,5.072,M,-37.757,M,5.4,0131*64
$PYRTM,2024,127.333559210949,18.443206621100
$GNHDT,146.386,T*25
$PYRTM,2024,127.333565048738,18.443212458877
$GNGGA,080020.00,3351.16569978,N,11925.09263978,W,2,10,1.1,5.317,M,-37.757,M,6.0,0131*66
$PYRTM,2024,127.333565048738,18.443212458877
$GNHDT,146.681,T*27
$PYRTM,2024,127.333570787569,18.443218197708
$GNGGA,080020.50,3351.16485079,N,11925.09196312,W,2,10,1.1,5.621,M,-37.757,M,6.4,0131*63
$PYRTM,2024,127.333570787569,18.443218197708
$GNHDT,146.572,T*28
$PYRTM,2024,127.333576622650,18.443224032801
$GNGGA,080021.00,3351.16401382,N,11925.09120654,W,2,10,1.1,5.888,M,-37.757,M,7.0,0131*6E
$PYRTM,2024,127.333576622650,18.443224032801
$GNHDT,146.276,T*2B
$PYRTM,2024,127.333582363461,18.443229773611
$GNGGA,080021.50,3351.16316136,N,11925.09043215,W,2,10,1.1,6.040,M,-37.757,M,7.4,0131*69
$PYRTM,2024,127.333582363461,18.443229773611
$GNHDT,146.213,T*28
$PYRTM,2024,127.333588196713,18.443235606852
$GNGGA,080022.00,3351.16226443,N,11925.08971174,W,2,10,1.1,6.013,M,-37.757,M,7.0,0131*65
$PYRTM,2024,127.333588196713,18.443235606852
$GNHDT,145.879,T*2D
$PYRTM,2024,127.333593932650,18.443241342789
$GNGGA,080022.50,3351.16135303,N,11925.08904271,W,2,10,1.1,5.879,M,-37.757,M,7.4,0131*65
$PYRTM,2024,127.333593932650,18.443241342789
$GNHDT,145.628,T*27
$PYRTM,2024,127.333599770035,18.443247180185
$GNGGA,080023.00,3351.16043378,N,11925.08840557,W,2,10,1.1,5.712,M,-37.757,M,7.0,0131*69
$PYRTM,2024,127.333599770035,18.443247180185
$GNHDT,145.441,T*2A
$PYRTM,2024,127.333605506644,18.443252916782
$GNGGA,080023.50,3351.15951730,N,11925.08780117,W,2,10,1.1,5.581,M,-37.757,M,7.4,0131*62
$PYRTM,2024,127.333605506644,18.443252916782
$GNHDT,144.827,T*27
$PYRTM,2024,127.333611346551,18.443258756690
$GNGGA,080024.00,3351.15861935,N,11925.08719730,W,2,10,1.1,5.500,M,-37.757,M,4.0,0131*64
$PYRTM,2024,127.333611346551,18.443258756690
$GNHDT,144.466,T*2E
$PYRTM,2024,127.333617083461,18.443264493611
$GNGGA,080024.50,3351.15773940,N,11925.08660009,W,2,10,1.1,5.502,M,-37.757,M,4.4,0131*6B
$PYRTM,2024,127.333617083461,18.443264493611
$GNHDT,144.536,T*2A
$PYRTM,2024,127.333622917072,18.443270327222
$GNGGA,080025.00,3351.15687430,N,11925.08597985,W,2,10,1.1,5.527,M,-37.757,M,5.0,0131*6B
$PYRTM,2024,127.333622917072,18.443270327222
$GNHDT,144.550,T*2A
$PYRTM,2024,127.333628659329,18.443276069468
$GNGGA,080025.50,3351.15600212,N,11925.08534890,W,2,10,1.1,5.521,M,-37.757,M,5.4,0131*69
$PYRTM,2024,127.333628659329,18.443276069468
$GNHDT,144.631,T*2E
$PYRTM,2024,127.333634491400,18.443281901539
$GNGGA,080026.00,3351.15511642,N,11925.08471192,W,2,10,1.1,5.451,M,-37.757,M,6.0,0131*67
$PYRTM,2024,127.333634491400,18.443281901539
$GNHDT,144.629,T*27
$PYRTM,2024,127.333640232060,18.443287642199
$GNGGA,080026.50,3351.15421071,N,11925.08407871,W,2,10,1.1,5.348,M,-37.757,M,6.4,0131*68
$PYRTM,2024,127.333640232060,18.443287642199
$GNHDT,144.707,T*2A
$PYRTM,2024,127.333646067025,18.443293477164
$GNGGA,080027.00,3351.15330008,N,11925.08344469,W,2,10,1.1,5.244,M,-37.757,M,7.0,0131*68
$PYRTM,2024,127.333646067025,18.443293477164
$GNHDT,144.839,T*28
$PYRTM,2024,127.333651803032,18.443299213171
$GNGGA,080027.50,3351.15239444,N,11925.08281827,W,2,10,1.1,5.260,M,-37.757,M,7.4,0131*65
$PYRTM,2024,127.333651803032,18.443299213171
$GNHDT,145.211,T*29
$PYRTM,2024,127.333657643148,18.443305053287
$GNGGA,080028.00,3351.15151306,N,11925.08217141,W,2,10,1.1,5.398,M,-37.757,M,7.0,0131*67
$PYRTM,2024,127.333657643148,18.443305053287
$GNHDT,145.324,T*2E
$PYRTM,2024,127.333663375984,18.443310786134
$GNGGA,080028.50,3351.15065752,N,11925.08150564,W,2,10,1.1,5.692,M,-37.757,M,7.4,0131*69
$PYRTM,2024,127.333663375984,18.443310786134
$GNHDT,145.542,T*28
$PYRTM,2024,127.333669216921,18.443316627060
$GNGGA,080029.00,3351.14981734,N,11925.08080692,W,2,10,1.1,6.060,M,-37.757,M,7.0,0131*65
$PYRTM,2024,127.333669216921,18.443316627060
$GNHDT,145.499,T*2F
$PYRTM,2024,127.333674950891,18.443322361030
$GNGGA,080029.50,3351.14897284,N,11925.08009607,W,2,10,1.1,6.386,M,-37.757,M,7.4,0131*6A
$PYRTM,2024,127.333674950891,18.443322361030
$GNHDT,145.413,T*2D
$PYRTM,2024,127.333680787546,18.443328197685
$GNGGA,080030.00,3351.14810315,N,11925.07939689,W,2,10,1.1,6.559,M,-37.757,M,4.0,0131*61
$PYRTM,2024,127.333680787546,18.443328197685
$GNHDT,145.335,T*2E
$PYRTM,2024,127.333686525694,18.443333935833
$GNGGA,080030.50,3351.14720546,N,11925.07873184,W,2,10,1.1,6.539,M,-37.757,M,4.4,0131*6F
$PYRTM,2024,127.333686525694,18.443333935833
$GNHDT,145.252,T*2E
$PYRTM,2024,127.333692363009,18.443339773148
$GNGGA,080031.00,3351.14628052,N,11925.07810123,W,2,10,1.1,6.314,M,-37.757,M,5.0,0131*66
$PYRTM,2024,127.333692363009,18.443339773148
$GNHDT,145.050,T*2E
$PYRTM,2024,127.333698104120,18.443345514271
$GNGGA,080031.50,3351.14535001,N,11925.07749814,W,2,10,1.1,6.012,M,-37.758,M,5.4,0131*6A
$PYRTM,2024,127.333698104120,18.443345514271
$GNHDT,144.662,T*28
$PYRTM,2024,127.333703936458,18.443351346597
$GNGGA,080032.00,3351.14443403,N,11925.07689921,W,2,10,1.1,5.693,M,-37.758,M,6.0,0131*6B
$PYRTM,2024,127.333703936458,18.443351346597
$GNHDT,144.477,T*2E
$PYRTM,2024,127.333709675046,18.443357085185
$GNGGA,080032.50,3351.14354747,N,11925.07628518,W,2,10,1.1,5.488,M,-37.758,M,6.4,0131*6D
$PYRTM,2024,127.333709675046,18.443357085185
$GNHDT,144.721,T*2E
$PYRTM,2024,127.333715513241,18.443362923380
$GNGGA,080033.00,3351.14269629,N,11925.07564353,W,2,10,1.1,5.425,M,-37.758,M,7.0,0131*6F
$PYRTM,2024,127.333715513241,18.443362923380
$GNHDT,145.001,T*2A
$PYRTM,2024,127.333721253866,18.443368664005
$GNGGA,080033.50,3351.14186619,N,11925.07495408,W,2,10,1.1,5.468,M,-37.758,M,7.4,0131*60
$PYRTM,2024,127.333721253866,18.443368664005
$GNHDT,145.232,T*28
$PYRTM,2024,127.333727084792,18.443374494942
$GNGGA,080034.00,3351.14103934,N,11925.07424979,W,2,10,1.1,5.547,M,-37.758,M,7.0,0131*66
$PYRTM,2024,127.333727084792,18.443374494942
$GNHDT,145.772,T*29
$PYRTM,2024,127.333732828333,18.443380238472
$GNGGA,080034.50,3351.14018533,N,11925.07356718,W,2,10,1.1,5.604,M,-37.758,M,7.4,0131*68
$PYRTM,2024,127.333732828333,18.443380238472
$GNHDT,146.109,T*20
$PYRTM,2024,127.333738657164,18.443386067303
$GNGGA,080035.00,3351.13930075,N,11925.07293611,W,2,10,1.1,5.621,M,-37.758,M,7.0,0131*6C
$PYRTM,2024,127.333738657164,18.443386067303
$GNHDT,146.464,T*2E
$PYRTM,2024,127.333744395660,18.443391805810
$GNGGA,080035.50,3351.13840177,N,11925.07232724,W,2,10,1.1,5.629,M,-37.758,M,7.4,0131*6C
$PYRTM,2024,127.333744395660,18.443391805810
$GNHDT,146.840,T*24
$PYRTM,2024,127.333750231921,18.443397642060
$GNGGA,080036.00,3351.13749704,N,11925.07172436,W,2,10,1.1,5.622,M,-37.758,M,4.0,0131*65
$PYRTM,2024,127.333750231921,18.443397642060
$GNHDT,147.037,T*2D
$PYRTM,2024,127.333755970289,18.443403380428
$GNGGA,080036.50,3351.13659786,N,11925.07111462,W,2,10,1.1,5.645,M,-37.758,M,4.4,0131*6B
$PYRTM,2024,127.333755970289,18.443403380428
$GNHDT,147.100,T*28
$PYRTM,2024,127.333761804433,18.443409214572
$GNGGA,080037.00,3351.13569652,N,11925.07051125,W,2,10,1.1,5.689,M,-37.758,M,5.0,0131*61
$PYRTM,2024,127.333761804433,18.443409214572
$GNHDT,147.104,T*2C
$PYRTM,2024,127.333767546447,18.443414956586
$GNGGA,080037.50,3351.13478549,N,11925.06992159,W,2,11,1.1,5.680,M,-37.758,M,5.4,0131*6C
$PYRTM,2024,127.333767546447,18.443414956586
$GNHDT,146.883,T*2B
$PYRTM,2024,127.333773383843,18.443420793981
$GNGGA,080038.00,3351.13388241,N,11925.06932378,W,2,11,0.9,5.612,M,-37.758,M,6.0,0131*6F
$PYRTM,2024,127.333773383843,18.443420793981
$GNHDT,146.643,T*29
$PYRTM,2024,127.333779120556,18.443426530694
$GNGGA,080038.50,3351.13298208,N,11925.06872553,W,2,11,0.9,5.513,M,-37.758,M,6.4,0131*6B
$PYRTM,2024,127.333779120556,18.443426530694
$GNHDT,146.555,T*2D
$PYRTM,2024,127.333784963160,18.443432373310
$GNGGA,080039.00,3351.13208618,N,11925.06810578,W,2,11,0.9,5.388,M,-37.758,M,7.0,0131*6F
$PYRTM,2024,127.333784963160,18.443432373310
$GNHDT,146.429,T*27
$PYRTM,2024,127.333790693993,18.443438104132
$GNGGA,080039.50,3351.13118609,N,11925.06748020,W,2,11,0.9,5.254,M,-37.758,M,7.4,0131*66
$PYRTM,2024,127.333790693993,18.443438104132
$GNHDT,146.138,T*22
$PYRTM,2024,127.333796529537,18.443443939688
$GNGGA,080040.00,3351.13028688,N,11925.06685613,W,2,11,0.9,5.139,M,-37.758,M,7.0,0131*6C
$PYRTM,2024,127.333796529537,18.443443939688
$GNHDT,146.022,T*28
$PYRTM,2024,127.333802272859,18.443449682998
$GNGGA,080040.50,3351.12937801,N,11925.06625496,W,2,11,0.9,5.076,M,-37.758,M,7.4,0131*6B
$PYRTM,2024,127.333802272859,18.443449682998
$GNHDT,145.910,T*23
$PYRTM,2024,127.333808110266,18.443455520405
$GNGGA,080041.00,3351.12846175,N,11925.06566167,W,2,11,0.9,5.109,M,-37.758,M,7.0,0131*60
$PYRTM,2024,127.333808110266,18.443455520405
$GNHDT,145.827,T*26
$PYRTM,2024,127.333813839884,18.443461250035
$GNGGA,080041.50,3351.12753910,N,11925.06506269,W,2,11,0.9,5.218,M,-37.758,M,7.4,0131*69
$PYRTM,2024,127.333813839884,18.443461250035
$GNHDT,145.423,T*2E
$PYRTM,2024,127.333819677338,18.443467087477
$GNGGA,080042.00,3351.12661952,N,11925.06443939,W,2,11,0.9,5.425,M,-37.758,M,4.0,0131*68
$PYRTM,2024,127.333819677338,18.443467087477
$GNHDT,145.474,T*2C
$PYRTM,2024,127.333825419167,18.443472829306
$GNGGA,080042.50,3351.12571102,N,11925.06378458,W,2,11,0.9,5.712,M,-37.758,M,4.4,0131*64
$PYRTM,2024,127.333825419167,18.443472829306
$GNHDT,145.477,T*2F
$PYRTM,2024,127.333831249421,18.443478659560
$GNGGA,080043.00,3351.12480765,N,11925.06310575,W,2,11,0.9,6.022,M,-37.758,M,5.0,0131*6A
$PYRTM,2024,127.333831249421,18.443478659560
$GNHDT,145.556,T*2D
$PYRTM,2024,127.333836994282,18.443484404421
$GNGGA,080043.50,3351.12391134,N,11925.06241257,W,2,11,0.9,6.271,M,-37.758,M,5.4,0131*68
$PYRTM,2024,127.333836994282,18.443484404421
$GNHDT,145.777,T*2C
$PYRTM,2024,127.333842825475,18.443490235613
$GNGGA,080044.00,3351.12301031,N,11925.06172941,W,2,11,0.9,6.400,M,-37.758,M,6.0,0131*6F
$PYRTM,2024,127.333842825475,18.443490235613
$GNHDT,145.632,T*2C
$PYRTM,2024,127.333848564664,18.443495974803
$GNGGA,080044.50,3351.12209121,N,11925.06108344,W,2,11,0.9,6.373,M,-37.758,M,6.4,0131*66
$PYRTM,2024,127.333848564664,18.443495974803
$GNHDT,145.574,T*2D
$PYRTM,2024,127.333854398148,18.443501808287
$GNGGA,080045.00,3351.12114476,N,11925.06046666,W,2,11,0.9,6.191,M,-37.758,M,7.0,0131*6F
$PYRTM,2024,127.333854398148,18.443501808287
$GNHDT,145.286,T*27
$PYRTM,2024,127.333860137477,18.443507547616
$GNGGA,080045.50,3351.12020012,N,11925.05984670,W,2,11,0.9,5.947,M,-37.758,M,7.4,0131*6D
$PYRTM,2024,127.333860137477,18.443507547616
$GNHDT,145.125,T*2D
$PYRTM,2024,127.333865975370,18.443513385509
$GNGGA,080046.00,3351.11929179,N,11925.05919513,W,2,11,0.9,5.693,M,-37.758,M,7.0,0131*64
$PYRTM,2024,127.333865975370,18.443513385509
$GNHDT,144.710,T*2C
$PYRTM,2024,127.333871711458,18.443519121597
$GNGGA,080046.50,3351.11843374,N,11925.05848290,W,2,11,0.9,5.552,M,-37.758,M,7.4,0131*60
$PYRTM,2024,127.333871711458,18.443519121597
$GNHDT,144.046,T*28
$PYRTM,2024,127.333877544514,18.443524954653
$GNGGA,080047.00,3351.11761015,N,11925.05774683,W,2,11,0.9,5.494,M,-37.758,M,7.0,0131*66
$PYRTM,2024,127.333877544514,18.443524954653
$GNHDT,143.762,T*2E
$PYRTM,2024,127.333883287118,18.443530697257
$GNGGA,080047.50,3351.11680397,N,11925.05701770,W,2,11,0.9,5.509,M,-37.758,M,7.4,0131*6A
$PYRTM,2024,127.333883287118,18.443530697257
$GNHDT,143.512,T*2B
$PYRTM,2024,127.333889124375,18.443536534525
$GNGGA,080048.00,3351.11598250,N,11925.05631993,W,2,11,0.9,5.516,M,-37.758,M,4.0,0131*68
$PYRTM,2024,127.333889124375,18.443536534525
$GNHDT,143.468,T*27
$PYRTM,2024,127.333894860405,18.443542270556
$GNGGA,080048.50,3351.11514017,N,11925.05567576,W,2,11,0.9,5.536,M,-37.758,M,4.4,0131*69
$PYRTM,2024,127.333894860405,18.443542270556
$GNHDT,143.529,T*23
$PYRTM,2024,127.333900695509,18.443548105648
$GNGGA,080049.00,3351.11426932,N,11925.05507416,W,2,11,0.9,5.522,M,-37.758,M,5.0,0131*62
$PYRTM,2024,127.333900695509,18.443548105648
$GNHDT,143.806,T*23
$PYRTM,2024,127.333906434664,18.443553844803
$GNGGA,080049.50,3351.11338698,N,11925.05450077,W,2,11,0.9,5.486,M,-37.758,M,5.4,0131*6B
$PYRTM,2024,127.333906434664,18.443553844803
$GNHDT,143.805,T*20
$PYRTM,2024,127.333912269468,18.443559679606
$GNGGA,080050.00,3351.11249437,N,11925.05393264,W,2,11,0.9,5.422,M,-37.758,M,6.0,0131*67
$PYRTM,2024,127.333912269468,18.443559679606
$GNHDT,144.141,T*2E
$PYRTM,2024,127.333918011713,18.443565421863
$GNGGA,080050.50,3351.11158413,N,11925.05336569,W,2,11,0.9,5.338,M,-37.758,M,6.4,0131*6A
$PYRTM,2024,127.333918011713,18.443565421863
$GNHDT,144.558,T*22
$PYRTM,2024,127.333923844051,18.443571254190
$GNGGA,080051.00,3351.11066233,N,11925.05278883,W,2,11,0.9,5.217,M,-37.758,M,7.0,0131*6D
$PYRTM,2024,127.333923844051,18.443571254190
$GNHDT,144.812,T*21
$PYRTM,2024,127.333929580787,18.443576990926
$GNGGA,080051.50,3351.10974562,N,11925.05219228,W,2,11,0.9,5.157,M,-37.758,M,7.4,0131*6F
$PYRTM,2024,127.333929580787,18.443576990926
$GNHDT,145.042,T*2D
$PYRTM,2024,127.333935417731,18.443582827870
$GNGGA,080052.00,3351.10885108,N,11925.05154688,W,2,11,0.9,5.183,M,-37.758,M,7.0,0131*67
$PYRTM,2024,127.333935417731,18.443582827870
$GNHDT,145.326,T*2C
$PYRTM,2024,127.333941157326,18.443588567465
$GNGGA,080052.50,3351.10797897,N,11925.05085219,W,2,11,0.9,5.318,M,-37.758,M,7.4,0131*64
$PYRTM,2024,127.333941157326,18.443588567465
$GNHDT,145.849,T*2E
$PYRTM,2024,127.333946990914,18.443594401053
$GNGGA,080053.00,3351.10713673,N,11925.05009579,W,2,11,0.9,5.549,M,-37.758,M,7.0,0131*6B
$PYRTM,2024,127.333946990914,18.443594401053
$GNHDT,145.929,T*29
$PYRTM,2024,127.333952728715,18.443600138854
$GNGGA,080053.50,3351.10629310,N,11925.04932870,W,2,11,0.9,5.778,M,-37.758,M,7.4,0131*66
$PYRTM,2024,127.333952728715,18.443600138854
$GNHDT,145.955,T*22
$PYRTM,2024,127.333958565718,18.443605975856
$GNGGA,080054.00,3351.10542420,N,11925.04858327,W,2,11,0.9,5.912,M,-37.758,M,4.0,0131*6F
$PYRTM,2024,127.333958565718,18.443605975856
$GNHDT,146.036,T*2D
$PYRTM,2024,127.333964302280,18.443611712419
$GNGGA,080054.50,3351.10451878,N,11925.04789954,W,2,11,0.9,5.917,M,-37.758,M,4.4,0131*64
$PYRTM,2024,127.333964302280,18.443611712419
$GNHDT,146.312,T*28
$PYRTM,2024,127.333970137789,18.443617547928
$GNGGA,080055.00,3351.10358418,N,11925.04728040,W,2,11,0.9,5.803,M,-37.759,M,5.0,0131*63
$PYRTM,2024,127.333970137789,18.443617547928
$GNHDT,146.175,T*2B
$PYRTM,2024,127.333975875116,18.443623285266
$GNGGA,080055.50,3351.10264234,N,11925.04671217,W,2,11,0.9,5.625,M,-37.759,M,5.4,0131*63
$PYRTM,2024,127.333975875116,18.443623285266
$GNHDT,146.135,T*2F
$PYRTM,2024,127.333981712049,18.443629122187
$GNGGA,080056.00,3351.10169486,N,11925.04616179,W,2,11,0.9,5.435,M,-37.759,M,6.0,0131*6A
$PYRTM,2024,127.333981712049,18.443629122187
$GNHDT,146.116,T*2E
$PYRTM,2024,127.333987449560,18.443634859699
$GNGGA,080056.50,3351.10075985,N,11925.04559641,W,2,11,0.9,5.303,M,-37.759,M,6.4,0131*6F
$PYRTM,2024,127.333987449560,18.443634859699
$GNHDT,146.171,T*2F
$PYRTM,2024,127.333993288819,18.443640698958
$GNGGA,080057.00,3351.09984033,N,11925.04500230,W,2,11,0.9,5.209,M,-37.759,M,7.0,0131*60
$PYRTM,2024,127.333993288819,18.443640698958
$GNHDT,146.105,T*2C
$PYRTM,2024,127.333999025093,18.443646435231
$GNGGA,080057.50,3351.09895307,N,11925.04436736,W,2,11,0.9,5.195,M,-37.759,M,7.4,0131*65
$PYRTM,2024,127.333999025093,18.443646435231
$GNHDT,146.072,T*2D
$PYRTM,2024,127.334004861921,18.443652272060
$GNGGA,080058.00,3351.09809566,N,11925.04370141,W,2,11,0.9,5.251,M,-37.759,M,7.0,0131*67
$PYRTM,2024,127.334004861921,18.443652272060
$GNHDT,145.893,T*29
$PYRTM,2024,127.334010605671,18.443658015810
$GNGGA,080058.50,3351.09724872,N,11925.04301813,W,2,11,0.9,5.343,M,-37.759,M,7.4,0131*64
$PYRTM,2024,127.334010605671,18.443658015810
$GNHDT,145.855,T*23
$PYRTM,2024,127.334016435799,18.443663845938
$GNGGA,080059.00,3351.09638792,N,11925.04234978,W,2,11,0.9,5.384,M,-37.759,M,7.0,0131*69
$PYRTM,2024,127.334016435799,18.443663845938
$GNHDT,145.640,T*29
$PYRTM,2024,127.334022172928,18.443669583067
$GNGGA,080059.50,3351.09550164,N,11925.04171708,W,2,11,0.9,5.407,M,-37.759,M,7.4,0131*6D
$PYRTM,2024,127.334022172928,18.443669583067
$GNHDT,145.330,T*2B
$PYRTM,2024,127.334028008322,18.443675418461
$GNGGA,080100.00,3351.09458150,N,11925.04113366,W,2,11,0.9,5.368,M,-37.759,M,4.0,0131*6A
$PYRTM,2024,127.334028008322,18.443675418461
$GNHDT,145.310,T*29
$PYRTM,2024,127.334033747222,18.443681157361
$GNGGA,080100.50,3351.09363680,N,11925.04058666,W,2,11,0.9,5.300,M,-37.759,M,4.4,0131*6B
$PYRTM,2024,127.334033747222,18.443681157361
$GNHDT,145.088,T*2B
$PYRTM,2024,127.334039582859,18.443686993009
$GNGGA,080101.00,3351.09269436,N,11925.04004530,W,2,11,0.9,5.289,M,-37.759,M,5.0,0131*67
$PYRTM,2024,127.334039582859,18.443686993009
$GNHDT,145.151,T*2E
$PYRTM,2024,127.334045326470,18.443692736620
$GNGGA,080101.50,3351.09177623,N,11925.03946722,W,2,11,0.9,5.350,M,-37.759,M,5.4,0131*60
$PYRTM,2024,127.334045326470,18.443692736620
$GNHDT,145.283,T*22
$PYRTM,2024,127.334051157164,18.443698567303
$GNGGA,080102.00,3351.09088228,N,11925.03883167,W,2,11,0.9,5.486,M,-37.759,M,6.0,0131*6C
$PYRTM,2024,127.334051157164,18.443698567303
$GNHDT,145.322,T*28
$PYRTM,2024,127.334056902778,18.443704312917
$GNGGA,080102.50,3351.08999832,N,11925.03814483,W,2,11,0.9,5.641,M,-37.759,M,6.4,0131*6C
$PYRTM,2024,127.334056902778,18.443704312917
$GNHDT,145.418,T*26
$PYRTM,2024,127.334062730116,18.443710140255
$GNGGA,080103.00,3351.08911759,N,11925.03742250,W,2,11,0.9,5.768,M,-37.759,M,7.0,0131*61
$PYRTM,2024,127.334062730116,18.443710140255
$GNHDT,145.528,T*24
$PYRTM,2024,127.334068471019,18.443715881157
$GNGGA,080103.50,3351.08823721,N,11925.03669067,W,2,11,0.9,5.849,M,-37.759,M,7.4,0131*6D
$PYRTM,2024,127.334068471019,18.443715881157
$GNHDT,145.319,T*20
$PYRTM,2024,127.334074314144,18.443721724294
$GNGGA,080104.00,3351.08736802,N,11925.03595200,W,2,11,0.9,5.891,M,-37.759,M,7.0,0131*68
$PYRTM,2024,127.334074314144,18.443721724294
$GNHDT,145.106,T*2C
$PYRTM,2024,127.334080044132,18.443727454271
$GNGGA,080104.50,3351.08650652,N,11925.03522074,W,2,11,0.9,5.922,M,-37.759,M,7.4,0131*67
$PYRTM,2024,127.334080044132,18.443727454271
$GNHDT,144.639,T*26
$PYRTM,2024,127.334085879294,18.443733289433
$GNGGA,080105.00,3351.08563753,N,11925.03451813,W,2,11,0.9,5.896,M,-37.759,M,7.0,0131*66
$PYRTM,2024,127.334085879294,18.443733289433
$GNHDT,144.419,T*26
$PYRTM,2024,127.334091618090,18.443739028229
$GNGGA,080105.50,3351.08474545,N,11925.03386176,W,2,11,0.9,5.804,M,-37.759,M,7.4,0131*69
$PYRTM,2024,127.334091618090,18.443739028229
$GNHDT,144.226,T*2C
$PYRTM,2024,127.334097455000,18.443744865139
$GNGGA,080106.00,3351.08381990,N,11925.03324845,W,2,11,0.9,5.610,M,-37.759,M,4.0,0131*6B
$PYRTM,2024,127.334097455000,18.443744865139
$GNHDT,144.266,T*28
$PYRTM,2024,127.334103192014,18.443750602153
$GNGGA,080106.50,3351.08289028,N,11925.03264718,W,2,11,0.9,5.372,M,-37.759,M,4.4,0131*6A
$PYRTM,2024,127.334103192014,18.443750602153
$GNHDT,144.327,T*2C
$PYRTM,2024,127.334109028252,18.443756438391
$GNGGA,080107.00,3351.08198927,N,11925.03202493,W,2,11,0.9,5.181,M,-37.759,M,5.0,0131*60
$PYRTM,2024,127.334109028252,18.443756438391
$GNHDT,144.496,T*21
$PYRTM,2024,127.334114768495,18.443762178634
$GNGGA,080107.50,3351.08112925,N,11925.03136195,W,2,11,0.9,5.069,M,-37.759,M,5.4,0131*61
$PYRTM,2024,127.334114768495,18.443762178634
$GNHDT,144.775,T*2F
$PYRTM,2024,127.334120605729,18.443768015868
$GNGGA,080108.00,3351.08029539,N,11925.03068232,W,2,11,0.9,5.092,M,-37.759,M,6.0,0131*64
$PYRTM,2024,127.334120605729,18.443768015868
$GNHDT,144.934,T*24
$PYRTM,2024,127.334126339942,18.443773750081
$GNGGA,080108.50,3351.07946311,N,11925.03001712,W,2,11,0.9,5.180,M,-37.759,M,6.4,0131*6C
$PYRTM,2024,127.334126339942,18.443773750081
$GNHDT,144.999,T*23
$PYRTM,2024,127.334132174977,18.443779585127
$GNGGA,080109.00,3351.07861456,N,11925.02937198,W,2,11,0.9,5.285,M,-37.759,M,7.0,0131*62
$PYRTM,2024,127.334132174977,18.443779585127
$GNHDT,145.017,T*2D
$PYRTM,2024,127.334137913762,18.443785323900
$GNGGA,080109.50,3351.07773879,N,11925.02875828,W,2,11,0.9,5.401,M,-37.759,M,7.4,0131*61
$PYRTM,2024,127.334137913762,18.443785323900
$GNHDT,144.912,T*20
$PYRTM,2024,127.334143751863,18.443791162002
$GNGGA,080110.00,3351.07683367,N,11925.02815462,W,2,11,0.9,5.488,M,-37.759,M,7.0,0131*67
$PYRTM,2024,127.334143751863,18.443791162002
$GNHDT,145.198,T*2B
$PYRTM,2024,127.334149487500,18.443796897639
$GNGGA,080110.50,3351.07591604,N,11925.02753706,W,2,11,0.9,5.564,M,-37.759,M,7.4,0131*69
$PYRTM,2024,127.334149487500,18.443796897639
$GNHDT,145.490,T*26
$PYRTM,2024,127.334155321910,18.443802732049
$GNGGA,080111.00,3351.07500220,N,11925.02689976,W,2,11,0.9,5.644,M,-37.759,M,7.0,0131*6D
$PYRTM,2024,127.334155321910,18.443802732049
$GNHDT,145.769,T*23
$PYRTM,2024,127.334161060822,18.443808470972
$GNGGA,080111.50,3351.07410249,N,11925.02623724,W,2,11,0.9,5.750,M,-37.759,M,7.4,0131*6E
$PYRTM,2024,127.334161060822,18.443808470972
$GNHDT,146.100,T*29
$PYRTM,2024,127.334166905278,18.443814315417
$GNGGA,080112.00,3351.07321914,N,11925.02556700,W,2,11,0.9,5.882,M,-37.759,M,4.0,0131*6E
$PYRTM,2024,127.334166905278,18.443814315417
$GNHDT,146.177,T*29
$PYRTM,2024,127.334172634444,18.443820044583
$GNGGA,080112.50,3351.07233776,N,11925.02490859,W,2,11,0.9,5.975,M,-37.759,M,4.4,0131*66
$PYRTM,2024,127.334172634444,18.443820044583
$GNHDT,146.201,T*2B
$PYRTM,2024,127.334178471227,18.443825881366
$GNGGA,080113.00,3351.07144148,N,11925.02427970,W,2,11,0.9,6.008,M,-37.759,M,5.0,0131*69
$PYRTM,2024,127.334178471227,18.443825881366
$GNHDT,146.196,T*26
$PYRTM,2024,127.334184217789,18.443831627940
$GNGGA,080113.50,3351.07052785,N,11925.02366049,W,2,11,0.9,5.955,M,-37.759,M,5.4,0131*6A
$PYRTM,2024,127.334184217789,18.443831627940
$GNHDT,145.998,T*23
$PYRTM,2024,127.334190047801,18.443837457940
$GNGGA,080114.00,3351.06960434,N,11925.02303632,W,2,11,0.9,5.829,M,-37.759,M,6.0,0131*6C
$PYRTM,2024,127.334190047801,18.443837457940
$GNHDT,145.715,T*28
$PYRTM,2024,127.334195782755,18.443843192894
$GNGGA,080114.50,3351.06868750,N,11925.02239374,W,2,11,0.9,5.691,M,-37.759,M,6.4,0131*67
$PYRTM,2024,127.334195782755,18.443843192894
$GNHDT,145.471,T*29
$PYRTM,2024,127.334201620567,18.443849030706
$GNGGA,080115.00,3351.06779217,N,11925.02172452,W,2,11,0.9,5.607,M,-37.759,M,7.0,0131*6F
$PYRTM,2024,127.334201620567,18.443849030706
$GNHDT,145.254,T*28
$PYRTM,2024,127.334207359363,18.443854769502
$GNGGA,080115.50,3351.06690905,N,11925.02103601,W,2,11,0.9,5.559,M,-37.759,M,7.4,0131*6A
$PYRTM,2024,127.334207359363,18.443854769502
$GNHDT,145.705,T*29
$PYRTM,2024,127.334213192812,18.443860602951
$GNGGA,080116.00,3351.06603772,N,11925.02033866,W,2,11,0.9,5.558,M,-37.759,M,7.0,0131*60
$PYRTM,2024,127.334213192812,18.443860602951
$GNHDT,145.836,T*26
$PYRTM,2024,127.334218932870,18.443866343009
$GNGGA,080116.50,3351.06515459,N,11925.01966360,W,2,11,0.9,5.558,M,-37.759,M,7.4,0131*68
$PYRTM,2024,127.334218932870,18.443866343009
$GNHDT,145.712,T*2F
$PYRTM,2024,127.334224768843,18.443872178981
$GNGGA,080117.00,3351.06424896,N,11925.01902615,W,2,11,0.9,5.530,M,-37.759,M,7.0,0131*6F
$PYRTM,2024,127.334224768843,18.443872178981
$GNHDT,145.963,T*27
$PYRTM,2024,127.334230512859,18.443877922998
$GNGGA,080117.50,3351.06332709,N,11925.01842867,W,2,11,0.9,5.460,M,-37.759,M,7.4,0131*6D
$PYRTM,2024,127.334230512859,18.443877922998
$GNHDT,145.793,T*26
$PYRTM,2024,127.334236344039,18.443883754190
$GNGGA,080118.00,3351.06238840,N,11925.01786606,W,2,11,0.9,5.345,M,-37.759,M,4.0,0131*67
$PYRTM,2024,127.334236344039,18.443883754190
$GNHDT,145.868,T*2D
$PYRTM,2024,127.334242078576,18.443889488715
$GNGGA,080118.50,3351.06144583,N,11925.01730619,W,2,11,0.9,5.246,M,-37.760,M,4.4,0131*67
$PYRTM,2024,127.334242078576,18.443889488715
$GNHDT,145.632,T*2C
$PYRTM,2024,127.334247915937,18.443895326076
$GNGGA,080119.00,3351.06049937,N,11925.01674169,W,2,11,0.9,5.183,M,-37.760,M,5.0,0131*62
$PYRTM,2024,127.334247915937,18.443895326076
$GNHDT,145.623,T*2C
$PYRTM,2024,127.334253653738,18.443901063877
$GNGGA,080119.50,3351.05956285,N,11925.01614489,W,2,11,0.9,5.166,M,-37.760,M,5.4,0131*63
$PYRTM,2024,127.334253653738,18.443901063877
$GNHDT,145.650,T*28
$PYRTM,2024,127.334259490231,18.443906900370
$GNGGA,080120.00,3351.05863829,N,11925.01550429,W,2,11,0.9,5.192,M,-37.760,M,6.0,0131*62
$PYRTM,2024,127.334259490231,18.443906900370
$GNHDT,145.566,T*2E
$PYRTM,2024,127.334265235602,18.443912645741
$GNGGA,080120.50,3351.05771925,N,11925.01482656,W,2,11,0.9,5.233,M,-37.760,M,6.4,0131*6E
$PYRTM,2024,127.334265235602,18.443912645741
$GNHDT,145.739,T*26
$PYRTM,2024,127.334271063912,18.443918474051
$GNGGA,080121.00,3351.05681833,N,11925.01412973,W,2,11,0.9,5.314,M,-37.760,M,7.0,0131*62
$PYRTM,2024,127.334271063912,18.443918474051
$GNHDT,145.795,T*20
$PYRTM,2024,127.334276807257,18.443924217396
$GNGGA,080121.50,3351.05592312,N,11925.01345089,W,2,11,0.9,5.422,M,-37.760,M,7.4,0131*61
$PYRTM,2024,127.334276807257,18.443924217396
$GNHDT,145.595,T*22
$PYRTM,2024,127.334282639699,18.443930049838
$GNGGA,080122.00,3351.05502354,N,11925.01281102,W,2,11,0.9,5.546,M,-37.760,M,7.0,0131*60
$PYRTM,2024,127.334282639699,18.443930049838
$GNHDT,145.473,T*2B
$PYRTM,2024,127.334288378831,18.443935788970
$GNGGA,080122.50,3351.05413917,N,11925.01218118,W,2,11,0.9,5.694,M,-37.760,M,7.4,0131*6A
$PYRTM,2024,127.334288378831,18.443935788970
$GNHDT,145.265,T*2A
$PYRTM,2024,127.334294210984,18.443941621123
$GNGGA,080123.00,3351.05324531,N,11925.01157188,W,2,11,0.9,5.779,M,-37.760,M,7.0,0131*62
$PYRTM,2024,127.334294210984,18.443941621123
$GNHDT,145.081,T*22
$PYRTM,2024,127.334299950475,18.443947360613
$GNGGA,080123.50,3351.05233368,N,11925.01097000,W,2,11,0.9,5.787,M,-37.760,M,7.4,0131*63
$PYRTM,2024,127.334299950475,18.443947360613
$GNHDT,144.603,T*2F
$PYRTM,2024,127.334305788218,18.443953198356
$GNGGA,080124.00,3351.05141092,N,11925.01035920,W,2,11,0.9,5.729,M,-37.760,M,4.0,0131*61
$PYRTM,2024,127.334305788218,18.443953198356
$GNHDT,144.405,T*2B
$PYRTM,2024,127.334311525313,18.443958935451
$GNGGA,080124.50,3351.05049675,N,11925.00972979,W,2,11,0.9,5.636,M,-37.760,M,4.4,0131*6E
$PYRTM,2024,127.334311525313,18.443958935451
$GNHDT,144.411,T*2E
$PYRTM,2024,127.334317367627,18.443964777766
$GNGGA,080125.00,3351.04960777,N,11925.00907633,W,2,11,0.9,5.543,M,-37.760,M,5.0,0131*6D
$PYRTM,2024,127.334317367627,18.443964777766
$GNHDT,144.633,T*2C
$PYRTM,2024,127.334323106759,18.443970516898
$GNGGA,080125.50,3351.04875098,N,11925.00839594,W,2,11,0.9,5.525,M,-37.760,M,5.4,0131*6D
$PYRTM,2024,127.334323106759,18.443970516898
$GNHDT,144.739,T*27
$PYRTM,2024,127.334328937870,18.443976348021
$GNGGA,080126.00,3351.04792546,N,11925.00769582,W,2,11,0.9,5.605,M,-37.760,M,6.0,0131*60
$PYRTM,2024,127.334328937870,18.443976348021
$GNHDT,145.077,T*2B
$PYRTM,2024,127.334334680613,18.443982090752
$GNGGA,080126.50,3351.04711820,N,11925.00697986,W,2,11,0.9,5.757,M,-37.760,M,6.4,0131*69
$PYRTM,2024,127.334334680613,18.443982090752
$GNHDT,145.269,T*26
$PYRTM,2024,127.334340510764,18.443987920903
$GNGGA,080127.00,3351.04629694,N,11925.00625686,W,2,11,0.9,5.877,M,-37.760,M,7.0,0131*68
$PYRTM,2024,127.334340510764,18.443987920903
$GNHDT,145.336,T*2D
$PYRTM,2024,127.334346246481,18.443993656620
$GNGGA,080127.50,3351.04544326,N,11925.00555179,W,2,11,0.9,5.911,M,-37.760,M,7.4,0131*6F
$PYRTM,2024,127.334346246481,18.443993656620
$GNHDT,145.301,T*29
$PYRTM,2024,127.334352084016,18.443999494155
$GNGGA,080128.00,3351.04454656,N,11925.00489122,W,2,11,0.9,5.808,M,-37.760,M,7.0,0131*64
$PYRTM,2024,127.334352084016,18.443999494155
$GNHDT,145.183,T*21
$PYRTM,2024,127.334357829977,18.444005240116
$GNGGA,080128.50,3351.04361529,N,11925.00427343,W,2,11,0.9,5.606,M,-37.760,M,7.4,0131*6E
$PYRTM,2024,127.334357829977,18.444005240116
$GNHDT,145.097,T*25
$PYRTM,2024,127.334363660752,18.444011070891
$GNGGA,080129.00,3351.04267396,N,11925.00368211,W,2,11,0.9,5.352,M,-37.760,M,7.0,0131*65
$PYRTM,2024,127.334363660752,18.444011070891
$GNHDT,144.952,T*24
$PYRTM,2024,127.334369393924,18.444016804062
$GNGGA,080129.50,3351.04174381,N,11925.00310386,W,2,11,0.9,5.158,M,-37.760,M,7.4,0131*6B
$PYRTM,2024,127.334369393924,18.444016804062
$GNHDT,145.128,T*20
$PYRTM,2024,127.334375231655,18.444022641794
$GNGGA,080130.00,3351.04082508,N,11925.00253493,W,2,11,0.9,5.063,M,-37.760,M,4.0,0131*62
$PYRTM,2024,127.334375231655,18.444022641794
$GNHDT,145.208,T*21
$PYRTM,2024,127.334380970729,18.444028380868
$GNGGA,080130.50,3351.03992932,N,11925.00193288,W,2,11,0.9,5.099,M,-37.760,M,4.4,0131*6F
$PYRTM,2024,127.334380970729,18.444028380868
$GNHDT,144.854,T*23
$PYRTM,2024,127.334386802338,18.444034212477
$GNGGA,080131.00,3351.03904304,N,11925.00129754,W,2,11,0.9,5.215,M,-37.760,M,5.0,0131*6D
$PYRTM,2024,127.334386802338,18.444034212477
$GNHDT,144.966,T*23
$PYRTM,2024,127.334392547998,18.444039958137
$GNGGA,080131.50,3351.03817907,N,11925.00060623,W,2,11,0.9,5.412,M,-37.760,M,5.4,0131*6A
$PYRTM,2024,127.334392547998,18.444039958137
$GNHDT,145.651,T*29
$PYRTM,2024,127.334398380428,18.444045790567
$GNGGA,080132.00,3351.03730473,N,11924.99989828,W,2,11,0.9,5.587,M,-37.760,M,6.0,0131*68
$PYRTM,2024,127.334398380428,18.444045790567
$GNHDT,146.158,T*24
$PYRTM,2024,127.334404119583,18.444051529734
$GNGGA,080132.50,3351.03641402,N,11924.99919561,W,2,11,0.9,5.682,M,-37.760,M,6.4,0131*67
$PYRTM,2024,127.334404119583,18.444051529734
$GNHDT,146.146,T*2B
$PYRTM,2024,127.334409952998,18.444057363137
$GNGGA,080133.00,3351.03550755,N,11924.99851246,W,2,11,0.9,5.724,M,-37.760,M,7.0,0131*66
$PYRTM,2024,127.334409952998,18.444057363137
$GNHDT,146.285,T*27
$PYRTM,2024,127.334415693438,18.444063103576
$GNGGA,080133.50,3351.03459005,N,11924.99786154,W,2,11,0.9,5.727,M,-37.760,M,7.4,0131*6B
$PYRTM,2024,127.334415693438,18.444063103576
$GNHDT,146.382,T*21
$PYRTM,2024,127.334421532072,18.444068942211
$GNGGA,080134.00,3351.03365438,N,11924.99725173,W,2,11,0.9,5.659,M,-37.760,M,7.0,0131*6B
$PYRTM,2024,127.334421532072,18.444068942211
$GNHDT,146.167,T*28
$PYRTM,2024,127.334427265093,18.444074675231
$GNGGA,080134.50,3351.03270148,N,11924.99667336,W,2,11,0.9,5.556,M,-37.760,M,7.4,0131*65
$PYRTM,2024,127.334427265093,18.444074675231
$GNHDT,146.159,T*25
$PYRTM,2024,127.334433101840,18.444080511979
$GNGGA,080135.00,3351.03174822,N,11924.99609416,W,2,11,0.9,5.411,M,-37.760,M,7.0,0131*68
$PYRTM,2024,127.334433101840,18.444080511979
$GNHDT,145.810,T*22
$PYRTM,2024,127.334438843183,18.444086253322
$GNGGA,080135.50,3351.03080422,N,11924.99550212,W,2,11,0.9,5.246,M,-37.760,M,7.4,0131*66
$PYRTM,2024,127.334438843183,18.444086253322
$GNHDT,145.645,T*2C
$PYRTM,2024,127.334444682731,18.444092092870
$GNGGA,080136.00,3351.02987143,N,11924.99488960,W,2,11,0.9,5.077,M,-37.760,M,4.0,0131*60
$PYRTM,2024,127.334444682731,18.444092092870
$GNHDT,145.320,T*2A
$PYRTM,2024,127.334450415590,18.444097825729
$GNGGA,080136.50,3351.02895236,N,11924.99425343,W,2,11,0.9,4.943,M,-37.760,M,4.4,0131*61
$PYRTM,2024,127.334450415590,18.444097825729
$GNHDT,145.032,T*2A
$PYRTM,2024,127.334456247581,18.444103657720
$GNGGA,080137.00,3351.02806853,N,11924.99358321,W,2,11,0.9,4.886,M,-37.760,M,5.0,0131*62
$PYRTM,2024,127.334456247581,18.444103657720
$GNHDT,144.666,T*2C
$PYRTM,2024,127.334461987882,18.444109398021
$GNGGA,080137.50,3351.02721044,N,11924.99288781,W,2,11,0.9,4.937,M,-37.760,M,5.4,0131*6E
$PYRTM,2024,127.334461987882,18.444109398021
$GNHDT,144.491,T*26
$PYRTM,2024,127.334467823657,18.444115233796
$GNGGA,080138.00,3351.02635416,N,11924.99220961,W,2,11,0.9,5.023,M,-37.760,M,6.0,0131*6B
$PYRTM,2024,127.334467823657,18.444115233796
$GNHDT,144.382,T*23
$PYRTM,2024,127.334473561273,18.444120971424
$GNGGA,080138.50,3351.02547214,N,11924.99157122,W,2,11,0.9,5.148,M,-37.760,M,6.4,0131*68
$PYRTM,2024,127.334473561273,18.444120971424
$GNHDT,144.460,T*28
$PYRTM,2024,127.334479399074,18.444126809213
$GNGGA,080139.00,3351.02456346,N,11924.99096245,W,2,11,0.9,5.270,M,-37.760,M,7.0,0131*68
$PYRTM,2024,127.334479399074,18.444126809213
$GNHDT,144.568,T*21
$PYRTM,2024,127.334485135289,18.444132545428
$GNGGA,080139.50,3351.02365238,N,11924.99036429,W,2,11,0.9,5.398,M,-37.760,M,7.4,0131*67
$PYRTM,2024,127.334485135289,18.444132545428
$GNHDT,144.470,T*29
$PYRTM,2024,127.334490971632,18.444138381771
$GNGGA,080140.00,3351.02275333,N,11924.98975106,W,2,11,0.9,5.568,M,-37.760,M,7.0,0131*6C
$PYRTM,2024,127.334490971632,18.444138381771
$GNHDT,144.422,T*2E
$PYRTM,2024,127.334496711042,18.444144121181
$GNGGA,080140.50,3351.02187248,N,11924.98910453,W,2,11,0.9,5.765,M,-37.760,M,7.4,0131*67
$PYRTM,2024,127.334496711042,18.444144121181
$GNHDT,144.156,T*28
$PYRTM,2024,127.334502546042,18.444149956181
$GNGGA,080141.00,3351.02101381,N,11924.98841147,W,2,11,0.9,5.955,M,-37.760,M,7.0,0131*65
$PYRTM,2024,127.334502546042,18.444149956181
$GNHDT,143.821,T*26
$PYRTM,2024,127.334508287801,18.444155697940
$GNGGA,080141.50,3351.02016718,N,11924.98767837,W,2,11,0.9,6.097,M,-37.760,M,7.4,0131*66
$PYRTM,2024,127.334508287801,18.444155697940
$GNHDT,143.595,T*24
$PYRTM,2024,127.334514118993,18.444161529132
$GNGGA,080142.00,3351.01931554,N,11924.98692626,W,2,11,0.9,6.124,M,-37.761,M,4.0,0131*6F
$PYRTM,2024,127.334514118993,18.444161529132
$GNHDT,143.252,T*28
$PYRTM,2024,127.334519860093,18.444167270231
$GNGGA,080142.50,3351.01844284,N,11924.98618028,W,2,11,0.9,6.031,M,-37.761,M,4.4,0131*68
$PYRTM,2024,127.334519860093,18.444167270231
$GNHDT,143.376,T*2F
$PYRTM,2024,127.334525698611,18.444173108762
$GNGGA,080143.00,3351.01756204,N,11924.98545483,W,2,11,0.9,5.854,M,-37.761,M,5.0,0131*6B
$PYRTM,2024,127.334525698611,18.444173108762
$GNHDT,143.229,T*24
$PYRTM,2024,127.334531432627,18.444178842766
$GNGGA,080143.50,3351.01668228,N,11924.98475691,W,2,11,0.9,5.690,M,-37.761,M,5.4,0131*6D
$PYRTM,2024,127.334531432627,18.444178842766
$GNHDT,143.236,T*2A
$PYRTM,2024,127.334537269722,18.444184679861
$GNGGA,080144.00,3351.01580400,N,11924.98408671,W,2,11,0.9,5.580,M,-37.761,M,6.0,0131*67
$PYRTM,2024,127.334537269722,18.444184679861
$GNHDT,143.581,T*21
$PYRTM,2024,127.334543005197,18.444190415336
$GNGGA,080144.50,3351.01493405,N,11924.98344009,W,2,11,0.9,5.570,M,-37.761,M,6.4,0131*69
$PYRTM,2024,127.334543005197,18.444190415336
$GNHDT,144.029,T*21
$PYRTM,2024,127.334548844965,18.444196255104
$GNGGA,080145.00,3351.01406534,N,11924.98281475,W,2,11,0.9,5.631,M,-37.761,M,7.0,0131*66
$PYRTM,2024,127.334548844965,18.444196255104
$GNHDT,144.453,T*28
$PYRTM,2024,127.334554584248,18.444201994398
$GNGGA,080145.50,3351.01319543,N,11924.98218880,W,2,11,0.9,5.740,M,-37.761,M,7.4,0131*6F
$PYRTM,2024,127.334554584248,18.444201994398
$GNHDT,144.636,T*29
$PYRTM,2024,127.334560416470,18.444207826609
$GNGGA,080146.00,3351.01230753,N,11924.98154994,W,2,11,0.9,5.805,M,-37.761,M,7.0,0131*65
$PYRTM,2024,127.334560416470,18.444207826609
$GNHDT,144.983,T*28
$PYRTM,2024,127.334566157963,18.444213568102
$GNGGA,080146.50,3351.01141756,N,11924.98089013,W,2,11,0.9,5.795,M,-37.761,M,7.4,0131*65
$PYRTM,2024,127.334566157963,18.444213568102
$GNHDT,145.419,T*27
$PYRTM,2024,127.334571991123,18.444219401262
$GNGGA,080147.00,3351.01050531,N,11924.98024470,W,2,11,0.9,5.650,M,-37.761,M,7.0,0131*69
$PYRTM,2024,127.334571991123,18.444219401262
$GNHDT,145.608,T*25
$PYRTM,2024,127.334577728218,18.444225138356
$GNGGA,080147.50,3351.00961272,N,11924.97959571,W,2,11,0.9,5.473,M,-37.761,M,7.4,0131*6D
$PYRTM,2024,127.334577728218,18.444225138356
$GNHDT,146.110,T*28
$PYRTM,2024,127.334583566366,18.444230976516
$GNGGA,080148.00,3351.00871779,N,11924.97897169,W,2,11,0.9,5.279,M,-37.761,M,4.0,0131*6C
$PYRTM,2024,127.334583566366,18.444230976516
$GNHDT,146.110,T*28
$PYRTM,2024,127.334589305775,18.444236715914
$GNGGA,080148.50,3351.00784081,N,11924.97836131,W,2,11,0.9,5.155,M,-37.761,M,4.4,0131*63
$PYRTM,2024,127.334589305775,18.444236715914
$GNHDT,145.911,T*22
$PYRTM,2024,127.334595136042,18.444242546181
$GNGGA,080149.00,3351.00700362,N,11924.97771217,W,2,11,0.9,5.138,M,-37.761,M,5.0,0131*60
$PYRTM,2024,127.334595136042,18.444242546181
$GNHDT,145.588,T*2E
$PYRTM,2024,127.334600874306,18.444248284444
$GNGGA,080149.50,3351.00615241,N,11924.97707171,W,2,11,0.9,5.164,M,-37.761,M,5.4,0131*6F
$PYRTM,2024,127.334600874306,18.444248284444
$GNHDT,145.396,T*27
$PYRTM,2024,127.334606712963,18.444254123102
$GNGGA,080150.00,3351.00530054,N,11924.97640736,W,2,11,0.9,5.233,M,-37.761,M,6.0,0131*61
$PYRTM,2024,127.334606712963,18.444254123102
$GNHDT,145.026,T*2F
$PYRTM,2024,127.334612454757,18.444259864896
$GNGGA,080150.50,3351.00442850,N,11924.97573083,W,2,11,0.9,5.293,M,-37.761,M,6.4,0131*68
$PYRTM,2024,127.334612454757,18.444259864896
$GNHDT,145.202,T*2B
$PYRTM,2024,127.334618284606,18.444265694745
$GNGGA,080151.00,3351.00355522,N,11924.97505285,W,2,11,0.9,5.366,M,-37.761,M,7.0,0131*6E
$PYRTM,2024,127.334618284606,18.444265694745
$GNHDT,145.005,T*2E
$PYRTM,2024,127.334624022998,18.444271433137
$GNGGA,080151.50,3351.00265328,N,11924.97441102,W,2,11,0.9,5.427,M,-37.761,M,7.4,0131*6E
$PYRTM,2024,127.334624022998,18.444271433137
$GNHDT,145.443,T*28
$PYRTM,2024,127.334629859144,18.444277269282
$GNGGA,080152.00,3351.00173278,N,11924.97380780,W,2,11,0.9,5.511,M,-37.761,M,7.0,0131*6E
$PYRTM,2024,127.334629859144,18.444277269282
$GNHDT,145.957,T*20
$PYRTM,2024,127.334635598206,18.444283008345
$GNGGA,080152.50,3351.00079570,N,11924.97323269,W,2,11,0.9,5.597,M,-37.761,M,7.4,0131*6E
$PYRTM,2024,127.334635598206,18.444283008345
$GNHDT,146.193,T*23
$PYRTM,2024,127.334641433738,18.444288843866
$GNGGA,080153.00,3350.99984874,N,11924.97266209,W,2,11,0.9,5.694,M,-37.761,M,7.0,0131*6B
$PYRTM,2024,127.334641433738,18.444288843866
$GNHDT,146.787,T*20
$PYRTM,2024,127.334647170058,18.444294580197
$GNGGA,080153.50,3350.99890933,N,11924.97206504,W,2,11,0.9,5.767,M,-37.761,M,7.4,0131*6D
$PYRTM,2024,127.334647170058,18.444294580197
$GNHDT,147.227,T*2E
$PYRTM,2024,127.334653008275,18.444300418426
$GNGGA,080154.00,3350.99798021,N,11924.97142615,W,2,11,0.9,5.827,M,-37.761,M,4.0,0131*6E
$PYRTM,2024,127.334653008275,18.444300418426
$GNHDT,147.327,T*2F
$PYRTM,2024,127.334658746574,18.444306156713
$GNGGA,080154.50,3350.99706846,N,11924.97074400,W,2,11,0.9,5.877,M,-37.761,M,4.4,0131*66
$PYRTM,2024,127.334658746574,18.444306156713
$GNHDT,146.897,T*2E
$PYRTM,2024,127.334664582708,18.444311992847
$GNGGA,080155.00,3350.99617346,N,11924.97004105,W,2,11,0.9,5.887,M,-37.761,M,5.0,0131*65
$PYRTM,2024,127.334664582708,18.444311992847
$GNHDT,146.513,T*2F
$PYRTM,2024,127.334670326389,18.444317736528
$GNGGA,080155.50,3350.99527697,N,11924.96933856,W,2,11,0.9,5.832,M,-37.761,M,5.4,0131*60
$PYRTM,2024,127.334670326389,18.444317736528
$GNHDT,146.107,T*2E
$PYRTM,2024,127.334676155938,18.444323566076
$GNGGA,080156.00,3350.99438144,N,11924.96865241,W,2,11,0.9,5.742,M,-37.761,M,6.0,0131*61
$PYRTM,2024,127.334676155938,18.444323566076
$GNHDT,145.584,T*22
$PYRTM,2024,127.334681894039,18.444329304178
$GNGGA,080156.50,3350.99348164,N,11924.96798233,W,2,11,0.9,5.610,M,-37.761,M,6.4,0131*6C
$PYRTM,2024,127.334681894039,18.444329304178
$GNHDT,144.771,T*2B
$PYRTM,2024,127.334687732118,18.444335142257
$GNGGA,080157.00,3350.99258812,N,11924.96733052,W,2,11,0.9,5.536,M,-37.761,M,7.0,0131*66
$PYRTM,2024,127.334687732118,18.444335142257
$GNHDT,144.269,T*27
$PYRTM,2024,127.334693469792,18.444340879931
$GNGGA,080157.50,3350.99170088,N,11924.96668256,W,2,11,0.9,5.546,M,-37.761,M,7.4,0131*6B
$PYRTM,2024,127.334693469792,18.444340879931
$GNHDT,143.855,T*25
$PYRTM,2024,127.334699304468,18.444346714618
$GNGGA,080158.00,3350.99080667,N,11924.96605999,W,2,11,0.9,5.643,M,-37.761,M,7.0,0131*69
$PYRTM,2024,127.334699304468,18.444346714618
$GNHDT,143.805,T*20
$PYRTM,2024,127.334705050486,18.444352460637
$GNGGA,080158.50,3350.98993173,N,11924.96543103,W,2,11,0.9,5.853,M,-37.761,M,7.4,0131*65
$PYRTM,2024,127.334705050486,18.444352460637
$GNHDT,143.578,T*27
$PYRTM,2024,127.334710876331,18.444358286481
$GNGGA,080159.00,3350.98904531,N,11924.96481361,W,2,11,0.9,6.081,M,-37.761,M,7.0,0131*64
$PYRTM,2024,127.334710876331,18.444358286481
$GNHDT,143.713,T*28
$PYRTM,2024,127.334716621771,18.444364031910
$GNGGA,080159.50,3350.98814511,N,11924.96420327,W,2,11,0.9,6.253,M,-37.761,M,7.4,0131*63
$PYRTM,2024,127.334716621771,18.444364031910
$GNHDT,144.319,T*21
$PYRTM,2024,127.334722454618,18.444369864757
$GNGGA,080200.00,3350.98722560,N,11924.96359975,W,2,11,0.9,6.340,M,-37.761,M,4.0,0131*65
$PYRTM,2024,127.334722454618,18.444369864757
$GNHDT,144.635,T*2A
$PYRTM,2024,127.334728192280,18.444375602431
$GNGGA,080200.50,3350.98629979,N,11924.96297609,W,2,11,0.9,6.339,M,-37.761,M,4.4,0131*63
$PYRTM,2024,127.334728192280,18.444375602431
$GNHDT,144.727,T*28
$PYRTM,2024,127.334734024734,18.444381434873
$GNGGA,080201.00,3350.98537909,N,11924.96231764,W,2,11,0.9,6.276,M,-37.761,M,5.0,0131*65
$PYRTM,2024,127.334734024734,18.444381434873
$GNHDT,144.680,T*24
$PYRTM,2024,127.334739766933,18.444387177083
$GNGGA,080201.50,3350.98447529,N,11924.96162535,W,2,11,0.9,6.205,M,-37.761,M,5.4,0131*6B
$PYRTM,2024,127.334739766933,18.444387177083
$GNHDT,144.658,T*21
$PYRTM,2024,127.334745601435,18.444393011574
$GNGGA,080202.00,3350.98358819,N,11924.96091306,W,2,11,0.9,6.111,M,-37.761,M,6.0,0131*60
$PYRTM,2024,127.334745601435,18.444393011574
$GNHDT,144.329,T*22
$PYRTM,2024,127.334751344201,18.444398754340
$GNGGA,080202.50,3350.98272800,N,11924.96019050,W,2,11,0.9,6.046,M,-37.761,M,6.4,0131*63
$PYRTM,2024,127.334751344201,18.444398754340
$GNHDT,144.161,T*2C
$PYRTM,2024,127.334757174873,18.444404585012
$GNGGA,080203.00,3350.98188075,N,11924.95946894,W,2,11,0.9,5.976,M,-37.761,M,7.0,0131*67
$PYRTM,2024,127.334757174873,18.444404585012
$GNHDT,143.877,T*25
$PYRTM,2024,127.334762912234,18.444410322373
$GNGGA,080203.50,3350.98103584,N,11924.95875975,W,2,11,0.9,5.895,M,-37.761,M,7.4,0131*6D
$PYRTM,2024,127.334762912234,18.444410322373
$GNHDT,143.695,T*27
$PYRTM,2024,127.334768748194,18.444416158333
$GNGGA,080204.00,3350.98018681,N,11924.95806305,W,2,11,0.9,5.780,M,-37.761,M,7.0,0131*64
$PYRTM,2024,127.334768748194,18.444416158333
$GNHDT,143.546,T*2A
$PYRTM,2024,127.334774495972,18.444421906123
$GNGGA,080204.50,3350.97931912,N,11924.95740548,W,2,11,0.9,5.665,M,-37.761,M,7.4,0131*65
$PYRTM,2024,127.334774495972,18.444421906123
$GNHDT,143.473,T*2D
$PYRTM,2024,127.334780320937,18.444427731076
$GNGGA,080205.00,3350.97843851,N,11924.95678015,W,2,11,0.9,5.564,M,-37.761,M,7.0,0131*62
$PYRTM,2024,127.334780320937,18.444427731076
$GNHDT,143.652,T*2C
$PYRTM,2024,127.334786066273,18.444433476412
$GNGGA,080205.50,3350.97757074,N,11924.95617063,W,2,11,0.9,5.545,M,-37.761,M,7.4,0131*6D
$PYRTM,2024,127.334786066273,18.444433476412
$GNHDT,143.720,T*28
$PYRTM,2024,127.334791902558,18.444439312708
$GNGGA,080206.00,3350.97670424,N,11924.95557061,W,2,11,0.9,5.594,M,-37.761,M,4.0,0131*60
$PYRTM,2024,127.334791902558,18.444439312708
$GNHDT,144.046,T*28
$PYRTM,2024,127.334797638067,18.444445048206
$GNGGA,080206.50,3350.97583787,N,11924.95495892,W,2,11,0.9,5.691,M,-37.761,M,4.4,0131*69
$PYRTM,2024,127.334797638067,18.444445048206
$GNHDT,144.310,T*28
$PYRTM,2024,127.334803474340,18.444450884479
$GNGGA,080207.00,3350.97495266,N,11924.95434040,W,2,11,0.9,5.742,M,-37.761,M,5.0,0131*67
$PYRTM,2024,127.334803474340,18.444450884479
$GNHDT,145.095,T*27
$PYRTM,2024,127.334809208495,18.444456618634
$GNGGA,080207.50,3350.97404999,N,11924.95372241,W,2,11,0.9,5.756,M,-37.761,M,5.4,0131*66
$PYRTM,2024,127.334809208495,18.444456618634
$GNHDT,146.042,T*2E
$PYRTM,2024,127.334815046782,18.444462456921
$GNGGA,080208.00,3350.97313917,N,11924.95308481,W,2,11,0.9,5.737,M,-37.761,M,6.0,0131*6C
$PYRTM,2024,127.334815046782,18.444462456921
$GNHDT,146.500,T*2D
$PYRTM,2024,127.334820784375,18.444468194514
$GNGGA,080208.50,3350.97221477,N,11924.95245829,W,2,11,0.9,5.668,M,-37.762,M,6.4,0131*68
$PYRTM,2024,127.334820784375,18.444468194514
$GNHDT,146.906,T*27
$PYRTM,2024,127.334826616794,18.444474026933
$GNGGA,080209.00,3350.97130398,N,11924.95182102,W,2,11,0.9,5.633,M,-37.762,M,7.0,0131*6A
$PYRTM,2024,127.334826616794,18.444474026933
$GNHDT,146.966,T*21
$PYRTM,2024,127.334832358472,18.444479768623
$GNGGA,080209.50,3350.97039795,N,11924.95117898,W,2,11,0.9,5.633,M,-37.762,M,7.4,0131*6C
$PYRTM,2024,127.334832358472,18.444479768623
$GNHDT,146.743,T*28
$PYRTM,2024,127.334838201076,18.444485611215
$GNGGA,080210.00,3350.96950487,N,11924.95052009,W,2,11,0.9,5.647,M,-37.762,M,7.0,0131*61
$PYRTM,2024,127.334838201076,18.444485611215
$GNHDT,146.607,T*29
$PYRTM,2024,127.334843933495,18.444491343646
$GNGGA,080210.50,3350.96861459,N,11924.94984363,W,2,11,0.9,5.632,M,-37.762,M,7.4,0131*6E
$PYRTM,2024,127.334843933495,18.444491343646
$GNHDT,146.738,T*24
$PYRTM,2024,127.334849764769,18.444497174907
$GNGGA,080211.00,3350.96774566,N,11924.94913586,W,2,11,0.9,5.611,M,-37.762,M,7.0,0131*6A
$PYRTM,2024,127.334849764769,18.444497174907
$GNHDT,146.820,T*22
$PYRTM,2024,127.334855504873,18.444502915012
$GNGGA,080211.50,3350.96688442,N,11924.94843428,W,2,11,0.9,5.566,M,-37.762,M,7.4,0131*6C
$PYRTM,2024,127.334855504873,18.444502915012
$GNHDT,146.363,T*2E
$PYRTM,2024,127.334861343356,18.444508753495
$GNGGA,080212.00,3350.96602308,N,11924.94778769,W,2,11,0.9,5.513,M,-37.762,M,4.0,0131*65
$PYRTM,2024,127.334861343356,18.444508753495
$GNHDT,146.268,T*24
$PYRTM,2024,127.334867083252,18.444514493403
$GNGGA,080212.50,3350.96513254,N,11924.94723349,W,2,11,0.9,5.422,M,-37.762,M,4.4,0131*64
$PYRTM,2024,127.334867083252,18.444514493403
$GNHDT,145.981,T*2B
$PYRTM,2024,127.334872914387,18.444520324525
$GNGGA,080213.00,3350.96418464,N,11924.94678440,W,2,11,0.9,5.255,M,-37.762,M,5.0,0131*6D
$PYRTM,2024,127.334872914387,18.444520324525
$GNHDT,146.077,T*28
$PYRTM,2024,127.334878655509,18.444526065648
$GNGGA,080213.50,3350.96320493,N,11924.94637038,W,2,11,0.9,5.093,M,-37.762,M,5.4,0131*60
$PYRTM,2024,127.334878655509,18.444526065648
$GNHDT,146.114,T*2C
$PYRTM,2024,127.334884489259,18.444531899398
$GNGGA,080214.00,3350.96223652,N,11924.94590801,W,2,11,0.9,4.992,M,-37.762,M,6.0,0131*6D
$PYRTM,2024,127.334884489259,18.444531899398
$GNHDT,146.140,T*2D
$PYRTM,2024,127.334890228750,18.444537638889
$GNGGA,080214.50,3350.96131444,N,11924.94532460,W,2,11,0.9,5.082,M,-37.762,M,6.4,0131*63
$PYRTM,2024,127.334890228750,18.444537638889
$GNHDT,146.204,T*2E
$PYRTM,2024,127.334896063576,18.444543473715
$GNGGA,080215.00,3350.96044545,N,11924.94461636,W,2,11,0.9,5.354,M,-37.762,M,7.0,0131*6F
$PYRTM,2024,127.334896063576,18.444543473715
$GNHDT,146.249,T*27
$PYRTM,2024,127.334901803137,18.444549213275
$GNGGA,080215.50,3350.95959219,N,11924.94384638,W,2,11,0.9,5.698,M,-37.762,M,7.4,0131*61
$PYRTM,2024,127.334901803137,18.444549213275
$GNHDT,146.479,T*22
$PYRTM,2024,127.334907641331,18.444555051481
$GNGGA,080216.00,3350.95874320,N,11924.94306058,W,2,11,0.9,6.030,M,-37.762,M,7.0,0131*6B
$PYRTM,2024,127.334907641331,18.444555051481
$GNHDT,146.579,T*23
$PYRTM,2024,127.334913382234,18.444560792373
$GNGGA,080216.50,3350.95788379,N,11924.94230081,W,2,11,0.9,6.279,M,-37.762,M,7.4,0131*65
$PYRTM,2024,127.334913382234,18.444560792373
$GNHDT,146.490,T*25
$PYRTM,2024,127.334919209225,18.444566619375
$GNGGA,080217.00,3350.95698718,N,11924.94161010,W,2,11,0.9,6.397,M,-37.762,M,7.0,0131*68
$PYRTM,2024,127.334919209225,18.444566619375
$GNHDT,146.239,T*20
$PYRTM,2024,127.334924954317,18.444572364456
$GNGGA,080217.50,3350.95604289,N,11924.94100849,W,2,11,0.9,6.375,M,-37.762,M,7.4,0131*6E
$PYRTM,2024,127.334924954317,18.444572364456
$GNHDT,146.143,T*2E
$PYRTM,2024,127.334930786134,18.444578196273
$GNGGA,080218.00,3350.95507268,N,11924.94044484,W,2,11,0.9,6.243,M,-37.762,M,4.0,0131*64
$PYRTM,2024,127.334930786134,18.444578196273
$GNHDT,145.743,T*2B
$PYRTM,2024,127.334936523681,18.444583933819
$GNGGA,080218.50,3350.95412983,N,11924.93985428,W,2,11,0.9,6.091,M,-37.762,M,4.4,0131*66
$PYRTM,2024,127.334936523681,18.444583933819
$GNHDT,145.235,T*2F
$PYRTM,2024,127.334942356863,18.444589767014
$GNGGA,080219.00,3350.95324487,N,11924.93920729,W,2,11,0.9,5.982,M,-37.762,M,5.0,0131*69
$PYRTM,2024,127.334942356863,18.444589767014
$GNHDT,144.489,T*2F
$PYRTM,2024,127.334948098218,18.444595508356
$GNGGA,080219.50,3350.95241245,N,11924.93851438,W,2,11,0.9,5.927,M,-37.762,M,5.4,0131*69
$PYRTM,2024,127.334948098218,18.444595508356
$GNHDT,144.183,T*20
$PYRTM,2024,127.334953932396,18.444601342535
$GNGGA,080220.00,3350.95161469,N,11924.93778273,W,2,11,0.9,5.899,M,-37.762,M,6.0,0131*61
$PYRTM,2024,127.334953932396,18.444601342535
$GNHDT,143.820,T*27
$PYRTM,2024,127.334959675833,18.444607085972
$GNGGA,080220.50,3350.95081213,N,11924.93706513,W,2,11,0.9,5.826,M,-37.762,M,6.4,0131*68
$PYRTM,2024,127.334959675833,18.444607085972
$GNHDT,144.032,T*2B
$PYRTM,2024,127.334965507292,18.444612917442
$GNGGA,080221.00,3350.94999002,N,11924.93638135,W,2,11,0.9,5.709,M,-37.762,M,7.0,0131*64
$PYRTM,2024,127.334965507292,18.444612917442
$GNHDT,143.974,T*27
$PYRTM,2024,127.334971244884,18.444618655023
$GNGGA,080221.50,3350.94914316,N,11924.93576026,W,2,11,0.9,5.567,M,-37.762,M,7.4,0131*66
$PYRTM,2024,127.334971244884,18.444618655023
$GNHDT,144.266,T*28
$PYRTM,2024,127.334977081157,18.444624491296
$GNGGA,080222.00,3350.94828003,N,11924.93518007,W,2,11,0.9,5.505,M,-37.762,M,7.0,0131*62
$PYRTM,2024,127.334977081157,18.444624491296
$GNHDT,144.418,T*27
$PYRTM,2024,127.334982818542,18.444630228681
$GNGGA,080222.50,3350.94740960,N,11924.93461489,W,2,11,0.9,5.535,M,-37.762,M,7.4,0131*60
$PYRTM,2024,127.334982818542,18.444630228681
$GNHDT,144.449,T*23
$PYRTM,2024,127.334988656088,18.444636066227
$GNGGA,080223.00,3350.94654006,N,11924.93403654,W,2,11,0.9,5.660,M,-37.762,M,7.0,0131*68
$PYRTM,2024,127.334988656088,18.444636066227
$GNHDT,144.449,T*23
$PYRTM,2024,127.334994394653,18.444641804792
$GNGGA,080223.50,3350.94566548,N,11924.93342484,W,2,11,0.9,5.847,M,-37.762,M,7.4,0131*62
$PYRTM,2024,127.334994394653,18.444641804792
$GNHDT,144.149,T*26
$PYRTM,2024,127.335000231620,18.444647641759
$GNGGA,080224.00,3350.94478691,N,11924.93277594,W,2,11,0.9,6.022,M,-37.762,M,4.0,0131*61
$PYRTM,2024,127.335000231620,18.444647641759
$GNHDT,144.043,T*2D
$PYRTM,2024,127.335005967778,18.444653377917
$GNGGA,080224.50,3350.94391292,N,11924.93208869,W,2,11,0.9,6.143,M,-37.762,M,4.4,0131*66
$PYRTM,2024,127.335005967778,18.444653377917
$GNHDT,143.871,T*23
$PYRTM,2024,127.335011802257,18.444659212396
$GNGGA,080225.00,3350.94304221,N,11924.93137202,W,2,11,0.9,6.161,M,-37.762,M,5.0,0131*6B
$PYRTM,2024,127.335011802257,18.444659212396
$GNHDT,143.642,T*2D
$PYRTM,2024,127.335017542512,18.444664952650
$GNGGA,080225.50,3350.94218390,N,11924.93064558,W,2,11,0.9,6.100,M,-37.762,M,5.4,0131*65
$PYRTM,2024,127.335017542512,18.444664952650
$GNHDT,143.555,T*28
$PYRTM,2024,127.335023376863,18.444670787014
$GNGGA,080226.00,3350.94131519,N,11924.92995834,W,2,11,0.9,5.957,M,-37.762,M,6.0,0131*63
$PYRTM,2024,127.335023376863,18.444670787014
$GNHDT,143.476,T*28
$PYRTM,2024,127.335029115000,18.444676525139
$GNGGA,080226.50,3350.94042252,N,11924.92933944,W,2,11,0.9,5.730,M,-37.762,M,6.4,0131*6A
$PYRTM,2024,127.335029115000,18.444676525139
$GNHDT,143.489,T*28
$PYRTM,2024,127.335034960498,18.444682370648
$GNGGA,080227.00,3350.93950932,N,11924.92878105,W,2,11,0.9,5.463,M,-37.762,M,7.0,0131*6D
$PYRTM,2024,127.335034960498,18.444682370648
$GNHDT,143.565,T*2B
$PYRTM,2024,127.335040692870,18.444688103009
$GNGGA,080227.50,3350.93859710,N,11924.92824344,W,2,11,0.9,5.250,M,-37.762,M,7.4,0131*62
$PYRTM,2024,127.335040692870,18.444688103009
$GNHDT,143.779,T*24
$PYRTM,2024,127.335046532037,18.444693942176
$GNGGA,080228.00,3350.93769514,N,11924.92770245,W,2,11,0.9,5.139,M,-37.762,M,7.0,0131*64
$PYRTM,2024,127.335046532037,18.444693942176
$GNHDT,144.196,T*24
$PYRTM,2024,127.335052270868,18.444699681019
$GNGGA,080228.50,3350.93682703,N,11924.92710215,W,2,11,0.9,5.171,M,-37.762,M,7.4,0131*6A
$PYRTM,2024,127.335052270868,18.444699681019
$GNHDT,144.525,T*28
$PYRTM,2024,127.335058104410,18.444705514549
