$PYRTM,2024,122.250000165046,13.359647575185
$GNGGA,060000.00,3324.16235420,N,11915.16097788,W,2,12,0.9,7.544,M,-37.627,M,5.0,0135*6B
$PYRTM,2024,122.250000165046,13.359647575185
$GNHDT,293.353,T*26
$PYRTM,2024,122.250005891134,13.359653301273
$GNGGA,060000.50,3324.16288187,N,11915.16195488,W,2,12,0.9,8.208,M,-37.627,M,5.4,0135*64
$PYRTM,2024,122.250005891134,13.359653301273
$GNHDT,293.396,T*2F
$PYRTM,2024,122.250011728796,13.359659138935
$GNGGA,060001.00,3324.16340139,N,11915.16307564,W,2,12,0.9,8.579,M,-37.627,M,6.0,0135*6C
$PYRTM,2024,122.250011728796,13.359659138935
$GNHDT,293.549,T*2B
$PYRTM,2024,122.250017461875,13.359664872025
$GNGGA,060001.50,3324.16389296,N,11915.16433496,W,2,12,0.9,8.492,M,-37.627,M,6.4,0135*66
$PYRTM,2024,122.250017461875,13.359664872025
$GNHDT,293.566,T*26
$PYRTM,2024,122.250023309549,13.359670719699
$GNGGA,060002.00,3324.16430914,N,11915.16559293,W,2,12,0.9,8.124,M,-37.627,M,7.0,0135*67
$PYRTM,2024,122.250023309549,13.359670719699
$GNHDT,293.691,T*2D
$PYRTM,2024,122.250029036493,13.359676446632
$GNGGA,060002.50,3324.16466280,N,11915.16681915,W,2,12,0.9,7.696,M,-37.627,M,7.4,0135*61
$PYRTM,2024,122.250029036493,13.359676446632
$GNHDT,293.737,T*20
$PYRTM,2024,122.250034880579,13.359682290729
$GNGGA,060003.00,3324.16497513,N,11915.16799463,W,2,12,0.9,7.301,M,-37.627,M,7.0,0135*6D
$PYRTM,2024,122.250034880579,13.359682290729
$GNHDT,293.760,T*22
$PYRTM,2024,122.250040609248,13.359688019398
$GNGGA,060003.50,3324.16530250,N,11915.16914384,W,2,12,0.9,7.042,M,-37.627,M,7.4,0135*61
$PYRTM,2024,122.250040609248,13.359688019398
$GNHDT,293.845,T*2A
$PYRTM,2024,122.250046449572,13.359693859711
$GNGGA,060004.00,3324.16568673,N,11915.17030935,W,2,12,0.9,6.811,M,-37.627,M,7.0,0135*6E
$PYRTM,2024,122.250046449572,13.359693859711
$GNHDT,293.721,T*27
$PYRTM,2024,122.250052184873,13.359699595012
$GNGGA,060004.50,3324.16614577,N,11915.17149043,W,2,12,0.9,6.616,M,-37.627,M,7.4,0135*6E
$PYRTM,2024,122.250052184873,13.359699595012
$GNHDT,293.450,T*22
$PYRTM,2024,122.250058035787,13.359705445926
$GNGGA,060005.00,3324.16666690,N,11915.17263761,W,2,12,0.9,6.494,M,-37.627,M,4.0,0135*66
$PYRTM,2024,122.250058035787,13.359705445926
$GNHDT,293.505,T*23
$PYRTM,2024,122.250063755405,13.359711165544
$GNGGA,060005.50,3324.16720914,N,11915.17376699,W,2,12,0.9,6.479,M,-37.627,M,4.4,0135*67
$PYRTM,2024,122.250063755405,13.359711165544
$GNHDT,293.254,T*20
$PYRTM,2024,122.250069605544,13.359717015683
$GNGGA,060006.00,3324.16773954,N,11915.17490795,W,2,12,0.9,6.546,M,-37.627,M,5.0,0135*69
$PYRTM,2024,122.250069605544,13.359717015683
$GNHDT,293.168,T*2C
$PYRTM,2024,122.250075331354,13.359722741493
$GNGGA,060006.50,3324.16825628,N,11915.17608300,W,2,12,0.9,6.701,M,-37.627,M,5.4,0135*6A
$PYRTM,2024,122.250075331354,13.359722741493
$GNHDT,293.184,T*2E
$PYRTM,2024,122.250081177477,13.359728587616
$GNGGA,060007.00,3324.16873723,N,11915.17730360,W,2,12,0.9,6.880,M,-37.627,M,6.0,0135*6A
$PYRTM,2024,122.250081177477,13.359728587616
$GNHDT,293.078,T*2C
$PYRTM,2024,122.250086908194,13.359734318333
$GNGGA,060007.50,3324.16917815,N,11915.17856043,W,2,12,0.9,7.038,M,-37.627,M,6.4,0135*65
$PYRTM,2024,122.250086908194,13.359734318333
$GNHDT,292.960,T*2D
$PYRTM,2024,122.250092755139,13.359740165278
$GNGGA,060008.00,3324.16957244,N,11915.17982336,W,2,12,0.9,7.176,M,-37.627,M,7.0,0135*62
$PYRTM,2024,122.250092755139,13.359740165278
$GNHDT,293.188,T*22
$PYRTM,2024,122.250098482731,13.359745892870
$GNGGA,060008.50,3324.16994390,N,11915.18106132,W,2,12,0.9,7.322,M,-37.627,M,7.4,0135*6A
$PYRTM,2024,122.250098482731,13.359745892870
$GNHDT,293.206,T*27
$PYRTM,2024,122.250104321076,13.359751731215
$GNGGA,060009.00,3324.17030303,N,11915.18226224,W,2,12,0.9,7.447,M,-37.627,M,7.0,0135*67
$PYRTM,2024,122.250104321076,13.359751731215
$GNHDT,293.102,T*20
$PYRTM,2024,122.250110053600,13.359757463738
$GNGGA,060009.50,3324.17068245,N,11915.18343085,W,2,12,0.9,7.559,M,-37.627,M,7.4,0135*6D
$PYRTM,2024,122.250110053600,13.359757463738
$GNHDT,292.922,T*2B
$PYRTM,2024,122.250115899954,13.359763310093
$GNGGA,060010.00,3324.17109434,N,11915.18459714,W,2,12,0.9,7.559,M,-37.627,M,7.0,0135*61
$PYRTM,2024,122.250115899954,13.359763310093
$GNHDT,292.638,T*2F
$PYRTM,2024,122.250121625752,13.359769035891
$GNGGA,060010.50,3324.17154911,N,11915.18579793,W,2,12,0.9,7.407,M,-37.627,M,7.4,0135*64
$PYRTM,2024,122.250121625752,13.359769035891
$GNHDT,292.556,T*24
$PYRTM,2024,122.250127473449,13.359774883588
$GNGGA,060011.00,3324.17202787,N,11915.18704972,W,2,12,0.9,7.075,M,-37.627,M,4.0,0135*6E
$PYRTM,2024,122.250127473449,13.359774883588
$GNHDT,292.592,T*2C
$PYRTM,2024,122.250133206019,13.359780616157
$GNGGA,060011.50,3324.17252625,N,11915.18831653,W,2,12,0.9,6.684,M,-37.627,M,4.4,0135*6F
$PYRTM,2024,122.250133206019,13.359780616157
$GNHDT,292.314,T*24
$PYRTM,2024,122.250139044641,13.359786454780
$GNGGA,060012.00,3324.17301787,N,11915.18957657,W,2,12,0.9,6.347,M,-37.627,M,5.0,0135*6D
$PYRTM,2024,122.250139044641,13.359786454780
$GNHDT,292.397,T*2F
$PYRTM,2024,122.250144775914,13.359792186053
$GNGGA,060012.50,3324.17347465,N,11915.19080024,W,2,12,0.9,6.269,M,-37.627,M,5.4,0135*6C
$PYRTM,2024,122.250144775914,13.359792186053
$GNHDT,292.501,T*26
$PYRTM,2024,122.250150621424,13.359798031562
$GNGGA,060013.00,3324.17387011,N,11915.19198081,W,2,12,0.9,6.488,M,-37.627,M,6.0,0135*6A
$PYRTM,2024,122.250150621424,13.359798031562
$GNHDT,292.343,T*26
$PYRTM,2024,122.250156354086,13.359803764225
$GNGGA,060013.50,3324.17423535,N,11915.19312918,W,2,12,0.9,6.914,M,-37.627,M,6.4,0135*60
$PYRTM,2024,122.250156354086,13.359803764225
$GNHDT,292.309,T*28
$PYRTM,2024,122.250162197500,13.359809607639
$GNGGA,060014.00,3324.17459202,N,11915.19428151,W,2,12,0.9,7.402,M,-37.627,M,7.0,0135*69
$PYRTM,2024,122.250162197500,13.359809607639
$GNHDT,292.516,T*20
$PYRTM,2024,122.250167927303,13.359815337442
$GNGGA,060014.50,3324.17498139,N,11915.19550277,W,2,12,0.9,7.657,M,-37.627,M,7.4,0135*65
$PYRTM,2024,122.250167927303,13.359815337442
$GNHDT,292.366,T*21
$PYRTM,2024,122.250173768762,13.359821178900
$GNGGA,060015.00,3324.17542442,N,11915.19681763,W,2,12,0.9,7.546,M,-37.627,M,7.0,0135*66
$PYRTM,2024,122.250173768762,13.359821178900
$GNHDT,292.357,T*23
$PYRTM,2024,122.250179501690,13.359826911840
$GNGGA,060015.50,3324.17590639,N,11915.19817301,W,2,12,0.9,7.048,M,-37.627,M,7.4,0135*6C
$PYRTM,2024,122.250179501690,13.359826911840
$GNHDT,292.185,T*2E
$PYRTM,2024,122.250185349896,13.359832760046
$GNGGA,060016.00,3324.17639554,N,11915.19949816,W,2,12,0.9,6.506,M,-37.627,M,7.0,0135*6F
$PYRTM,2024,122.250185349896,13.359832760046
$GNHDT,291.939,T*22
$PYRTM,2024,122.250191073854,13.359838483993
$GNGGA,060016.50,3324.17686673,N,11915.20070769,W,2,12,0.9,6.199,M,-37.627,M,7.4,0135*60
$PYRTM,2024,122.250191073854,13.359838483993
$GNHDT,292.079,T*2C
$PYRTM,2024,122.250196921667,13.359844331806
$GNGGA,060017.00,3324.17729884,N,11915.20180954,W,2,12,0.9,6.296,M,-37.627,M,4.0,0135*63
$PYRTM,2024,122.250196921667,13.359844331806
$GNHDT,292.068,T*2C
$PYRTM,2024,122.250202654421,13.359850064560
$GNGGA,060017.50,3324.17770937,N,11915.20286529,W,2,12,0.9,6.660,M,-37.627,M,4.4,0135*69
$PYRTM,2024,122.250202654421,13.359850064560
$GNHDT,292.405,T*23
$PYRTM,2024,122.250208492616,13.359855902755
$GNGGA,060018.00,3324.17812421,N,11915.20396398,W,2,12,0.9,7.119,M,-37.627,M,5.0,0135*63
$PYRTM,2024,122.250208492616,13.359855902755
$GNHDT,292.571,T*21
$PYRTM,2024,122.250214219271,13.359861629410
$GNGGA,060018.50,3324.17856537,N,11915.20515899,W,2,12,0.9,7.433,M,-37.627,M,5.4,0135*6E
$PYRTM,2024,122.250214219271,13.359861629410
$GNHDT,292.524,T*21
$PYRTM,2024,122.250220065799,13.359867475937
$GNGGA,060019.00,3324.17902679,N,11915.20644605,W,2,12,0.9,7.483,M,-37.627,M,6.0,0135*63
$PYRTM,2024,122.250220065799,13.359867475937
$GNHDT,292.642,T*22
$PYRTM,2024,122.250225798796,13.359873208935
$GNGGA,060019.50,3324.17949658,N,11915.20773598,W,2,12,0.9,7.359,M,-37.627,M,6.4,0135*6C
$PYRTM,2024,122.250225798796,13.359873208935
$GNHDT,292.693,T*2E
$PYRTM,2024,122.250231639595,13.359879049734
$GNGGA,060020.00,3324.17994931,N,11915.20899758,W,2,12,0.9,7.172,M,-37.627,M,7.0,0135*68
$PYRTM,2024,122.250231639595,13.359879049734
$GNHDT,292.591,T*2F
$PYRTM,2024,122.250237368889,13.359884779028
$GNGGA,060020.50,3324.18036878,N,11915.21021917,W,2,12,0.9,7.051,M,-37.627,M,7.4,0135*64
$PYRTM,2024,122.250237368889,13.359884779028
$GNHDT,292.754,T*24
$PYRTM,2024,122.250243216204,13.359890626354
$GNGGA,060021.00,3324.18076895,N,11915.21140412,W,2,12,0.9,7.064,M,-37.627,M,7.0,0135*6B
$PYRTM,2024,122.250243216204,13.359890626354
$GNHDT,292.765,T*26
$PYRTM,2024,122.250248941308,13.359896351458
$GNGGA,060021.50,3324.18116855,N,11915.21257094,W,2,12,0.9,7.184,M,-37.627,M,7.4,0135*61
$PYRTM,2024,122.250248941308,13.359896351458
$GNHDT,292.649,T*29
$PYRTM,2024,122.250254795995,13.359902206134
$GNGGA,060022.00,3324.18158752,N,11915.21373769,W,2,12,0.9,7.332,M,-37.627,M,7.0,0135*6C
$PYRTM,2024,122.250254795995,13.359902206134
$GNHDT,292.581,T*2E
$PYRTM,2024,122.250260515683,13.359907925822
$GNGGA,060022.50,3324.18202596,N,11915.21494311,W,2,12,0.9,7.400,M,-37.627,M,7.4,0135*68
$PYRTM,2024,122.250260515683,13.359907925822
$GNHDT,292.445,T*27
$PYRTM,2024,122.250266359896,13.359913770035
$GNGGA,060023.00,3324.18247792,N,11915.21618459,W,2,12,0.9,7.349,M,-37.627,M,4.0,0135*6B
$PYRTM,2024,122.250266359896,13.359913770035
$GNHDT,292.472,T*23
$PYRTM,2024,122.250272092998,13.359919503137
$GNGGA,060023.50,3324.18293432,N,11915.21742671,W,2,12,0.9,7.218,M,-37.627,M,4.4,0135*69
$PYRTM,2024,122.250272092998,13.359919503137
$GNHDT,292.568,T*29
$PYRTM,2024,122.250277935139,13.359925345278
$GNGGA,060024.00,3324.18337959,N,11915.21866924,W,2,12,0.9,7.062,M,-37.627,M,5.0,0135*68
$PYRTM,2024,122.250277935139,13.359925345278
$GNHDT,292.695,T*28
$PYRTM,2024,122.250283664502,13.359931074653
$GNGGA,060024.50,3324.18381630,N,11915.21992460,W,2,12,0.9,6.918,M,-37.627,M,5.4,0135*66
$PYRTM,2024,122.250283664502,13.359931074653
$GNHDT,292.590,T*2E
$PYRTM,2024,122.250289511053,13.359936921192
$GNGGA,060025.00,3324.18425421,N,11915.22120131,W,2,12,0.9,6.800,M,-37.627,M,6.0,0135*65
$PYRTM,2024,122.250289511053,13.359936921192
$GNHDT,292.564,T*25
$PYRTM,2024,122.250295243438,13.359942653588
$GNGGA,060025.50,3324.18470940,N,11915.22246035,W,2,12,0.9,6.750,M,-37.627,M,6.4,0135*62
$PYRTM,2024,122.250295243438,13.359942653588
$GNHDT,292.497,T*28
$PYRTM,2024,122.250301086701,13.359948496840
$GNGGA,060026.00,3324.18517020,N,11915.22368517,W,2,12,0.9,6.803,M,-37.627,M,7.0,0135*6F
$PYRTM,2024,122.250301086701,13.359948496840
$GNHDT,292.613,T*26
$PYRTM,2024,122.250306814792,13.359954224942
$GNGGA,060026.50,3324.18562542,N,11915.22488774,W,2,12,0.9,6.922,M,-37.627,M,7.4,0135*61
$PYRTM,2024,122.250306814792,13.359954224942
$GNHDT,292.748,T*29
$PYRTM,2024,122.250312655208,13.359960065347
$GNGGA,060027.00,3324.18605528,N,11915.22610696,W,2,12,0.9,7.050,M,-37.627,M,7.0,0135*6C
$PYRTM,2024,122.250312655208,13.359960065347
$GNHDT,292.956,T*28
$PYRTM,2024,122.250318386736,13.359965796875
$GNGGA,060027.50,3324.18647341,N,11915.22735500,W,2,12,0.9,7.116,M,-37.627,M,7.4,0135*6B
$PYRTM,2024,122.250318386736,13.359965796875
$GNHDT,293.012,T*20
$PYRTM,2024,122.250324235417,13.359971645556
$GNGGA,060028.00,3324.18689957,N,11915.22861684,W,2,12,0.9,7.095,M,-37.627,M,7.0,0135*61
$PYRTM,2024,122.250324235417,13.359971645556
$GNHDT,292.874,T*29
$PYRTM,2024,122.250329963125,13.359977373264
$GNGGA,060028.50,3324.18734590,N,11915.22989010,W,2,12,0.9,6.980,M,-37.627,M,7.4,0135*60
$PYRTM,2024,122.250329963125,13.359977373264
$GNHDT,292.984,T*27
$PYRTM,2024,122.250335808750,13.359983218900
$GNGGA,060029.00,3324.18780129,N,11915.23115933,W,2,12,0.9,6.812,M,-37.627,M,4.0,0135*64
$PYRTM,2024,122.250335808750,13.359983218900
$GNHDT,293.142,T*24
$PYRTM,2024,122.250341536146,13.359988946285
$GNGGA,060029.50,3324.18826493,N,11915.23241310,W,2,12,0.9,6.669,M,-37.627,M,4.4,0135*69
$PYRTM,2024,122.250341536146,13.359988946285
$GNHDT,293.169,T*2D
$PYRTM,2024,122.250347381817,13.359994791956
$GNGGA,060030.00,3324.18874522,N,11915.23365429,W,2,12,0.9,6.583,M,-37.627,M,5.0,0135*60
$PYRTM,2024,122.250347381817,13.359994791956
$GNHDT,293.166,T*22
$PYRTM,2024,122.250353111597,13.360000521736
$GNGGA,060030.50,3324.18922701,N,11915.23488868,W,2,12,0.9,6.582,M,-37.627,M,5.4,0135*6C
$PYRTM,2024,122.250353111597,13.360000521736
$GNHDT,292.883,T*21
$PYRTM,2024,122.250358958056,13.360006368194
$GNGGA,060031.00,3324.18968187,N,11915.23611332,W,2,12,0.9,6.717,M,-37.627,M,6.0,0135*61
$PYRTM,2024,122.250358958056,13.360006368194
$GNHDT,292.625,T*23
$PYRTM,2024,122.250364686481,13.360012096620
$GNGGA,060031.50,3324.19010486,N,11915.23733219,W,2,12,0.9,6.971,M,-37.627,M,6.4,0135*64
$PYRTM,2024,122.250364686481,13.360012096620
$GNHDT,292.823,T*2B
$PYRTM,2024,122.250370535532,13.360017945671
$GNGGA,060032.00,3324.19049861,N,11915.23854824,W,2,12,0.9,7.302,M,-37.627,M,7.0,0135*6B
$PYRTM,2024,122.250370535532,13.360017945671
$GNHDT,292.710,T*24
$PYRTM,2024,122.250376261898,13.360023672037
$GNGGA,060032.50,3324.19090319,N,11915.23975793,W,2,12,0.9,7.626,M,-37.627,M,7.4,0135*68
$PYRTM,2024,122.250376261898,13.360023672037
$GNHDT,292.775,T*27
$PYRTM,2024,122.250382101817,13.360029511968
$GNGGA,060033.00,3324.19134064,N,11915.24095848,W,2,12,0.9,7.870,M,-37.627,M,7.0,0135*6A
$PYRTM,2024,122.250382101817,13.360029511968
$GNHDT,292.913,T*29
$PYRTM,2024,122.250387832222,13.360035242361
$GNGGA,060033.50,3324.19181885,N,11915.24216648,W,2,12,0.9,7.968,M,-37.627,M,7.4,0135*6D
$PYRTM,2024,122.250387832222,13.360035242361
$GNHDT,292.776,T*24
$PYRTM,2024,122.250393675382,13.360041085521
$GNGGA,060034.00,3324.19233324,N,11915.24340760,W,2,12,0.9,7.820,M,-37.627,M,7.0,0135*65
$PYRTM,2024,122.250393675382,13.360041085521
$GNHDT,292.914,T*2E
$PYRTM,2024,122.250399407512,13.360046817650
$GNGGA,060034.50,3324.19284876,N,11915.24468867,W,2,12,0.9,7.496,M,-37.627,M,7.4,0135*60
$PYRTM,2024,122.250399407512,13.360046817650
$GNHDT,292.880,T*22
$PYRTM,2024,122.250405250799,13.360052660937
$GNGGA,060035.00,3324.19335025,N,11915.24599259,W,2,12,0.9,7.082,M,-37.627,M,4.0,0135*6F
$PYRTM,2024,122.250405250799,13.360052660937
$GNHDT,292.772,T*20
$PYRTM,2024,122.250410981979,13.360058392118
$GNGGA,060035.50,3324.19381804,N,11915.24728405,W,2,12,0.9,6.771,M,-37.627,M,4.4,0135*67
$PYRTM,2024,122.250410981979,13.360058392118
$GNHDT,292.631,T*26
$PYRTM,2024,122.250416822419,13.360064232558
$GNGGA,060036.00,3324.19424884,N,11915.24855155,W,2,12,0.9,6.652,M,-37.627,M,5.0,0135*61
$PYRTM,2024,122.250416822419,13.360064232558
$GNHDT,292.577,T*27
$PYRTM,2024,122.250422557986,13.360069968125
$GNGGA,060036.50,3324.19466546,N,11915.24980931,W,2,12,0.9,6.732,M,-37.627,M,5.4,0135*61
$PYRTM,2024,122.250422557986,13.360069968125
$GNHDT,292.710,T*24
$PYRTM,2024,122.250428402789,13.360075812928
$GNGGA,060037.00,3324.19510065,N,11915.25107415,W,2,12,0.9,6.904,M,-37.627,M,6.0,0135*60
$PYRTM,2024,122.250428402789,13.360075812928
$GNHDT,292.943,T*2C
$PYRTM,2024,122.250434132928,13.360081543079
$GNGGA,060037.50,3324.19557401,N,11915.25235869,W,2,12,0.9,7.037,M,-37.627,M,6.4,0135*69
$PYRTM,2024,122.250434132928,13.360081543079
$GNHDT,293.080,T*2B
$PYRTM,2024,122.250439971516,13.360087381667
$GNGGA,060038.00,3324.19607377,N,11915.25366025,W,2,12,0.9,7.104,M,-37.627,M,7.0,0135*60
$PYRTM,2024,122.250439971516,13.360087381667
$GNHDT,292.948,T*27
$PYRTM,2024,122.250445704167,13.360093114306
$GNGGA,060038.50,3324.19658549,N,11915.25496209,W,2,12,0.9,7.116,M,-37.627,M,7.4,0135*67
$PYRTM,2024,122.250445704167,13.360093114306
$GNHDT,292.848,T*26
$PYRTM,2024,122.250451543981,13.360098954120
$GNGGA,060039.00,3324.19709238,N,11915.25625832,W,2,12,0.9,7.068,M,-37.627,M,7.0,0135*63
$PYRTM,2024,122.250451543981,13.360098954120
$GNHDT,292.706,T*23
$PYRTM,2024,122.250457275544,13.360104685683
$GNGGA,060039.50,3324.19758229,N,11915.25755474,W,2,12,0.9,7.011,M,-37.627,M,7.4,0135*60
$PYRTM,2024,122.250457275544,13.360104685683
$GNHDT,292.655,T*24
$PYRTM,2024,122.250463120289,13.360110530428
$GNGGA,060040.00,3324.19803677,N,11915.25886666,W,2,12,0.9,6.956,M,-37.627,M,7.0,0135*6A
$PYRTM,2024,122.250463120289,13.360110530428
$GNHDT,292.355,T*21
$PYRTM,2024,122.250468848958,13.360116259097
$GNGGA,060040.50,3324.19845604,N,11915.26019158,W,2,12,0.9,6.936,M,-37.627,M,7.4,0135*6C
$PYRTM,2024,122.250468848958,13.360116259097
$GNHDT,292.344,T*21
$PYRTM,2024,122.250474693750,13.360122103889
$GNGGA,060041.00,3324.19885489,N,11915.26149060,W,2,12,0.9,6.974,M,-37.627,M,4.0,0135*6C
$PYRTM,2024,122.250474693750,13.360122103889
$GNHDT,292.081,T*2B
$PYRTM,2024,122.250480427616,13.360127837755
$GNGGA,060041.50,3324.19925720,N,11915.26275208,W,2,12,0.9,7.085,M,-37.627,M,4.4,0135*60
$PYRTM,2024,122.250480427616,13.360127837755
$GNHDT,292.250,T*25
$PYRTM,2024,122.250486270926,13.360133681065
$GNGGA,060042.00,3324.19967866,N,11915.26396592,W,2,12,0.9,7.239,M,-37.627,M,5.0,0135*65
$PYRTM,2024,122.250486270926,13.360133681065
$GNHDT,292.427,T*23
$PYRTM,2024,122.250492000451,13.360139410590
$GNGGA,060042.50,3324.20012856,N,11915.26515453,W,2,12,0.9,7.401,M,-37.627,M,5.4,0135*6A
$PYRTM,2024,122.250492000451,13.360139410590
$GNHDT,292.714,T*20
$PYRTM,2024,122.250497842766,13.360145252905
$GNGGA,060043.00,3324.20060609,N,11915.26634840,W,2,12,0.9,7.490,M,-37.627,M,6.0,0135*6E
$PYRTM,2024,122.250497842766,13.360145252905
$GNHDT,292.791,T*2D
$PYRTM,2024,122.250503571806,13.360150981944
$GNGGA,060043.50,3324.20109739,N,11915.26758904,W,2,12,0.9,7.475,M,-37.627,M,6.4,0135*62
$PYRTM,2024,122.250503571806,13.360150981944
$GNHDT,292.391,T*29
$PYRTM,2024,122.250509421331,13.360156831470
$GNGGA,060044.00,3324.20157527,N,11915.26885400,W,2,12,0.9,7.381,M,-37.627,M,7.0,0135*69
$PYRTM,2024,122.250509421331,13.360156831470
$GNHDT,292.279,T*2E
$PYRTM,2024,122.250515148287,13.360162558426
$GNGGA,060044.50,3324.20203112,N,11915.27011435,W,2,12,0.9,7.275,M,-37.627,M,7.4,0135*60
$PYRTM,2024,122.250515148287,13.360162558426
$GNHDT,292.588,T*27
$PYRTM,2024,122.250520996690,13.360168406829
$GNGGA,060045.00,3324.20247652,N,11915.27137247,W,2,12,0.9,7.157,M,-37.627,M,7.0,0135*66
$PYRTM,2024,122.250520996690,13.360168406829
$GNHDT,292.767,T*24
$PYRTM,2024,122.250526718634,13.360174128773
$GNGGA,060045.50,3324.20293820,N,11915.27265315,W,2,12,0.9,7.031,M,-37.627,M,7.4,0135*66
$PYRTM,2024,122.250526718634,13.360174128773
$GNHDT,292.920,T*29
$PYRTM,2024,122.250532568426,13.360179978565
$GNGGA,060046.00,3324.20341800,N,11915.27395736,W,2,12,0.9,6.892,M,-37.627,M,7.0,0135*63
$PYRTM,2024,122.250532568426,13.360179978565
$GNHDT,292.780,T*2D
$PYRTM,2024,122.250538298160,13.360185708310
$GNGGA,060046.50,3324.20391025,N,11915.27527960,W,2,12,0.9,6.785,M,-37.627,M,7.4,0135*6B
$PYRTM,2024,122.250538298160,13.360185708310
$GNHDT,292.929,T*20
$PYRTM,2024,122.250544138079,13.360191548218
$GNGGA,060047.00,3324.20438525,N,11915.27662131,W,2,12,0.9,6.747,M,-37.627,M,4.0,0135*69
$PYRTM,2024,122.250544138079,13.360191548218
$GNHDT,292.692,T*2F
$PYRTM,2024,122.250549871181,13.360197281319
$GNGGA,060047.50,3324.20483498,N,11915.27795178,W,2,12,0.9,6.813,M,-37.627,M,4.4,0135*65
$PYRTM,2024,122.250549871181,13.360197281319
$GNHDT,292.646,T*26
$PYRTM,2024,122.250555712986,13.360203123125
$GNGGA,060048.00,3324.20527590,N,11915.27926891,W,2,12,0.9,6.963,M,-37.627,M,5.0,0135*62
$PYRTM,2024,122.250555712986,13.360203123125
$GNHDT,292.722,T*25
$PYRTM,2024,122.250561443981,13.360208854120
$GNGGA,060048.50,3324.20573640,N,11915.28058778,W,2,12,0.9,7.095,M,-37.627,M,5.4,0135*6A
$PYRTM,2024,122.250561443981,13.360208854120
$GNHDT,292.453,T*20
$PYRTM,2024,122.250567289861,13.360214700000
$GNGGA,060049.00,3324.20622986,N,11915.28192638,W,2,12,0.9,7.153,M,-37.627,M,6.0,0135*62
$PYRTM,2024,122.250567289861,13.360214700000
$GNHDT,292.541,T*22
$PYRTM,2024,122.250573015359,13.360220425498
$GNGGA,060049.50,3324.20674536,N,11915.28326242,W,2,12,0.9,7.158,M,-37.627,M,6.4,0135*68
$PYRTM,2024,122.250573015359,13.360220425498
$GNHDT,292.713,T*27
$PYRTM,2024,122.250578864086,13.360226274225
$GNGGA,060050.00,3324.20725798,N,11915.28457228,W,2,12,0.9,7.139,M,-37.627,M,7.0,0135*69
$PYRTM,2024,122.250578864086,13.360226274225
$GNHDT,292.758,T*28
$PYRTM,2024,122.250584593229,13.360232003368
$GNGGA,060050.50,3324.20773466,N,11915.28584961,W,2,12,0.9,7.150,M,-37.627,M,7.4,0135*6F
$PYRTM,2024,122.250584593229,13.360232003368
$GNHDT,292.751,T*21
$PYRTM,2024,122.250590438113,13.360237848264
$GNGGA,060051.00,3324.20816763,N,11915.28709615,W,2,12,0.9,7.236,M,-37.627,M,7.0,0135*6D
$PYRTM,2024,122.250590438113,13.360237848264
$GNHDT,292.644,T*24
$PYRTM,2024,122.250596166308,13.360243576447
$GNGGA,060051.50,3324.20857738,N,11915.28833076,W,2,12,0.9,7.359,M,-37.627,M,7.4,0135*6A
$PYRTM,2024,122.250596166308,13.360243576447
$GNHDT,292.723,T*24
$PYRTM,2024,122.250602008345,13.360249418484
$GNGGA,060052.00,3324.20899058,N,11915.28957404,W,2,12,0.9,7.457,M,-37.627,M,7.0,0135*60
$PYRTM,2024,122.250602008345,13.360249418484
$GNHDT,292.590,T*2E
$PYRTM,2024,122.250607739410,13.360255149549
$GNGGA,060052.50,3324.20941634,N,11915.29085384,W,2,12,0.9,7.465,M,-37.627,M,7.4,0135*60
$PYRTM,2024,122.250607739410,13.360255149549
$GNHDT,292.410,T*27
$PYRTM,2024,122.250613586956,13.360260997095
$GNGGA,060053.00,3324.20986585,N,11915.29215269,W,2,12,0.9,7.322,M,-37.627,M,4.0,0135*6C
$PYRTM,2024,122.250613586956,13.360260997095
$GNHDT,292.397,T*2F
$PYRTM,2024,122.250619313032,13.360266723171
$GNGGA,060053.50,3324.21032851,N,11915.29345576,W,2,12,0.9,7.094,M,-37.627,M,4.4,0135*6D
$PYRTM,2024,122.250619313032,13.360266723171
$GNHDT,292.289,T*21
$PYRTM,2024,122.250625154826,13.360272564965
$GNGGA,060054.00,3324.21078994,N,11915.29472241,W,2,12,0.9,6.897,M,-37.627,M,5.0,0135*66
$PYRTM,2024,122.250625154826,13.360272564965
$GNHDT,292.207,T*27
$PYRTM,2024,122.250630890359,13.360278300498
$GNGGA,060054.50,3324.21123850,N,11915.29595655,W,2,12,0.9,6.828,M,-37.627,M,5.4,0135*6C
$PYRTM,2024,122.250630890359,13.360278300498
$GNHDT,292.149,T*2E
$PYRTM,2024,122.250636736088,13.360284146227
$GNGGA,060055.00,3324.21167933,N,11915.29719724,W,2,12,0.9,6.847,M,-37.627,M,6.0,0135*63
$PYRTM,2024,122.250636736088,13.360284146227
$GNHDT,292.226,T*24
$PYRTM,2024,122.250642460012,13.360289870150
$GNGGA,060055.50,3324.21213473,N,11915.29850072,W,2,12,0.9,6.839,M,-37.627,M,6.4,0135*64
$PYRTM,2024,122.250642460012,13.360289870150
$GNHDT,292.447,T*25
$PYRTM,2024,122.250648306748,13.360295716887
$GNGGA,060056.00,3324.21260653,N,11915.29989272,W,2,12,0.9,6.696,M,-37.627,M,7.0,0135*6F
$PYRTM,2024,122.250648306748,13.360295716887
$GNHDT,292.364,T*23
$PYRTM,2024,122.250654036111,13.360301446250
$GNGGA,060056.50,3324.21308177,N,11915.30130920,W,2,12,0.9,6.521,M,-37.627,M,7.4,0135*61
$PYRTM,2024,122.250654036111,13.360301446250
$GNHDT,292.222,T*20
$PYRTM,2024,122.250659884931,13.360307295069
$GNGGA,060057.00,3324.21354781,N,11915.30266097,W,2,12,0.9,6.517,M,-37.627,M,7.0,0135*67
$PYRTM,2024,122.250659884931,13.360307295069
$GNHDT,292.321,T*22
$PYRTM,2024,122.250665610081,13.360313020231
$GNGGA,060057.50,3324.21400308,N,11915.30392171,W,2,12,0.9,6.732,M,-37.627,M,7.4,0135*63
$PYRTM,2024,122.250665610081,13.360313020231
$GNHDT,292.509,T*2E
$PYRTM,2024,122.250671456019,13.360318866157
$GNGGA,060058.00,3324.21445450,N,11915.30512307,W,2,12,0.9,7.119,M,-37.627,M,7.0,0135*65
$PYRTM,2024,122.250671456019,13.360318866157
$GNHDT,292.672,T*21
$PYRTM,2024,122.250677185035,13.360324595174
$GNGGA,060058.50,3324.21492191,N,11915.30634717,W,2,12,0.9,7.516,M,-37.627,M,7.4,0135*6F
$PYRTM,2024,122.250677185035,13.360324595174
$GNHDT,292.494,T*2B
$PYRTM,2024,122.250683026609,13.360330436748
$GNGGA,060059.00,3324.21540101,N,11915.30766089,W,2,12,0.9,7.716,M,-37.627,M,4.0,0135*6F
$PYRTM,2024,122.250683026609,13.360330436748
$GNHDT,292.337,T*25
$PYRTM,2024,122.250688757303,13.360336167454
$GNGGA,060059.50,3324.21588411,N,11915.30902351,W,2,12,0.9,7.698,M,-37.627,M,4.4,0135*63
$PYRTM,2024,122.250688757303,13.360336167454
$GNHDT,292.206,T*26
$PYRTM,2024,122.250694609097,13.360342019236
$GNGGA,060100.00,3324.21634901,N,11915.31038452,W,2,12,0.9,7.529,M,-37.627,M,5.0,0135*6A
$PYRTM,2024,122.250694609097,13.360342019236
$GNHDT,292.112,T*20
$PYRTM,2024,122.250700331655,13.360347741794
$GNGGA,060100.50,3324.21678420,N,11915.31169300,W,2,12,0.9,7.329,M,-37.627,M,5.4,0135*6E
$PYRTM,2024,122.250700331655,13.360347741794
$GNHDT,292.251,T*24
$PYRTM,2024,122.250706176181,13.360353586319
$GNGGA,060101.00,3324.21720768,N,11915.31295460,W,2,12,0.9,7.197,M,-37.627,M,6.0,0135*68
$PYRTM,2024,122.250706176181,13.360353586319
$GNHDT,292.560,T*21
$PYRTM,2024,122.250711907222,13.360359317361
$GNGGA,060101.50,3324.21764668,N,11915.31418793,W,2,12,0.9,7.166,M,-37.627,M,6.4,0135*6A
$PYRTM,2024,122.250711907222,13.360359317361
$GNHDT,292.593,T*2D
$PYRTM,2024,122.250717748970,13.360365159109
$GNGGA,060102.00,3324.21810382,N,11915.31540161,W,2,12,0.9,7.234,M,-37.627,M,7.0,0135*67
$PYRTM,2024,122.250717748970,13.360365159109
$GNHDT,292.508,T*2F
$PYRTM,2024,122.250723482581,13.360370892720
$GNGGA,060102.50,3324.21857141,N,11915.31659111,W,2,12,0.9,7.359,M,-37.627,M,7.4,0135*6E
$PYRTM,2024,122.250723482581,13.360370892720
$GNHDT,292.513,T*25
$PYRTM,2024,122.250729333113,13.360376743252
$GNGGA,060103.00,3324.21905574,N,11915.31775998,W,2,12,0.9,7.484,M,-37.627,M,7.0,0135*6B
$PYRTM,2024,122.250729333113,13.360376743252
$GNHDT,292.712,T*26
$PYRTM,2024,122.250735055567,13.360382465706
$GNGGA,060103.50,3324.21954782,N,11915.31894328,W,2,12,0.9,7.545,M,-37.627,M,7.4,0135*68
$PYRTM,2024,122.250735055567,13.360382465706
$GNHDT,292.705,T*20
$PYRTM,2024,122.250740901701,13.360388311840
$GNGGA,060104.00,3324.22005129,N,11915.32018796,W,2,12,0.9,7.431,M,-37.627,M,7.0,0135*6B
$PYRTM,2024,122.250740901701,13.360388311840
$GNHDT,292.795,T*29
$PYRTM,2024,122.250746631366,13.360394041505
$GNGGA,060104.50,3324.22055927,N,11915.32152505,W,2,12,0.9,7.074,M,-37.627,M,7.4,0135*6B
$PYRTM,2024,122.250746631366,13.360394041505
$GNHDT,292.811,T*2A
$PYRTM,2024,122.250752470683,13.360399880822
$GNGGA,060105.00,3324.22104613,N,11915.32294194,W,2,12,0.9,6.503,M,-37.627,M,4.0,0135*64
$PYRTM,2024,122.250752470683,13.360399880822
$GNHDT,292.669,T*2B
$PYRTM,2024,122.250758205880,13.360405616019
$GNGGA,060105.50,3324.22147861,N,11915.32437320,W,2,12,0.9,5.976,M,-37.627,M,4.4,0135*66
$PYRTM,2024,122.250758205880,13.360405616019
$GNHDT,292.770,T*22
$PYRTM,2024,122.250764055301,13.360411465440
$GNGGA,060106.00,3324.22186068,N,11915.32575249,W,2,12,0.9,5.702,M,-37.627,M,5.0,0135*6D
$PYRTM,2024,122.250764055301,13.360411465440
$GNHDT,293.029,T*28
$PYRTM,2024,122.250769780208,13.360417190347
$GNGGA,060106.50,3324.22224845,N,11915.32704360,W,2,12,0.9,5.798,M,-37.627,M,5.4,0135*6D
$PYRTM,2024,122.250769780208,13.360417190347
$GNHDT,292.808,T*22
$PYRTM,2024,122.250775623808,13.360423033947
$GNGGA,060107.00,3324.22266458,N,11915.32828280,W,2,12,0.9,6.165,M,-37.627,M,6.0,0135*61
$PYRTM,2024,122.250775623808,13.360423033947
$GNHDT,292.821,T*29
$PYRTM,2024,122.250781362072,13.360428772211
$GNGGA,060107.50,3324.22313500,N,11915.32949182,W,2,12,0.9,6.695,M,-37.627,M,6.4,0135*60
$PYRTM,2024,122.250781362072,13.360428772211
$GNHDT,292.989,T*2A
$PYRTM,2024,122.250787203391,13.360434613530
$GNGGA,060108.00,3324.22365054,N,11915.33068686,W,2,12,0.9,7.282,M,-37.627,M,7.0,0135*61
$PYRTM,2024,122.250787203391,13.360434613530
$GNHDT,292.948,T*27
$PYRTM,2024,122.250792934259,13.360440344398
$GNGGA,060108.50,3324.22418969,N,11915.33188255,W,2,12,0.9,7.772,M,-37.627,M,7.4,0135*65
$PYRTM,2024,122.250792934259,13.360440344398
$GNHDT,292.875,T*28
$PYRTM,2024,122.250798773310,13.360446183449
$GNGGA,060109.00,3324.22473517,N,11915.33310610,W,2,12,0.9,8.050,M,-37.627,M,7.0,0135*63
$PYRTM,2024,122.250798773310,13.360446183449
$GNHDT,292.980,T*23
$PYRTM,2024,122.250804500278,13.360451910417
$GNGGA,060109.50,3324.22524558,N,11915.33439236,W,2,12,0.9,8.037,M,-37.627,M,7.4,0135*67
$PYRTM,2024,122.250804500278,13.360451910417
$GNHDT,292.895,T*26
$PYRTM,2024,122.250810348299,13.360457758437
$GNGGA,060110.00,3324.22571687,N,11915.33571011,W,2,12,0.9,7.832,M,-37.627,M,7.0,0135*67
$PYRTM,2024,122.250810348299,13.360457758437
$GNHDT,292.711,T*25
$PYRTM,2024,122.250816076933,13.360463487072
$GNGGA,060110.50,3324.22614055,N,11915.33702893,W,2,12,0.9,7.525,M,-37.627,M,7.4,0135*60
$PYRTM,2024,122.250816076933,13.360463487072
$GNHDT,292.591,T*2F
$PYRTM,2024,122.250821918912,13.360469329051
$GNGGA,060111.00,3324.22652415,N,11915.33831427,W,2,12,0.9,7.250,M,-37.627,M,4.0,0135*68
$PYRTM,2024,122.250821918912,13.360469329051
$GNHDT,292.663,T*21
$PYRTM,2024,122.250827650000,13.360475060139
$GNGGA,060111.50,3324.22688759,N,11915.33955660,W,2,12,0.9,7.119,M,-37.627,M,4.4,0135*69
$PYRTM,2024,122.250827650000,13.360475060139
$GNHDT,292.661,T*23
$PYRTM,2024,122.250833489931,13.360480900081
$GNGGA,060112.00,3324.22726937,N,11915.34076119,W,2,12,0.9,7.114,M,-37.627,M,5.0,0135*62
$PYRTM,2024,122.250833489931,13.360480900081
$GNHDT,292.466,T*26
$PYRTM,2024,122.250839225370,13.360486635521
$GNGGA,060112.50,3324.22770279,N,11915.34196276,W,2,12,0.9,7.148,M,-37.627,M,5.4,0135*6D
$PYRTM,2024,122.250839225370,13.360486635521
$GNHDT,292.573,T*23
$PYRTM,2024,122.250845067639,13.360492477778
$GNGGA,060113.00,3324.22819699,N,11915.34321283,W,2,12,0.9,7.104,M,-37.627,M,6.0,0135*68
$PYRTM,2024,122.250845067639,13.360492477778
$GNHDT,292.177,T*23
$PYRTM,2024,122.250850794769,13.360498204907
$GNGGA,060113.50,3324.22873113,N,11915.34455816,W,2,12,0.9,6.856,M,-37.627,M,6.4,0135*6D
$PYRTM,2024,122.250850794769,13.360498204907
$GNHDT,292.199,T*23
$PYRTM,2024,122.250856640000,13.360504050139
$GNGGA,060114.00,3324.22927466,N,11915.34596484,W,2,12,0.9,6.477,M,-37.627,M,7.0,0135*6B
$PYRTM,2024,122.250856640000,13.360504050139
$GNHDT,291.993,T*22
$PYRTM,2024,122.250862371863,13.360509782002
$GNGGA,060114.50,3324.22978435,N,11915.34733312,W,2,12,0.9,6.218,M,-37.627,M,7.4,0135*6C
$PYRTM,2024,122.250862371863,13.360509782002
$GNHDT,291.751,T*22
$PYRTM,2024,122.250868215336,13.360515625486
$GNGGA,060115.00,3324.23023684,N,11915.34856480,W,2,12,0.9,6.334,M,-37.627,M,7.0,0135*6D
$PYRTM,2024,122.250868215336,13.360515625486
$GNHDT,291.974,T*2B
$PYRTM,2024,122.250873945556,13.360521355694
$GNGGA,060115.50,3324.23066941,N,11915.34969721,W,2,12,0.9,6.766,M,-37.627,M,7.4,0135*6D
$PYRTM,2024,122.250873945556,13.360521355694
$GNHDT,292.059,T*2E
$PYRTM,2024,122.250879795637,13.360527205787
$GNGGA,060116.00,3324.23111366,N,11915.35081639,W,2,12,0.9,7.334,M,-37.627,M,7.0,0135*65
$PYRTM,2024,122.250879795637,13.360527205787
$GNHDT,292.584,T*2B
$PYRTM,2024,122.250885517153,13.360532927292
$GNGGA,060116.50,3324.23159229,N,11915.35203743,W,2,12,0.9,7.714,M,-37.627,M,7.4,0135*60
$PYRTM,2024,122.250885517153,13.360532927292
$GNHDT,292.734,T*22
$PYRTM,2024,122.250891369734,13.360538779884
$GNGGA,060117.00,3324.23208772,N,11915.35340115,W,2,12,0.9,7.710,M,-37.627,M,4.0,0135*68
$PYRTM,2024,122.250891369734,13.360538779884
$GNHDT,292.545,T*26
$PYRTM,2024,122.250897095498,13.360544505637
$GNGGA,060117.50,3324.23254252,N,11915.35481302,W,2,12,0.9,7.428,M,-37.627,M,4.4,0135*61
$PYRTM,2024,122.250897095498,13.360544505637
$GNHDT,292.160,T*25
$PYRTM,2024,122.250902941563,13.360550351701
$GNGGA,060118.00,3324.23294039,N,11915.35615465,W,2,12,0.9,7.144,M,-37.627,M,5.0,0135*6B
$PYRTM,2024,122.250902941563,13.360550351701
$GNHDT,292.271,T*26
$PYRTM,2024,122.250908671088,13.360556081227
$GNGGA,060118.50,3324.23330403,N,11915.35734020,W,2,12,0.9,7.099,M,-37.627,M,5.4,0135*6E
$PYRTM,2024,122.250908671088,13.360556081227
$GNHDT,292.451,T*22
$PYRTM,2024,122.250914507002,13.360561917141
$GNGGA,060119.00,3324.23367711,N,11915.35841099,W,2,12,0.9,7.284,M,-37.627,M,6.0,0135*6E
$PYRTM,2024,122.250914507002,13.360561917141
$GNHDT,292.542,T*21
$PYRTM,2024,122.250920242604,13.360567652743
$GNGGA,060119.50,3324.23410553,N,11915.35944562,W,2,12,0.9,7.565,M,-37.627,M,6.4,0135*61
$PYRTM,2024,122.250920242604,13.360567652743
$GNHDT,292.814,T*2F
$PYRTM,2024,122.250926088912,13.360573499051
$GNGGA,060120.00,3324.23461258,N,11915.36056120,W,2,12,0.9,7.701,M,-37.627,M,7.0,0135*6A
$PYRTM,2024,122.250926088912,13.360573499051
$GNHDT,292.735,T*23
$PYRTM,2024,122.250931813553,13.360579223692
$GNGGA,060120.50,3324.23517751,N,11915.36180488,W,2,12,0.9,7.498,M,-37.627,M,7.4,0135*69
$PYRTM,2024,122.250931813553,13.360579223692
$GNHDT,292.626,T*20
$PYRTM,2024,122.250937656806,13.360585066944
$GNGGA,060121.00,3324.23574139,N,11915.36313328,W,2,12,0.9,6.960,M,-37.627,M,7.0,0135*6A
$PYRTM,2024,122.250937656806,13.360585066944
$GNHDT,292.462,T*22
$PYRTM,2024,122.250943390197,13.360590800336
$GNGGA,060121.50,3324.23624796,N,11915.36447822,W,2,12,0.9,6.393,M,-37.627,M,7.4,0135*6F
$PYRTM,2024,122.250943390197,13.360590800336
$GNHDT,292.367,T*20
$PYRTM,2024,122.250949234398,13.360596644537
$GNGGA,060122.00,3324.23666586,N,11915.36578359,W,2,12,0.9,6.052,M,-37.627,M,7.0,0135*6C
$PYRTM,2024,122.250949234398,13.360596644537
$GNHDT,292.115,T*27
$PYRTM,2024,122.250954965324,13.360602375463
$GNGGA,060122.50,3324.23701265,N,11915.36701168,W,2,12,0.9,6.139,M,-37.627,M,7.4,0135*67
$PYRTM,2024,122.250954965324,13.360602375463
$GNHDT,292.232,T*21
$PYRTM,2024,122.250960809456,13.360608219595
$GNGGA,060123.00,3324.23733962,N,11915.36814715,W,2,12,0.9,6.609,M,-37.627,M,4.0,0135*6A
$PYRTM,2024,122.250960809456,13.360608219595
$GNHDT,292.298,T*21
$PYRTM,2024,122.250966549306,13.360613959444
$GNGGA,060123.50,3324.23768537,N,11915.36924957,W,2,12,0.9,7.220,M,-37.626,M,4.4,0135*6C
$PYRTM,2024,122.250966549306,13.360613959444
$GNHDT,292.108,T*2B
$PYRTM,2024,122.250972385706,13.360619795845
$GNGGA,060124.00,3324.23809648,N,11915.37036887,W,2,12,0.9,7.794,M,-37.626,M,5.0,0135*65
$PYRTM,2024,122.250972385706,13.360619795845
$GNHDT,291.920,T*2A
$PYRTM,2024,122.250978116817,13.360625526956
$GNGGA,060124.50,3324.23860117,N,11915.37157115,W,2,12,0.9,8.054,M,-37.626,M,5.4,0135*66
$PYRTM,2024,122.250978116817,13.360625526956
$GNHDT,291.900,T*28
$PYRTM,2024,122.250983954850,13.360631364988
$GNGGA,060125.00,3324.23915280,N,11915.37285685,W,2,12,0.9,7.872,M,-37.626,M,6.0,0135*6A
$PYRTM,2024,122.250983954850,13.360631364988
$GNHDT,291.827,T*2C
$PYRTM,2024,122.250989688310,13.360637098449
$GNGGA,060125.50,3324.23969960,N,11915.37416832,W,2,12,0.9,7.432,M,-37.626,M,6.4,0135*63
$PYRTM,2024,122.250989688310,13.360637098449
$GNHDT,291.353,T*24
$PYRTM,2024,122.250995531632,13.360642941771
$GNGGA,060126.00,3324.24019159,N,11915.37544156,W,2,12,0.9,6.922,M,-37.626,M,7.0,0135*6B
$PYRTM,2024,122.250995531632,13.360642941771
$GNHDT,291.149,T*2D
$PYRTM,2024,122.251001258148,13.360648668287
$GNGGA,060126.50,3324.24062690,N,11915.37666216,W,2,12,0.9,6.602,M,-37.626,M,7.4,0135*6D
$PYRTM,2024,122.251001258148,13.360648668287
$GNHDT,291.214,T*26
$PYRTM,2024,122.251007106123,13.360654516262
$GNGGA,060127.00,3324.24100955,N,11915.37783425,W,2,12,0.9,6.555,M,-37.626,M,7.0,0135*63
$PYRTM,2024,122.251007106123,13.360654516262
$GNHDT,291.456,T*26
$PYRTM,2024,122.251012837292,13.360660247442
$GNGGA,060127.50,3324.24137321,N,11915.37900464,W,2,12,0.9,6.726,M,-37.626,M,7.4,0135*69
$PYRTM,2024,122.251012837292,13.360660247442
$GNHDT,291.569,T*2B
$PYRTM,2024,122.251018677824,13.360666087975
$GNGGA,060128.00,3324.24174953,N,11915.38022803,W,2,12,0.9,6.958,M,-37.626,M,7.0,0135*63
$PYRTM,2024,122.251018677824,13.360666087975
$GNHDT,291.567,T*25
$PYRTM,2024,122.251024415671,13.360671825810
$GNGGA,060128.50,3324.24214054,N,11915.38151555,W,2,12,0.9,7.090,M,-37.626,M,7.4,0135*6E
$PYRTM,2024,122.251024415671,13.360671825810
$GNHDT,291.035,T*27
$PYRTM,2024,122.251030250810,13.360677660949
$GNGGA,060129.00,3324.24253939,N,11915.38282541,W,2,12,0.9,7.133,M,-37.626,M,4.0,0135*6C
$PYRTM,2024,122.251030250810,13.360677660949
$GNHDT,290.894,T*25
$PYRTM,2024,122.251035979572,13.360683389711
$GNGGA,060129.50,3324.24294718,N,11915.38412869,W,2,12,0.9,7.094,M,-37.626,M,4.4,0135*6F
$PYRTM,2024,122.251035979572,13.360683389711
$GNHDT,290.845,T*29
$PYRTM,2024,122.251041824086,13.360689234225
$GNGGA,060130.00,3324.24336844,N,11915.38540149,W,2,12,0.9,7.036,M,-37.626,M,5.0,0135*6D
$PYRTM,2024,122.251041824086,13.360689234225
$GNHDT,290.914,T*2C
$PYRTM,2024,122.251047558380,13.360694968519
$GNGGA,060130.50,3324.24380549,N,11915.38662349,W,2,12,0.9,7.005,M,-37.626,M,5.4,0135*60
$PYRTM,2024,122.251047558380,13.360694968519
$GNHDT,290.895,T*24
$PYRTM,2024,122.251053400428,13.360700810567
$GNGGA,060131.00,3324.24425627,N,11915.38780209,W,2,12,0.9,7.068,M,-37.626,M,6.0,0135*63
$PYRTM,2024,122.251053400428,13.360700810567
$GNHDT,290.827,T*2D
$PYRTM,2024,122.251059127454,13.360706537593
$GNGGA,060131.50,3324.24470610,N,11915.38896742,W,2,12,0.9,7.173,M,-37.626,M,6.4,0135*6F
$PYRTM,2024,122.251059127454,13.360706537593
$GNHDT,290.970,T*2E
$PYRTM,2024,122.251064975833,13.360712385972
$GNGGA,060132.00,3324.24514483,N,11915.39015019,W,2,12,0.9,7.269,M,-37.626,M,7.0,0135*64
$PYRTM,2024,122.251064975833,13.360712385972
$GNHDT,291.129,T*2B
$PYRTM,2024,122.251070702164,13.360718112303
$GNGGA,060132.50,3324.24557077,N,11915.39136618,W,2,12,0.9,7.311,M,-37.626,M,7.4,0135*64
$PYRTM,2024,122.251070702164,13.360718112303
$GNHDT,291.345,T*23
$PYRTM,2024,122.251076549838,13.360723959977
$GNGGA,060133.00,3324.24596925,N,11915.39260615,W,2,12,0.9,7.284,M,-37.626,M,7.0,0135*67
$PYRTM,2024,122.251076549838,13.360723959977
$GNHDT,291.337,T*26
$PYRTM,2024,122.251082280938,13.360729691076
$GNGGA,060133.50,3324.24633431,N,11915.39384202,W,2,12,0.9,7.270,M,-37.626,M,7.4,0135*60
$PYRTM,2024,122.251082280938,13.360729691076
$GNHDT,291.527,T*21
$PYRTM,2024,122.251088120741,13.360735530880
$GNGGA,060134.00,3324.24668124,N,11915.39506461,W,2,12,0.9,7.294,M,-37.626,M,7.0,0135*6C
$PYRTM,2024,122.251088120741,13.360735530880
$GNHDT,291.664,T*25
$PYRTM,2024,122.251093853310,13.360741263449
$GNGGA,060134.50,3324.24702982,N,11915.39628571,W,2,12,0.9,7.329,M,-37.626,M,7.4,0135*6C
$PYRTM,2024,122.251093853310,13.360741263449
$GNHDT,291.412,T*26
$PYRTM,2024,122.251099700729,13.360747110868
$GNGGA,060135.00,3324.24740496,N,11915.39754335,W,2,12,0.9,7.296,M,-37.626,M,4.0,0135*68
$PYRTM,2024,122.251099700729,13.360747110868
$GNHDT,291.178,T*2F
$PYRTM,2024,122.251105428461,13.360752838611
$GNGGA,060135.50,3324.24781369,N,11915.39886015,W,2,12,0.9,7.165,M,-37.626,M,4.4,0135*6D
$PYRTM,2024,122.251105428461,13.360752838611
$GNHDT,290.935,T*2F
$PYRTM,2024,122.251111269549,13.360758679699
$GNGGA,060136.00,3324.24826023,N,11915.40017863,W,2,12,0.9,6.992,M,-37.626,M,5.0,0135*67
$PYRTM,2024,122.251111269549,13.360758679699
$GNHDT,290.977,T*29
$PYRTM,2024,122.251117002199,13.360764412338
$GNGGA,060136.50,3324.24872612,N,11915.40144334,W,2,12,0.9,6.901,M,-37.626,M,5.4,0135*67
$PYRTM,2024,122.251117002199,13.360764412338
$GNHDT,291.218,T*2A
$PYRTM,2024,122.251122849942,13.360770260081
$GNGGA,060137.00,3324.24919558,N,11915.40262884,W,2,12,0.9,6.982,M,-37.626,M,6.0,0135*69
$PYRTM,2024,122.251122849942,13.360770260081
$GNHDT,291.515,T*20
$PYRTM,2024,122.251128572280,13.360775982419
$GNGGA,060137.50,3324.24964659,N,11915.40377185,W,2,12,0.9,7.225,M,-37.626,M,6.4,0135*6A
$PYRTM,2024,122.251128572280,13.360775982419
$GNHDT,291.915,T*2C
$PYRTM,2024,122.251134418854,13.360781828993
$GNGGA,060138.00,3324.25008632,N,11915.40492787,W,2,12,0.9,7.488,M,-37.626,M,7.0,0135*63
$PYRTM,2024,122.251134418854,13.360781828993
$GNHDT,292.179,T*2D
$PYRTM,2024,122.251140150000,13.360787560139
$GNGGA,060138.50,3324.25052930,N,11915.40619360,W,2,12,0.9,7.570,M,-37.626,M,7.4,0135*6A
$PYRTM,2024,122.251140150000,13.360787560139
$GNHDT,291.889,T*28
$PYRTM,2024,122.251145992373,13.360793402512
$GNGGA,060139.00,3324.25097482,N,11915.40758806,W,2,12,0.9,7.352,M,-37.626,M,7.0,0135*6E
$PYRTM,2024,122.251145992373,13.360793402512
$GNHDT,291.965,T*2B
$PYRTM,2024,122.251151723762,13.360799133900
$GNGGA,060139.50,3324.25139975,N,11915.40901715,W,2,12,0.9,6.993,M,-37.626,M,7.4,0135*66
$PYRTM,2024,122.251151723762,13.360799133900
$GNHDT,291.787,T*29
$PYRTM,2024,122.251157575255,13.360804985394
$GNGGA,060140.00,3324.25178038,N,11915.41039992,W,2,12,0.9,6.711,M,-37.626,M,7.0,0135*6A
$PYRTM,2024,122.251157575255,13.360804985394
$GNHDT,291.999,T*28
$PYRTM,2024,122.251163297350,13.360810707488
$GNGGA,060140.50,3324.25214122,N,11915.41162716,W,2,12,0.9,6.767,M,-37.626,M,7.4,0135*64
$PYRTM,2024,122.251163297350,13.360810707488
$GNHDT,292.288,T*20
$PYRTM,2024,122.251169139502,13.360816549641
$GNGGA,060141.00,3324.25251426,N,11915.41270434,W,2,12,0.9,7.156,M,-37.626,M,4.0,0135*61
$PYRTM,2024,122.251169139502,13.360816549641
$GNHDT,292.384,T*2D
$PYRTM,2024,122.251174880197,13.360822290336
$GNGGA,060141.50,3324.25293153,N,11915.41372175,W,2,12,0.9,7.659,M,-37.626,M,4.4,0135*62
$PYRTM,2024,122.251174880197,13.360822290336
$GNHDT,292.746,T*27
$PYRTM,2024,122.251180716343,13.360828126481
$GNGGA,060142.00,3324.25343261,N,11915.41477577,W,2,12,0.9,8.074,M,-37.626,M,5.0,0135*6D
$PYRTM,2024,122.251180716343,13.360828126481
$GNHDT,293.003,T*20
$PYRTM,2024,122.251186445370,13.360833855509
$GNGGA,060142.50,3324.25399725,N,11915.41597399,W,2,12,0.9,8.046,M,-37.626,M,5.4,0135*66
$PYRTM,2024,122.251186445370,13.360833855509
$GNHDT,293.141,T*27
$PYRTM,2024,122.251192290984,13.360839701123
$GNGGA,060143.00,3324.25456453,N,11915.41729428,W,2,12,0.9,7.590,M,-37.626,M,6.0,0135*68
$PYRTM,2024,122.251192290984,13.360839701123
$GNHDT,292.977,T*2B
$PYRTM,2024,122.251198018391,13.360845428530
$GNGGA,060143.50,3324.25507458,N,11915.41862924,W,2,12,0.9,6.939,M,-37.626,M,6.4,0135*68
$PYRTM,2024,122.251198018391,13.360845428530
$GNHDT,292.913,T*29
$PYRTM,2024,122.251203866725,13.360851276875
$GNGGA,060144.00,3324.25549772,N,11915.41991303,W,2,12,0.9,6.422,M,-37.626,M,7.0,0135*6B
$PYRTM,2024,122.251203866725,13.360851276875
$GNHDT,293.072,T*26
$PYRTM,2024,122.251209592674,13.360857002812
$GNGGA,060144.50,3324.25583153,N,11915.42112935,W,2,12,0.9,6.219,M,-37.626,M,7.4,0135*68
$PYRTM,2024,122.251209592674,13.360857002812
$GNHDT,293.255,T*21
$PYRTM,2024,122.251215440706,13.360862850845
$GNGGA,060145.00,3324.25612868,N,11915.42226667,W,2,12,0.9,6.437,M,-37.626,M,7.0,0135*64
$PYRTM,2024,122.251215440706,13.360862850845
$GNHDT,293.498,T*26
$PYRTM,2024,122.251221171296,13.360868581447
$GNGGA,060145.50,3324.25643241,N,11915.42336082,W,2,12,0.9,6.900,M,-37.626,M,7.4,0135*64
$PYRTM,2024,122.251221171296,13.360868581447
$GNHDT,293.474,T*24
$PYRTM,2024,122.251227011829,13.360874421968
$GNGGA,060146.00,3324.25678488,N,11915.42445409,W,2,12,0.9,7.397,M,-37.626,M,7.0,0135*6C
$PYRTM,2024,122.251227011829,13.360874421968
$GNHDT,293.461,T*20
$PYRTM,2024,122.251232746968,13.360880157106
$GNGGA,060146.50,3324.25721245,N,11915.42559653,W,2,12,0.9,7.718,M,-37.626,M,7.4,0135*65
$PYRTM,2024,122.251232746968,13.360880157106
$GNHDT,293.402,T*25
$PYRTM,2024,122.251238584711,13.360885994861
$GNGGA,060147.00,3324.25769038,N,11915.42681479,W,2,12,0.9,7.721,M,-37.626,M,4.0,0135*64
$PYRTM,2024,122.251238584711,13.360885994861
$GNHDT,293.333,T*20
$PYRTM,2024,122.251244314711,13.360891724850
$GNGGA,060147.50,3324.25818836,N,11915.42806421,W,2,12,0.9,7.465,M,-37.626,M,4.4,0135*65
$PYRTM,2024,122.251244314711,13.360891724850
$GNHDT,293.133,T*22
$PYRTM,2024,122.251250157373,13.360897567512
$GNGGA,060148.00,3324.25867735,N,11915.42930930,W,2,12,0.9,7.062,M,-37.626,M,5.0,0135*64
$PYRTM,2024,122.251250157373,13.360897567512
$GNHDT,293.085,T*2E
$PYRTM,2024,122.251255888218,13.360903298356
$GNGGA,060148.50,3324.25913527,N,11915.43054459,W,2,12,0.9,6.679,M,-37.626,M,5.4,0135*63
$PYRTM,2024,122.251255888218,13.360903298356
$GNHDT,293.105,T*27
$PYRTM,2024,122.251261733704,13.360909143843
$GNGGA,060149.00,3324.25954069,N,11915.43177263,W,2,12,0.9,6.449,M,-37.626,M,6.0,0135*62
$PYRTM,2024,122.251261733704,13.360909143843
$GNHDT,293.059,T*2F
$PYRTM,2024,122.251267461088,13.360914871227
$GNGGA,060149.50,3324.25990263,N,11915.43300330,W,2,12,0.9,6.435,M,-37.626,M,6.4,0135*6D
$PYRTM,2024,122.251267461088,13.360914871227
$GNHDT,292.823,T*2B
$PYRTM,2024,122.251273308750,13.360920718889
$GNGGA,060150.00,3324.26025185,N,11915.43422790,W,2,12,0.9,6.640,M,-37.626,M,7.0,0135*63
$PYRTM,2024,122.251273308750,13.360920718889
$GNHDT,292.649,T*29
$PYRTM,2024,122.251279046597,13.360926456736
$GNGGA,060150.50,3324.26062137,N,11915.43544706,W,2,12,0.9,6.955,M,-37.626,M,7.4,0135*6D
$PYRTM,2024,122.251279046597,13.360926456736
$GNHDT,292.453,T*20
$PYRTM,2024,122.251284884988,13.360932295382
$GNGGA,060151.00,3324.26102769,N,11915.43666983,W,2,12,0.9,7.274,M,-37.626,M,7.0,0135*6E
$PYRTM,2024,122.251284884988,13.360932295382
$GNHDT,292.582,T*2D
$PYRTM,2024,122.251290609873,13.360938020012
$GNGGA,060151.50,3324.26148514,N,11915.43788298,W,2,12,0.9,7.535,M,-37.626,M,7.4,0135*6B
$PYRTM,2024,122.251290609873,13.360938020012
$GNHDT,292.619,T*2C
$PYRTM,2024,122.251296455567,13.360943865706
$GNGGA,060152.00,3324.26198823,N,11915.43908967,W,2,12,0.9,7.709,M,-37.626,M,7.0,0135*6D
$PYRTM,2024,122.251296455567,13.360943865706
$GNHDT,292.728,T*2F
$PYRTM,2024,122.251302184919,13.360949595058
$GNGGA,060152.50,3324.26251053,N,11915.44030575,W,2,12,0.9,7.793,M,-37.626,M,7.4,0135*6C
$PYRTM,2024,122.251302184919,13.360949595058
$GNHDT,292.657,T*26
$PYRTM,2024,122.251308028785,13.360955438924
$GNGGA,060153.00,3324.26302477,N,11915.44153886,W,2,12,0.9,7.796,M,-37.626,M,4.0,0135*6A
$PYRTM,2024,122.251308028785,13.360955438924
$GNHDT,292.500,T*27
$PYRTM,2024,122.251313763669,13.360961173808
$GNGGA,060153.50,3324.26349868,N,11915.44278659,W,2,12,0.9,7.725,M,-37.626,M,4.4,0135*68
$PYRTM,2024,122.251313763669,13.360961173808
$GNHDT,292.268,T*2E
$PYRTM,2024,122.251319602662,13.360967012812
$GNGGA,060154.00,3324.26391879,N,11915.44405023,W,2,12,0.9,7.609,M,-37.626,M,5.0,0135*62
$PYRTM,2024,122.251319602662,13.360967012812
$GNHDT,292.196,T*2C
$PYRTM,2024,122.251325336238,13.360972746377
$GNGGA,060154.50,3324.26430267,N,11915.44533496,W,2,12,0.9,7.480,M,-37.626,M,5.4,0135*67
$PYRTM,2024,122.251325336238,13.360972746377
$GNHDT,292.156,T*20
$PYRTM,2024,122.251331180544,13.360978590683
$GNGGA,060155.00,3324.26467367,N,11915.44662500,W,2,12,0.9,7.348,M,-37.626,M,6.0,0135*6D
$PYRTM,2024,122.251331180544,13.360978590683
$GNHDT,292.231,T*22
$PYRTM,2024,122.251336910046,13.360984320185
$GNGGA,060155.50,3324.26507473,N,11915.44789534,W,2,12,0.9,7.240,M,-37.626,M,6.4,0135*63
$PYRTM,2024,122.251336910046,13.360984320185
$GNHDT,292.304,T*25
$PYRTM,2024,122.251342751794,13.360990161933
$GNGGA,060156.00,3324.26551886,N,11915.44912989,W,2,12,0.9,7.197,M,-37.626,M,7.0,0135*6A
$PYRTM,2024,122.251342751794,13.360990161933
$GNHDT,292.187,T*2C
$PYRTM,2024,122.251348485613,13.360995895752
$GNGGA,060156.50,3324.26600028,N,11915.45032597,W,2,12,0.9,7.244,M,-37.626,M,7.4,0135*64
$PYRTM,2024,122.251348485613,13.360995895752
$GNHDT,292.399,T*21
$PYRTM,2024,122.251354322130,13.361001732269
$GNGGA,060157.00,3324.26649047,N,11915.45151256,W,2,12,0.9,7.348,M,-37.626,M,7.0,0135*63
$PYRTM,2024,122.251354322130,13.361001732269
$GNHDT,292.470,T*21
$PYRTM,2024,122.251360054549,13.361007464687
$GNGGA,060157.50,3324.26697917,N,11915.45272611,W,2,12,0.9,7.427,M,-37.626,M,7.4,0135*66
$PYRTM,2024,122.251360054549,13.361007464687
$GNHDT,292.297,T*2E
$PYRTM,2024,122.251365899896,13.361013310035
$GNGGA,060158.00,3324.26745864,N,11915.45398777,W,2,12,0.9,7.414,M,-37.626,M,7.0,0135*67
$PYRTM,2024,122.251365899896,13.361013310035
$GNHDT,292.417,T*20
$PYRTM,2024,122.251371628021,13.361019038171
$GNGGA,060158.50,3324.26792331,N,11915.45530096,W,2,12,0.9,7.286,M,-37.626,M,7.4,0135*66
$PYRTM,2024,122.251371628021,13.361019038171
$GNHDT,292.540,T*23
$PYRTM,2024,122.251377479722,13.361024889861
$GNGGA,060159.00,3324.26836526,N,11915.45662928,W,2,12,0.9,7.087,M,-37.626,M,4.0,0135*6F
$PYRTM,2024,122.251377479722,13.361024889861
$GNHDT,292.696,T*2B
$PYRTM,2024,122.251383203264,13.361030613403
$GNGGA,060159.50,3324.26878878,N,11915.45795475,W,2,12,0.9,6.905,M,-37.626,M,4.4,0135*6C
$PYRTM,2024,122.251383203264,13.361030613403
$GNHDT,292.673,T*20
$PYRTM,2024,122.251389050150,13.361036460289
$GNGGA,060200.00,3324.26918367,N,11915.45926276,W,2,12,0.9,6.831,M,-37.626,M,5.0,0135*64
$PYRTM,2024,122.251389050150,13.361036460289
$GNHDT,292.448,T*2A
$PYRTM,2024,122.251394782002,13.361042192141
$GNGGA,060200.50,3324.26955272,N,11915.46051948,W,2,12,0.9,6.936,M,-37.626,M,5.4,0135*63
$PYRTM,2024,122.251394782002,13.361042192141
$GNHDT,292.377,T*21
$PYRTM,2024,122.251400621331,13.361048031470
$GNGGA,060201.00,3324.26989838,N,11915.46167096,W,2,12,0.9,7.287,M,-37.626,M,6.0,0135*6B
$PYRTM,2024,122.251400621331,13.361048031470
$GNHDT,292.448,T*2A
$PYRTM,2024,122.251406363472,13.361053773611
$GNGGA,060201.50,3324.27025841,N,11915.46274439,W,2,12,0.9,7.758,M,-37.626,M,6.4,0135*6D
$PYRTM,2024,122.251406363472,13.361053773611
$GNHDT,292.626,T*20
$PYRTM,2024,122.251412204583,13.361059614722
$GNGGA,060202.00,3324.27065664,N,11915.46378561,W,2,12,0.9,8.191,M,-37.626,M,7.0,0135*6E
$PYRTM,2024,122.251412204583,13.361059614722
$GNHDT,293.040,T*27
$PYRTM,2024,122.251417926250,13.361065336389
$GNGGA,060202.50,3324.27111346,N,11915.46491604,W,2,12,0.9,8.265,M,-37.626,M,7.4,0135*60
$PYRTM,2024,122.251417926250,13.361065336389
$GNHDT,293.414,T*22
$PYRTM,2024,122.251423775556,13.361071185694
$GNGGA,060203.00,3324.27161113,N,11915.46616419,W,2,12,0.9,7.881,M,-37.626,M,7.0,0135*69
$PYRTM,2024,122.251423775556,13.361071185694
$GNHDT,293.226,T*25
$PYRTM,2024,122.251429507778,13.361076917917
$GNGGA,060203.50,3324.27210530,N,11915.46749641,W,2,12,0.9,7.082,M,-37.626,M,7.4,0135*67
$PYRTM,2024,122.251429507778,13.361076917917
$GNHDT,292.967,T*2A
$PYRTM,2024,122.251435347535,13.361082757674
$GNGGA,060204.00,3324.27255654,N,11915.46885576,W,2,12,0.9,6.193,M,-37.626,M,7.0,0135*69
$PYRTM,2024,122.251435347535,13.361082757674
$GNHDT,293.016,T*24
$PYRTM,2024,122.251441073137,13.361088483287
$GNGGA,060204.50,3324.27294185,N,11915.47019711,W,2,12,0.9,5.505,M,-37.626,M,7.4,0135*69
$PYRTM,2024,122.251441073137,13.361088483287
$GNHDT,293.012,T*20
$PYRTM,2024,122.251446918785,13.361094328924
$GNGGA,060205.00,3324.27329120,N,11915.47146204,W,2,12,0.9,5.322,M,-37.626,M,4.0,0135*6B
$PYRTM,2024,122.251446918785,13.361094328924
$GNHDT,292.876,T*2B
$PYRTM,2024,122.251452650197,13.361100060336
$GNGGA,060205.50,3324.27365007,N,11915.47263616,W,2,12,0.9,5.725,M,-37.626,M,4.4,0135*66
$PYRTM,2024,122.251452650197,13.361100060336
$GNHDT,293.094,T*2E
$PYRTM,2024,122.251458499282,13.361105909421
$GNGGA,060206.00,3324.27405047,N,11915.47373843,W,2,12,0.9,6.436,M,-37.626,M,5.0,0135*6C
$PYRTM,2024,122.251458499282,13.361105909421
$GNHDT,292.857,T*28
$PYRTM,2024,122.251464236458,13.361111646597
$GNGGA,060206.50,3324.27447936,N,11915.47487653,W,2,12,0.9,7.268,M,-37.626,M,5.4,0135*6B
$PYRTM,2024,122.251464236458,13.361111646597
$GNHDT,292.698,T*25
$PYRTM,2024,122.251470072199,13.361117482338
$GNGGA,060207.00,3324.27497719,N,11915.47603809,W,2,12,0.9,7.954,M,-37.626,M,6.0,0135*6D
$PYRTM,2024,122.251470072199,13.361117482338
$GNHDT,292.636,T*21
$PYRTM,2024,122.251475798113,13.361123208252
$GNGGA,060207.50,3324.27551746,N,11915.47727632,W,2,12,0.9,8.318,M,-37.626,M,6.4,0135*61
$PYRTM,2024,122.251475798113,13.361123208252
$GNHDT,292.688,T*24
$PYRTM,2024,122.251481641887,13.361129052025
$GNGGA,060208.00,3324.27606415,N,11915.47858273,W,2,12,0.9,8.264,M,-37.626,M,7.0,0135*66
$PYRTM,2024,122.251481641887,13.361129052025
$GNHDT,292.612,T*27
$PYRTM,2024,122.251487376181,13.361134786319
$GNGGA,060208.50,3324.27658390,N,11915.47992314,W,2,12,0.9,7.915,M,-37.626,M,7.4,0135*63
$PYRTM,2024,122.251487376181,13.361134786319
$GNHDT,292.557,T*25
$PYRTM,2024,122.251493213519,13.361140623669
$GNGGA,060209.00,3324.27706284,N,11915.48123389,W,2,12,0.9,7.438,M,-37.626,M,7.0,0135*66
$PYRTM,2024,122.251493213519,13.361140623669
$GNHDT,292.578,T*28
$PYRTM,2024,122.251498945764,13.361146355903
$GNGGA,060209.50,3324.27748512,N,11915.48249590,W,2,12,0.9,7.095,M,-37.626,M,7.4,0135*67
$PYRTM,2024,122.251498945764,13.361146355903
$GNHDT,292.690,T*2D
$PYRTM,2024,122.251504792014,13.361152202153
$GNGGA,060210.00,3324.27783585,N,11915.48371023,W,2,12,0.9,6.994,M,-37.626,M,7.0,0135*69
$PYRTM,2024,122.251504792014,13.361152202153
$GNHDT,292.535,T*21
$PYRTM,2024,122.251510523472,13.361157933611
$GNGGA,060210.50,3324.27815900,N,11915.48488420,W,2,12,0.9,7.148,M,-37.626,M,7.4,0135*67
$PYRTM,2024,122.251510523472,13.361157933611
$GNHDT,292.509,T*2E
$PYRTM,2024,122.251516360810,13.361163770949
$GNGGA,060211.00,3324.27849001,N,11915.48605789,W,2,12,0.9,7.422,M,-37.626,M,4.0,0135*6B
$PYRTM,2024,122.251516360810,13.361163770949
$GNHDT,292.364,T*23
$PYRTM,2024,122.251522091528,13.361169501667
$GNGGA,060211.50,3324.27887222,N,11915.48726065,W,2,12,0.9,7.616,M,-37.626,M,4.4,0135*6B
$PYRTM,2024,122.251522091528,13.361169501667
$GNHDT,292.132,T*22
$PYRTM,2024,122.251527939479,13.361175349618
$GNGGA,060212.00,3324.27931062,N,11915.48849871,W,2,12,0.9,7.663,M,-37.626,M,5.0,0135*6B
$PYRTM,2024,122.251527939479,13.361175349618
$GNHDT,292.093,T*28
$PYRTM,2024,122.251533669028,13.361181079167
$GNGGA,060212.50,3324.27979616,N,11915.48976808,W,2,12,0.9,7.536,M,-37.626,M,5.4,0135*63
$PYRTM,2024,122.251533669028,13.361181079167
$GNHDT,291.749,T*2B
$PYRTM,2024,122.251539512662,13.361186922801
$GNGGA,060213.00,3324.28029779,N,11915.49104697,W,2,12,0.9,7.282,M,-37.626,M,6.0,0135*67
$PYRTM,2024,122.251539512662,13.361186922801
$GNHDT,291.696,T*28
$PYRTM,2024,122.251545238449,13.361192648588
$GNGGA,060213.50,3324.28078824,N,11915.49229806,W,2,12,0.9,7.022,M,-37.626,M,6.4,0135*67
$PYRTM,2024,122.251545238449,13.361192648588
$GNHDT,291.717,T*20
$PYRTM,2024,122.251551089803,13.361198499942
$GNGGA,060214.00,3324.28124050,N,11915.49352377,W,2,12,0.9,6.861,M,-37.626,M,7.0,0135*6D
$PYRTM,2024,122.251551089803,13.361198499942
$GNHDT,291.654,T*26
$PYRTM,2024,122.251556815081,13.361204225220
$GNGGA,060214.50,3324.28164658,N,11915.49474149,W,2,12,0.9,6.839,M,-37.626,M,7.4,0135*67
$PYRTM,2024,122.251556815081,13.361204225220
$GNHDT,291.705,T*23
$PYRTM,2024,122.251562658229,13.361210068368
$GNGGA,060215.00,3324.28201501,N,11915.49597202,W,2,12,0.9,6.929,M,-37.626,M,7.0,0135*68
$PYRTM,2024,122.251562658229,13.361210068368
$GNHDT,291.771,T*20
$PYRTM,2024,122.251568390185,13.361215800324
$GNGGA,060215.50,3324.28237578,N,11915.49720798,W,2,12,0.9,7.069,M,-37.626,M,7.4,0135*66
$PYRTM,2024,122.251568390185,13.361215800324
$GNHDT,291.925,T*2F
$PYRTM,2024,122.251574240336,13.361221650475
$GNGGA,060216.00,3324.28273365,N,11915.49844282,W,2,12,0.9,7.203,M,-37.626,M,7.0,0135*63
$PYRTM,2024,122.251574240336,13.361221650475
$GNHDT,292.039,T*28
$PYRTM,2024,122.251579965359,13.361227375498
$GNGGA,060216.50,3324.28309454,N,11915.49968011,W,2,12,0.9,7.303,M,-37.626,M,7.4,0135*6D
$PYRTM,2024,122.251579965359,13.361227375498
$GNHDT,291.925,T*2F
$PYRTM,2024,122.251585806192,13.361233216343
$GNGGA,060217.00,3324.28347726,N,11915.50093564,W,2,12,0.9,7.306,M,-37.626,M,4.0,0135*65
$PYRTM,2024,122.251585806192,13.361233216343
$GNHDT,292.033,T*22
$PYRTM,2024,122.251591537512,13.361238947662
$GNGGA,060217.50,3324.28391664,N,11915.50222242,W,2,12,0.9,7.124,M,-37.626,M,4.4,0135*61
$PYRTM,2024,122.251591537512,13.361238947662
$GNHDT,292.428,T*2C
$PYRTM,2024,122.251597384306,13.361244794444
$GNGGA,060218.00,3324.28440482,N,11915.50354513,W,2,12,0.9,6.812,M,-37.626,M,5.0,0135*61
$PYRTM,2024,122.251597384306,13.361244794444
$GNHDT,292.310,T*20
$PYRTM,2024,122.251603110451,13.361250520602
$GNGGA,060218.50,3324.28491122,N,11915.50486648,W,2,12,0.9,6.516,M,-37.626,M,5.4,0135*6F
$PYRTM,2024,122.251603110451,13.361250520602
$GNHDT,292.269,T*2F
$PYRTM,2024,122.251608956447,13.361256366586
$GNGGA,060219.00,3324.28539620,N,11915.50616718,W,2,12,0.9,6.369,M,-37.626,M,6.0,0135*6B
$PYRTM,2024,122.251608956447,13.361256366586
$GNHDT,292.325,T*26
$PYRTM,2024,122.251614686609,13.361262096748
$GNGGA,060219.50,3324.28582563,N,11915.50743671,W,2,12,0.9,6.473,M,-37.626,M,6.4,0135*6D
$PYRTM,2024,122.251614686609,13.361262096748
$GNHDT,292.276,T*21
$PYRTM,2024,122.251620532743,13.361267942882
$GNGGA,060220.00,3324.28619558,N,11915.50866744,W,2,12,0.9,6.827,M,-37.626,M,7.0,0135*6C
$PYRTM,2024,122.251620532743,13.361267942882
$GNHDT,292.599,T*27
$PYRTM,2024,122.251626267847,13.361273677986
$GNGGA,060220.50,3324.28654992,N,11915.50987146,W,2,12,0.9,7.310,M,-37.626,M,7.4,0135*6A
$PYRTM,2024,122.251626267847,13.361273677986
$GNHDT,292.548,T*2B
$PYRTM,2024,122.251632104421,13.361279514560
$GNGGA,060221.00,3324.28691695,N,11915.51106741,W,2,12,0.9,7.818,M,-37.626,M,7.0,0135*69
$PYRTM,2024,122.251632104421,13.361279514560
$GNHDT,292.679,T*2A
$PYRTM,2024,122.251637832025,13.361285242164
$GNGGA,060221.50,3324.28732546,N,11915.51228985,W,2,12,0.9,8.142,M,-37.626,M,7.4,0135*6D
$PYRTM,2024,122.251637832025,13.361285242164
$GNHDT,292.627,T*21
$PYRTM,2024,122.251643679850,13.361291090000
$GNGGA,060222.00,3324.28777638,N,11915.51357270,W,2,12,0.9,8.133,M,-37.626,M,7.0,0135*6A
$PYRTM,2024,122.251643679850,13.361291090000
$GNHDT,292.693,T*2E
$PYRTM,2024,122.251649411586,13.361296821725
$GNGGA,060222.50,3324.28824719,N,11915.51489431,W,2,12,0.9,7.843,M,-37.626,M,7.4,0135*66
$PYRTM,2024,122.251649411586,13.361296821725
$GNHDT,292.467,T*27
$PYRTM,2024,122.251655255093,13.361302665231
$GNGGA,060223.00,3324.28872296,N,11915.51616300,W,2,12,0.9,7.446,M,-37.626,M,4.0,0135*6C
$PYRTM,2024,122.251655255093,13.361302665231
$GNHDT,292.591,T*2F
$PYRTM,2024,122.251660981736,13.361308391875
$GNGGA,060223.50,3324.28918137,N,11915.51736084,W,2,12,0.9,7.139,M,-37.626,M,4.4,0135*69
$PYRTM,2024,122.251660981736,13.361308391875
$GNHDT,292.983,T*20
$PYRTM,2024,122.251666826470,13.361314236609
$GNGGA,060224.00,3324.28961351,N,11915.51849570,W,2,12,0.9,7.027,M,-37.626,M,5.0,0135*65
$PYRTM,2024,122.251666826470,13.361314236609
$GNHDT,293.307,T*27
$PYRTM,2024,122.251672557639,13.361319967778
$GNGGA,060224.50,3324.29002795,N,11915.51963649,W,2,12,0.9,7.081,M,-37.626,M,5.4,0135*69
$PYRTM,2024,122.251672557639,13.361319967778
$GNHDT,293.300,T*20
$PYRTM,2024,122.251678401852,13.361325811991
$GNGGA,060225.00,3324.29043685,N,11915.52084569,W,2,12,0.9,7.164,M,-37.626,M,6.0,0135*67
$PYRTM,2024,122.251678401852,13.361325811991
$GNHDT,293.123,T*23
$PYRTM,2024,122.251684129965,13.361331540104
$GNGGA,060225.50,3324.29085651,N,11915.52214546,W,2,12,0.9,7.133,M,-37.626,M,6.4,0135*61
$PYRTM,2024,122.251684129965,13.361331540104
$GNHDT,292.901,T*2A
$PYRTM,2024,122.251689983310,13.361337393449
$GNGGA,060226.00,3324.29127832,N,11915.52351528,W,2,12,0.9,6.939,M,-37.626,M,7.0,0135*6B
$PYRTM,2024,122.251689983310,13.361337393449
$GNHDT,292.574,T*24
$PYRTM,2024,122.251695705822,13.361343115961
$GNGGA,060226.50,3324.29170401,N,11915.52490966,W,2,12,0.9,6.678,M,-37.626,M,7.4,0135*62
$PYRTM,2024,122.251695705822,13.361343115961
$GNHDT,292.890,T*23
$PYRTM,2024,122.251701547384,13.361348957523
$GNGGA,060227.00,3324.29213833,N,11915.52626532,W,2,12,0.9,6.508,M,-37.626,M,7.0,0135*6F
$PYRTM,2024,122.251701547384,13.361348957523
$GNHDT,293.000,T*23
$PYRTM,2024,122.251707276852,13.361354687002
$GNGGA,060227.50,3324.29258257,N,11915.52750031,W,2,12,0.9,6.613,M,-37.626,M,7.4,0135*66
$PYRTM,2024,122.251707276852,13.361354687002
$GNHDT,292.871,T*2C
$PYRTM,2024,122.251713123993,13.361360534132
$GNGGA,060228.00,3324.29302783,N,11915.52864450,W,2,12,0.9,6.985,M,-37.626,M,7.0,0135*61
$PYRTM,2024,122.251713123993,13.361360534132
$GNHDT,293.080,T*2B
$PYRTM,2024,122.251718854803,13.361366264942
$GNGGA,060228.50,3324.29347819,N,11915.52974402,W,2,12,0.9,7.515,M,-37.626,M,7.4,0135*6E
$PYRTM,2024,122.251718854803,13.361366264942
$GNHDT,292.780,T*2D
$PYRTM,2024,122.251724694734,13.361372104873
