$PYRTM,2024,128.083333460799,19.192980870938
$GNGGA,020000.00,3304.92185813,N,11812.33097096,W,2,10,1.0,6.700,M,-37.312,M,4.0,0131*63
$PYRTM,2024,128.083333460799,19.192980870938
$GNHDT,113.689,T*2F
$PYRTM,2024,128.083339193646,19.192986603785
$GNGGA,020000.50,3304.92172160,N,11812.33052222,W,2,10,1.0,6.649,M,-37.312,M,4.4,0131*6F
$PYRTM,2024,128.083339193646,19.192986603785
$GNHDT,113.634,T*29
$PYRTM,2024,128.083345031782,19.192992441921
$GNGGA,020001.00,3304.92155168,N,11812.33008391,W,2,10,1.0,6.519,M,-37.312,M,5.0,0131*63
$PYRTM,2024,128.083345031782,19.192992441921
$GNHDT,113.576,T*2C
$PYRTM,2024,128.083350767326,19.192998177465
$GNGGA,020001.50,3304.92136975,N,11812.32965829,W,2,10,1.0,6.401,M,-37.312,M,5.4,0131*60
$PYRTM,2024,128.083350767326,19.192998177465
$GNHDT,113.793,T*25
$PYRTM,2024,128.083356606863,19.193004017002
$GNGGA,020002.00,3304.92118161,N,11812.32924614,W,2,10,1.0,6.277,M,-37.312,M,6.0,0131*62
$PYRTM,2024,128.083356606863,19.193004017002
$GNHDT,113.753,T*29
$PYRTM,2024,128.083362341829,19.193009751979
$GNGGA,020002.50,3304.92100294,N,11812.32884777,W,2,10,1.0,6.185,M,-37.312,M,6.4,0131*62
$PYRTM,2024,128.083362341829,19.193009751979
$GNHDT,113.554,T*2C
$PYRTM,2024,128.083368181065,19.193015591204
$GNGGA,020003.00,3304.92083478,N,11812.32846117,W,2,10,1.0,6.144,M,-37.312,M,7.0,0131*6E
$PYRTM,2024,128.083368181065,19.193015591204
$GNHDT,113.482,T*26
$PYRTM,2024,128.083373917257,19.193021327396
$GNGGA,020003.50,3304.92068634,N,11812.32807526,W,2,10,1.0,6.167,M,-37.312,M,7.4,0131*62
$PYRTM,2024,128.083373917257,19.193021327396
$GNHDT,113.448,T*20
$PYRTM,2024,128.083379757106,19.193027167245
$GNGGA,020004.00,3304.92055253,N,11812.32767675,W,2,10,1.0,6.228,M,-37.312,M,7.0,0131*6B
$PYRTM,2024,128.083379757106,19.193027167245
$GNHDT,113.392,T*20
$PYRTM,2024,128.083385489803,19.193032899954
$GNGGA,020004.50,3304.92043249,N,11812.32725865,W,2,10,1.0,6.321,M,-37.312,M,7.4,0131*67
$PYRTM,2024,128.083385489803,19.193032899954
$GNHDT,113.372,T*2E
$PYRTM,2024,128.083391329595,19.193038739734
$GNGGA,020005.00,3304.92031424,N,11812.32681508,W,2,10,1.0,6.449,M,-37.312,M,7.0,0131*6F
$PYRTM,2024,128.083391329595,19.193038739734
$GNHDT,113.333,T*2B
$PYRTM,2024,128.083397063993,19.193044474132
$GNGGA,020005.50,3304.92019293,N,11812.32635983,W,2,10,1.0,6.579,M,-37.312,M,7.4,0131*6C
$PYRTM,2024,128.083397063993,19.193044474132
$GNHDT,113.607,T*29
$PYRTM,2024,128.083402902373,19.193050312512
$GNGGA,020006.00,3304.92005371,N,11812.32589889,W,2,10,1.0,6.744,M,-37.312,M,4.0,0131*6E
$PYRTM,2024,128.083402902373,19.193050312512
$GNHDT,113.613,T*2C
$PYRTM,2024,128.083408637894,19.193056048032
$GNGGA,020006.50,3304.91989448,N,11812.32544683,W,2,10,1.0,6.908,M,-37.312,M,4.4,0131*6F
$PYRTM,2024,128.083408637894,19.193056048032
$GNHDT,114.030,T*2C
$PYRTM,2024,128.083414479051,19.193061889201
$GNGGA,020007.00,3304.91970792,N,11812.32500318,W,2,10,1.0,7.072,M,-37.312,M,5.0,0131*6E
$PYRTM,2024,128.083414479051,19.193061889201
$GNHDT,114.076,T*2E
$PYRTM,2024,128.083420212604,19.193067622755
$GNGGA,020007.50,3304.91951399,N,11812.32455614,W,2,10,1.0,7.241,M,-37.312,M,5.4,0131*69
$PYRTM,2024,128.083420212604,19.193067622755
$GNHDT,114.146,T*2C
$PYRTM,2024,128.083426052836,19.193073462975
$GNGGA,020008.00,3304.91932457,N,11812.32409015,W,2,10,1.0,7.362,M,-37.312,M,6.0,0131*6A
$PYRTM,2024,128.083426052836,19.193073462975
$GNHDT,113.894,T*2D
$PYRTM,2024,128.083431785799,19.193079195938
$GNGGA,020008.50,3304.91915141,N,11812.32359764,W,2,10,1.0,7.446,M,-37.312,M,6.4,0131*6E
$PYRTM,2024,128.083431785799,19.193079195938
$GNHDT,113.943,T*26
$PYRTM,2024,128.083437625116,19.193085035266
$GNGGA,020009.00,3304.91900777,N,11812.32308109,W,2,10,1.0,7.502,M,-37.312,M,7.0,0131*60
$PYRTM,2024,128.083437625116,19.193085035266
$GNHDT,113.835,T*26
$PYRTM,2024,128.083443361157,19.193090771308
$GNGGA,020009.50,3304.91890207,N,11812.32256860,W,2,10,1.0,7.488,M,-37.312,M,7.4,0131*64
$PYRTM,2024,128.083443361157,19.193090771308
$GNHDT,114.006,T*29
$PYRTM,2024,128.083449202743,19.193096612882
$GNGGA,020010.00,3304.91882581,N,11812.32207350,W,2,10,1.0,7.443,M,-37.312,M,7.0,0131*6C
$PYRTM,2024,128.083449202743,19.193096612882
$GNHDT,113.977,T*21
$PYRTM,2024,128.083454938588,19.193102348727
$GNGGA,020010.50,3304.91876125,N,11812.32160973,W,2,10,1.0,7.328,M,-37.312,M,7.4,0131*6F
$PYRTM,2024,128.083454938588,19.193102348727
$GNHDT,113.614,T*2B
$PYRTM,2024,128.083460775949,19.193108186088
$GNGGA,020011.00,3304.91869064,N,11812.32118695,W,2,10,1.0,7.147,M,-37.312,M,7.0,0131*66
$PYRTM,2024,128.083460775949,19.193108186088
$GNHDT,113.468,T*22
$PYRTM,2024,128.083466509942,19.193113920081
$GNGGA,020011.50,3304.91859564,N,11812.32080499,W,2,10,1.0,6.914,M,-37.312,M,7.4,0131*60
$PYRTM,2024,128.083466509942,19.193113920081
$GNHDT,113.407,T*2B
$PYRTM,2024,128.083472349537,19.193119759687
$GNGGA,020012.00,3304.91846936,N,11812.32045488,W,2,10,1.0,6.661,M,-37.312,M,4.0,0131*60
$PYRTM,2024,128.083472349537,19.193119759687
$GNHDT,113.484,T*20
$PYRTM,2024,128.083478082940,19.193125493079
$GNGGA,020012.50,3304.91831421,N,11812.32011467,W,2,10,1.0,6.414,M,-37.312,M,4.4,0131*6A
$PYRTM,2024,128.083478082940,19.193125493079
$GNHDT,113.509,T*24
$PYRTM,2024,128.083483926377,19.193131336516
$GNGGA,020013.00,3304.91814743,N,11812.31976304,W,2,10,1.0,6.241,M,-37.312,M,5.0,0131*64
$PYRTM,2024,128.083483926377,19.193131336516
$GNHDT,113.427,T*29
$PYRTM,2024,128.083489656053,19.193137066192
$GNGGA,020013.50,3304.91799340,N,11812.31939527,W,2,10,1.0,6.163,M,-37.312,M,5.4,0131*67
$PYRTM,2024,128.083489656053,19.193137066192
$GNHDT,113.631,T*2C
$PYRTM,2024,128.083495497014,19.193142907164
$GNGGA,020014.00,3304.91786777,N,11812.31900268,W,2,10,1.0,6.229,M,-37.312,M,6.0,0131*67
$PYRTM,2024,128.083495497014,19.193142907164
$GNHDT,113.845,T*21
$PYRTM,2024,128.083501235370,19.193148645509
$GNGGA,020014.50,3304.91776198,N,11812.31858836,W,2,10,1.0,6.408,M,-37.312,M,6.4,0131*66
$PYRTM,2024,128.083501235370,19.193148645509
$GNHDT,113.521,T*2E
$PYRTM,2024,128.083507076898,19.193154487037
$GNGGA,020015.00,3304.91766185,N,11812.31814305,W,2,10,1.0,6.645,M,-37.312,M,7.0,0131*62
$PYRTM,2024,128.083507076898,19.193154487037
$GNHDT,113.589,T*2C
$PYRTM,2024,128.083512805521,19.193160215660
$GNGGA,020015.50,3304.91755717,N,11812.31767783,W,2,10,1.0,6.861,M,-37.312,M,7.4,0131*67
$PYRTM,2024,128.083512805521,19.193160215660
$GNHDT,113.825,T*27
$PYRTM,2024,128.083518644410,19.193166054549
$GNGGA,020016.00,3304.91743769,N,11812.31719051,W,2,10,1.0,7.030,M,-37.312,M,7.0,0131*67
$PYRTM,2024,128.083518644410,19.193166054549
$GNHDT,113.762,T*2B
$PYRTM,2024,128.083524380903,19.193171791042
$GNGGA,020016.50,3304.91728714,N,11812.31668731,W,2,10,1.0,7.117,M,-37.312,M,7.4,0131*63
$PYRTM,2024,128.083524380903,19.193171791042
$GNHDT,113.671,T*28
$PYRTM,2024,128.083530219433,19.193177629572
$GNGGA,020017.00,3304.91710426,N,11812.31618117,W,2,10,1.0,7.090,M,-37.312,M,7.0,0131*61
$PYRTM,2024,128.083530219433,19.193177629572
$GNHDT,113.741,T*2A
$PYRTM,2024,128.083535952766,19.193183362905
$GNGGA,020017.50,3304.91689725,N,11812.31569206,W,2,10,1.0,6.993,M,-37.311,M,7.4,0131*6F
$PYRTM,2024,128.083535952766,19.193183362905
$GNHDT,113.881,T*29
$PYRTM,2024,128.083541795150,19.193189205289
$GNGGA,020018.00,3304.91667698,N,11812.31521501,W,2,10,1.0,6.841,M,-37.311,M,4.0,0131*67
$PYRTM,2024,128.083541795150,19.193189205289
$GNHDT,114.049,T*22
$PYRTM,2024,128.083547526238,19.193194936389
$GNGGA,020018.50,3304.91646702,N,11812.31475504,W,2,10,1.0,6.676,M,-37.311,M,4.4,0131*68
$PYRTM,2024,128.083547526238,19.193194936389
$GNHDT,113.849,T*2D
$PYRTM,2024,128.083553367512,19.193200777650
$GNGGA,020019.00,3304.91628107,N,11812.31430543,W,2,10,1.0,6.553,M,-37.311,M,5.0,0131*64
$PYRTM,2024,128.083553367512,19.193200777650
$GNHDT,113.751,T*2B
$PYRTM,2024,128.083559099977,19.193206510116
$GNGGA,020019.50,3304.91612896,N,11812.31386219,W,2,10,1.0,6.486,M,-37.311,M,5.4,0131*66
$PYRTM,2024,128.083559099977,19.193206510116
$GNHDT,113.500,T*2D
$PYRTM,2024,128.083564937257,19.193212347396
$GNGGA,020020.00,3304.91600737,N,11812.31342404,W,2,10,1.0,6.480,M,-37.311,M,6.0,0131*6D
$PYRTM,2024,128.083564937257,19.193212347396
$GNHDT,113.514,T*28
$PYRTM,2024,128.083570672847,19.193218082986
$GNGGA,020020.50,3304.91590557,N,11812.31299088,W,2,10,1.0,6.532,M,-37.311,M,6.4,0131*6D
$PYRTM,2024,128.083570672847,19.193218082986
$GNHDT,113.706,T*29
$PYRTM,2024,128.083576515058,19.193223925197
$GNGGA,020021.00,3304.91580556,N,11812.31256837,W,2,10,1.0,6.606,M,-37.311,M,7.0,0131*67
$PYRTM,2024,128.083576515058,19.193223925197
$GNHDT,113.724,T*29
$PYRTM,2024,128.083582247269,19.193229657407
$GNGGA,020021.50,3304.91569239,N,11812.31215429,W,2,10,1.0,6.687,M,-37.311,M,7.4,0131*62
$PYRTM,2024,128.083582247269,19.193229657407
$GNHDT,113.404,T*28
$PYRTM,2024,128.083588085498,19.193235495648
$GNGGA,020022.00,3304.91556051,N,11812.31174563,W,2,10,1.0,6.752,M,-37.311,M,7.0,0131*62
$PYRTM,2024,128.083588085498,19.193235495648
$GNHDT,113.335,T*2D
$PYRTM,2024,128.083593821331,19.193241231481
$GNGGA,020022.50,3304.91540658,N,11812.31134236,W,2,10,1.0,6.817,M,-37.311,M,7.4,0131*66
$PYRTM,2024,128.083593821331,19.193241231481
$GNHDT,113.424,T*2A
$PYRTM,2024,128.083599661956,19.193247072095
$GNGGA,020023.00,3304.91524267,N,11812.31094002,W,2,10,1.0,6.854,M,-37.311,M,7.0,0131*65
$PYRTM,2024,128.083599661956,19.193247072095
$GNHDT,113.456,T*2F
$PYRTM,2024,128.083605397095,19.193252807234
$GNGGA,020023.50,3304.91508175,N,11812.31053088,W,2,10,1.0,6.900,M,-37.311,M,7.4,0131*63
$PYRTM,2024,128.083605397095,19.193252807234
$GNHDT,113.688,T*2E
$PYRTM,2024,128.083611238785,19.193258648924
$GNGGA,020024.00,3304.91493485,N,11812.31012053,W,2,10,1.0,6.962,M,-37.311,M,4.0,0131*68
$PYRTM,2024,128.083611238785,19.193258648924
$GNHDT,113.694,T*23
$PYRTM,2024,128.083616971898,19.193264382049
$GNGGA,020024.50,3304.91480388,N,11812.30969800,W,2,10,1.0,7.036,M,-37.311,M,4.4,0131*62
$PYRTM,2024,128.083616971898,19.193264382049
$GNHDT,113.528,T*27
$PYRTM,2024,128.083622806979,19.193270217118
$GNGGA,020025.00,3304.91469447,N,11812.30926504,W,2,10,1.0,7.119,M,-37.311,M,5.0,0131*6E
$PYRTM,2024,128.083622806979,19.193270217118
$GNHDT,113.677,T*2E
$PYRTM,2024,128.083628543287,19.193275953426
$GNGGA,020025.50,3304.91460159,N,11812.30881603,W,2,10,1.0,7.184,M,-37.311,M,5.4,0131*60
$PYRTM,2024,128.083628543287,19.193275953426
$GNHDT,113.561,T*2A
$PYRTM,2024,128.083634384988,19.193281795127
$GNGGA,020026.00,3304.91451703,N,11812.30835771,W,2,10,1.0,7.214,M,-37.311,M,6.0,0131*6B
$PYRTM,2024,128.083634384988,19.193281795127
$GNHDT,113.496,T*23
$PYRTM,2024,128.083640118264,19.193287528403
$GNGGA,020026.50,3304.91442853,N,11812.30789992,W,2,10,1.0,7.184,M,-37.311,M,6.4,0131*63
$PYRTM,2024,128.083640118264,19.193287528403
$GNHDT,113.635,T*28
$PYRTM,2024,128.083645955764,19.193293365903
$GNGGA,020027.00,3304.91433041,N,11812.30745040,W,2,10,1.0,7.105,M,-37.311,M,7.0,0131*60
$PYRTM,2024,128.083645955764,19.193293365903
$GNHDT,113.662,T*2A
$PYRTM,2024,128.083651692176,19.193299102315
$GNGGA,020027.50,3304.91421314,N,11812.30701667,W,2,10,1.0,6.985,M,-37.311,M,7.4,0131*63
$PYRTM,2024,128.083651692176,19.193299102315
$GNHDT,113.604,T*2A
$PYRTM,2024,128.083657528900,19.193304939039
$GNGGA,020028.00,3304.91408183,N,11812.30659399,W,2,10,1.0,6.876,M,-37.311,M,7.0,0131*6F
$PYRTM,2024,128.083657528900,19.193304939039
$GNHDT,113.489,T*2D
$PYRTM,2024,128.083663268171,19.193310678310
$GNGGA,020028.50,3304.91393973,N,11812.30618309,W,2,10,1.0,6.766,M,-37.311,M,7.4,0131*6E
$PYRTM,2024,128.083663268171,19.193310678310
$GNHDT,113.597,T*23
$PYRTM,2024,128.083669103738,19.193316513877
$GNGGA,020029.00,3304.91379253,N,11812.30577334,W,2,10,1.0,6.685,M,-37.311,M,7.0,0131*6B
$PYRTM,2024,128.083669103738,19.193316513877
$GNHDT,113.546,T*2F
$PYRTM,2024,128.083674841019,19.193322251157
$GNGGA,020029.50,3304.91364955,N,11812.30535279,W,2,10,1.0,6.639,M,-37.311,M,7.4,0131*62
$PYRTM,2024,128.083674841019,19.193322251157
$GNHDT,113.549,T*20
$PYRTM,2024,128.083680677963,19.193328088102
$GNGGA,020030.00,3304.91351654,N,11812.30492375,W,2,10,1.0,6.613,M,-37.311,M,4.0,0131*69
$PYRTM,2024,128.083680677963,19.193328088102
$GNHDT,113.583,T*26
$PYRTM,2024,128.083686413935,19.193333824074
$GNGGA,020030.50,3304.91339312,N,11812.30449033,W,2,10,1.0,6.611,M,-37.311,M,4.4,0131*64
$PYRTM,2024,128.083686413935,19.193333824074
$GNHDT,113.685,T*23
$PYRTM,2024,128.083692253125,19.193339663264
$GNGGA,020031.00,3304.91326621,N,11812.30405785,W,2,10,1.0,6.599,M,-37.311,M,5.0,0131*6F
$PYRTM,2024,128.083692253125,19.193339663264
$GNHDT,113.822,T*20
$PYRTM,2024,128.083697986644,19.193345396782
$GNGGA,020031.50,3304.91313048,N,11812.30363090,W,2,10,1.0,6.553,M,-37.311,M,5.4,0131*63
$PYRTM,2024,128.083697986644,19.193345396782
$GNHDT,113.884,T*2C
$PYRTM,2024,128.083703824097,19.193351234236
$GNGGA,020032.00,3304.91298281,N,11812.30319958,W,2,10,1.0,6.501,M,-37.311,M,6.0,0131*60
$PYRTM,2024,128.083703824097,19.193351234236
$GNHDT,113.906,T*27
$PYRTM,2024,128.083709560683,19.193356970822
$GNGGA,020032.50,3304.91282593,N,11812.30276418,W,2,10,1.0,6.427,M,-37.311,M,6.4,0131*6A
$PYRTM,2024,128.083709560683,19.193356970822
$GNHDT,113.922,T*21
$PYRTM,2024,128.083715399178,19.193362809317
$GNGGA,020033.00,3304.91266426,N,11812.30232466,W,2,10,1.0,6.369,M,-37.311,M,7.0,0131*6A
$PYRTM,2024,128.083715399178,19.193362809317
$GNHDT,113.812,T*23
$PYRTM,2024,128.083721136817,19.193368546956
$GNGGA,020033.50,3304.91250294,N,11812.30189102,W,2,10,1.0,6.350,M,-37.311,M,7.4,0131*6F
$PYRTM,2024,128.083721136817,19.193368546956
$GNHDT,113.728,T*25
$PYRTM,2024,128.083726973021,19.193374383160
$GNGGA,020034.00,3304.91234192,N,11812.30146428,W,2,10,1.0,6.379,M,-37.311,M,7.0,0131*6B
$PYRTM,2024,128.083726973021,19.193374383160
$GNHDT,113.724,T*29
$PYRTM,2024,128.083732710231,19.193380120370
$GNGGA,020034.50,3304.91218568,N,11812.30104205,W,2,10,1.0,6.438,M,-37.311,M,7.4,0131*68
$PYRTM,2024,128.083732710231,19.193380120370
$GNHDT,113.790,T*26
$PYRTM,2024,128.083738545810,19.193385955949
$GNGGA,020035.00,3304.91202928,N,11812.30062037,W,2,10,1.0,6.495,M,-37.311,M,7.0,0131*6E
$PYRTM,2024,128.083738545810,19.193385955949
$GNHDT,113.922,T*21
$PYRTM,2024,128.083744288125,19.193391698264
$GNGGA,020035.50,3304.91187241,N,11812.30018998,W,2,10,1.0,6.544,M,-37.311,M,7.4,0131*69
$PYRTM,2024,128.083744288125,19.193391698264
$GNHDT,114.109,T*27
$PYRTM,2024,128.083750128912,19.193397539051
$GNGGA,020036.00,3304.91170991,N,11812.29974743,W,2,10,1.0,6.581,M,-37.311,M,4.0,0131*6C
$PYRTM,2024,128.083750128912,19.193397539051
$GNHDT,114.166,T*2E
$PYRTM,2024,128.083755858449,19.193403268600
$GNGGA,020036.50,3304.91154812,N,11812.29929891,W,2,10,1.0,6.606,M,-37.311,M,4.4,0131*65
$PYRTM,2024,128.083755858449,19.193403268600
$GNHDT,114.328,T*26
$PYRTM,2024,128.083761698333,19.193409108472
$GNGGA,020037.00,3304.91139306,N,11812.29884746,W,2,10,1.0,6.659,M,-37.311,M,5.0,0131*68
$PYRTM,2024,128.083761698333,19.193409108472
$GNHDT,114.231,T*2F
$PYRTM,2024,128.083767431840,19.193414841979
$GNGGA,020037.50,3304.91125016,N,11812.29839718,W,2,10,1.0,6.765,M,-37.311,M,5.4,0131*65
$PYRTM,2024,128.083767431840,19.193414841979
$GNHDT,114.051,T*2B
$PYRTM,2024,128.083773269167,19.193420679306
$GNGGA,020038.00,3304.91111823,N,11812.29795385,W,2,10,1.0,6.895,M,-37.311,M,6.0,0131*68
$PYRTM,2024,128.083773269167,19.193420679306
$GNHDT,113.896,T*2F
$PYRTM,2024,128.083779005590,19.193426415729
$GNGGA,020038.50,3304.91099663,N,11812.29751314,W,2,10,1.0,7.036,M,-37.311,M,6.4,0131*62
$PYRTM,2024,128.083779005590,19.193426415729
$GNHDT,114.002,T*2D
$PYRTM,2024,128.083784846377,19.193432256516
$GNGGA,020039.00,3304.91087229,N,11812.29707520,W,2,10,1.0,7.137,M,-37.311,M,7.0,0131*64
$PYRTM,2024,128.083784846377,19.193432256516
$GNHDT,114.135,T*28
$PYRTM,2024,128.083790579826,19.193437989977
$GNGGA,020039.50,3304.91074372,N,11812.29663860,W,2,10,1.0,7.159,M,-37.311,M,7.4,0131*64
$PYRTM,2024,128.083790579826,19.193437989977
$GNHDT,114.041,T*2A
$PYRTM,2024,128.083796416713,19.193443826863
$GNGGA,020040.00,3304.91060962,N,11812.29619678,W,2,10,1.0,7.108,M,-37.311,M,7.0,0131*6B
$PYRTM,2024,128.083796416713,19.193443826863
$GNHDT,114.031,T*2D
$PYRTM,2024,128.083802152836,19.193449562975
$GNGGA,020040.50,3304.91047519,N,11812.29575061,W,2,10,1.0,7.013,M,-37.311,M,7.4,0131*63
$PYRTM,2024,128.083802152836,19.193449562975
$GNHDT,113.908,T*29
$PYRTM,2024,128.083807993785,19.193455403924
$GNGGA,020041.00,3304.91034995,N,11812.29530089,W,2,10,1.0,6.900,M,-37.311,M,7.0,0131*62
$PYRTM,2024,128.083807993785,19.193455403924
$GNHDT,114.067,T*2E
$PYRTM,2024,128.083813728900,19.193461139039
$GNGGA,020041.50,3304.91023591,N,11812.29484244,W,2,10,1.0,6.830,M,-37.311,M,7.4,0131*62
$PYRTM,2024,128.083813728900,19.193461139039
$GNHDT,114.255,T*2D
$PYRTM,2024,128.083819567326,19.193466977465
$GNGGA,020042.00,3304.91012960,N,11812.29438558,W,2,10,1.0,6.791,M,-37.311,M,4.0,0131*6A
$PYRTM,2024,128.083819567326,19.193466977465
$GNHDT,114.422,T*2B
$PYRTM,2024,128.083825304769,19.193472714907
$GNGGA,020042.50,3304.91002247,N,11812.29394138,W,2,10,1.0,6.805,M,-37.311,M,4.4,0131*65
$PYRTM,2024,128.083825304769,19.193472714907
$GNHDT,114.343,T*2B
$PYRTM,2024,128.083831143981,19.193478554120
$GNGGA,020043.00,3304.90990054,N,11812.29351598,W,2,10,1.0,6.830,M,-37.311,M,5.0,0131*66
$PYRTM,2024,128.083831143981,19.193478554120
$GNHDT,114.434,T*2C
$PYRTM,2024,128.083836875521,19.193484285671
$GNGGA,020043.50,3304.90976175,N,11812.29310367,W,2,10,1.0,6.842,M,-37.311,M,5.4,0131*6B
$PYRTM,2024,128.083836875521,19.193484285671
$GNHDT,114.515,T*2E
$PYRTM,2024,128.083842713900,19.193490124039
$GNGGA,020044.00,3304.90960638,N,11812.29269364,W,2,10,1.0,6.809,M,-37.311,M,6.0,0131*64
$PYRTM,2024,128.083842713900,19.193490124039
$GNHDT,114.534,T*2D
$PYRTM,2024,128.083848451493,19.193495861632
$GNGGA,020044.50,3304.90945202,N,11812.29227597,W,2,10,1.0,6.746,M,-37.311,M,6.4,0131*6B
$PYRTM,2024,128.083848451493,19.193495861632
$GNHDT,114.459,T*27
$PYRTM,2024,128.083854291273,19.193501701412
$GNGGA,020045.00,3304.90930267,N,11812.29185293,W,2,10,1.0,6.647,M,-37.311,M,7.0,0131*63
$PYRTM,2024,128.083854291273,19.193501701412
$GNHDT,114.391,T*24
$PYRTM,2024,128.083860027500,19.193507437639
$GNGGA,020045.50,3304.90916820,N,11812.29142396,W,2,10,1.0,6.559,M,-37.311,M,7.4,0131*6C
$PYRTM,2024,128.083860027500,19.193507437639
$GNHDT,114.011,T*2F
$PYRTM,2024,128.083865861458,19.193513271597
$GNGGA,020046.00,3304.90905025,N,11812.29099324,W,2,10,1.0,6.493,M,-37.311,M,7.0,0131*68
$PYRTM,2024,128.083865861458,19.193513271597
$GNHDT,113.965,T*22
$PYRTM,2024,128.083871598079,19.193519008218
$GNGGA,020046.50,3304.90893719,N,11812.29056620,W,2,10,1.0,6.443,M,-37.311,M,7.4,0131*60
$PYRTM,2024,128.083871598079,19.193519008218
$GNHDT,114.088,T*2F
$PYRTM,2024,128.083877438704,19.193524848854
$GNGGA,020047.00,3304.90882015,N,11812.29014854,W,2,10,1.0,6.400,M,-37.311,M,7.0,0131*67
$PYRTM,2024,128.083877438704,19.193524848854
$GNHDT,113.962,T*25
$PYRTM,2024,128.083883174745,19.193530584884
$GNGGA,020047.50,3304.90867890,N,11812.28974122,W,2,10,1.0,6.356,M,-37.311,M,7.4,0131*6A
$PYRTM,2024,128.083883174745,19.193530584884
$GNHDT,114.267,T*2C
$PYRTM,2024,128.083889009444,19.193536419583
$GNGGA,020048.00,3304.90850186,N,11812.28934050,W,2,10,1.0,6.300,M,-37.311,M,4.0,0131*6E
$PYRTM,2024,128.083889009444,19.193536419583
$GNHDT,114.310,T*2D
$PYRTM,2024,128.083894747292,19.193542157442
$GNGGA,020048.50,3304.90830542,N,11812.28894241,W,2,10,1.0,6.261,M,-37.311,M,4.4,0131*6A
$PYRTM,2024,128.083894747292,19.193542157442
$GNHDT,114.377,T*2C
$PYRTM,2024,128.083900584780,19.193547994919
$GNGGA,020049.00,3304.90810004,N,11812.28853450,W,2,10,1.0,6.250,M,-37.311,M,5.0,0131*61
$PYRTM,2024,128.083900584780,19.193547994919
$GNHDT,114.519,T*22
$PYRTM,2024,128.083906321863,19.193553732002
$GNGGA,020049.50,3304.90791393,N,11812.28811036,W,2,10,1.0,6.325,M,-37.311,M,5.4,0131*6A
$PYRTM,2024,128.083906321863,19.193553732002
$GNHDT,114.295,T*21
$PYRTM,2024,128.083912158252,19.193559568391
$GNGGA,020050.00,3304.90775128,N,11812.28766963,W,2,10,1.0,6.471,M,-37.311,M,6.0,0131*68
$PYRTM,2024,128.083912158252,19.193559568391
$GNHDT,114.463,T*2E
$PYRTM,2024,128.083917894306,19.193565304444
$GNGGA,020050.50,3304.90761446,N,11812.28721335,W,2,10,1.0,6.663,M,-37.311,M,6.4,0131*6A
$PYRTM,2024,128.083917894306,19.193565304444
$GNHDT,114.450,T*2E
$PYRTM,2024,128.083923735475,19.193571145613
$GNGGA,020051.00,3304.90748372,N,11812.28673336,W,2,10,1.0,6.866,M,-37.311,M,7.0,0131*6E
$PYRTM,2024,128.083923735475,19.193571145613
$GNHDT,114.533,T*2A
$PYRTM,2024,128.083929471574,19.193576881713
$GNGGA,020051.50,3304.90735257,N,11812.28623775,W,2,10,1.0,6.998,M,-37.311,M,7.4,0131*65
$PYRTM,2024,128.083929471574,19.193576881713
$GNHDT,114.598,T*2B
$PYRTM,2024,128.083935308310,19.193582718449
$GNGGA,020052.00,3304.90720118,N,11812.28573427,W,2,10,1.0,7.029,M,-37.311,M,7.0,0131*6B
$PYRTM,2024,128.083935308310,19.193582718449
$GNHDT,114.613,T*2B
$PYRTM,2024,128.083941042616,19.193588452755
$GNGGA,020052.50,3304.90703461,N,11812.28523621,W,2,10,1.0,6.988,M,-37.311,M,7.4,0131*62
$PYRTM,2024,128.083941042616,19.193588452755
$GNHDT,114.287,T*22
$PYRTM,2024,128.083946881400,19.193594291551
$GNGGA,020053.00,3304.90685719,N,11812.28475789,W,2,10,1.0,6.906,M,-37.311,M,7.0,0131*66
$PYRTM,2024,128.083946881400,19.193594291551
$GNHDT,114.207,T*2A
$PYRTM,2024,128.083952616690,19.193600026829
$GNGGA,020053.50,3304.90668594,N,11812.28430528,W,2,10,1.0,6.826,M,-37.311,M,7.4,0131*68
$PYRTM,2024,128.083952616690,19.193600026829
$GNHDT,114.258,T*20
$PYRTM,2024,128.083958455289,19.193605865428
$GNGGA,020054.00,3304.90652960,N,11812.28387418,W,2,10,1.0,6.763,M,-37.311,M,4.0,0131*64
$PYRTM,2024,128.083958455289,19.193605865428
$GNHDT,114.309,T*25
$PYRTM,2024,128.083964191007,19.193611601146
$GNGGA,020054.50,3304.90639407,N,11812.28345888,W,2,10,1.0,6.758,M,-37.311,M,4.4,0131*67
$PYRTM,2024,128.083964191007,19.193611601146
$GNHDT,114.120,T*2C
$PYRTM,2024,128.083970029074,19.193617439213
$GNGGA,020055.00,3304.90627381,N,11812.28304527,W,2,10,1.0,6.783,M,-37.311,M,5.0,0131*6B
$PYRTM,2024,128.083970029074,19.193617439213
$GNHDT,114.036,T*2A
$PYRTM,2024,128.083975765498,19.193623175648
$GNGGA,020055.50,3304.90616529,N,11812.28262740,W,2,10,1.0,6.794,M,-37.311,M,5.4,0131*68
$PYRTM,2024,128.083975765498,19.193623175648
$GNHDT,114.210,T*2C
$PYRTM,2024,128.083981604965,19.193629015116
$GNGGA,020056.00,3304.90605920,N,11812.28220062,W,2,10,1.0,6.790,M,-37.311,M,6.0,0131*6B
$PYRTM,2024,128.083981604965,19.193629015116
$GNHDT,114.395,T*20
$PYRTM,2024,128.083987340058,19.193634750197
$GNGGA,020056.50,3304.90594547,N,11812.28176351,W,2,10,1.0,6.786,M,-37.311,M,6.4,0131*68
$PYRTM,2024,128.083987340058,19.193634750197
$GNHDT,114.086,T*21
$PYRTM,2024,128.083993175822,19.193640585961
$GNGGA,020057.00,3304.90581894,N,11812.28132698,W,2,10,1.0,6.765,M,-37.311,M,7.0,0131*63
$PYRTM,2024,128.083993175822,19.193640585961
$GNHDT,114.038,T*24
$PYRTM,2024,128.083998912940,19.193646323079
$GNGGA,020057.50,3304.90567910,N,11812.28089452,W,2,10,1.0,6.773,M,-37.311,M,7.4,0131*65
$PYRTM,2024,128.083998912940,19.193646323079
$GNHDT,114.099,T*2F
$PYRTM,2024,128.084004752905,19.193652163044
$GNGGA,020058.00,3304.90552921,N,11812.28046615,W,2,10,1.0,6.799,M,-37.311,M,7.0,0131*69
$PYRTM,2024,128.084004752905,19.193652163044
$GNHDT,114.093,T*25
$PYRTM,2024,128.084010487118,19.193657897257
$GNGGA,020058.50,3304.90537699,N,11812.28004067,W,2,10,1.0,6.844,M,-37.311,M,7.4,0131*6D
$PYRTM,2024,128.084010487118,19.193657897257
$GNHDT,114.057,T*2D
$PYRTM,2024,128.084016324479,19.193663734630
$GNGGA,020059.00,3304.90522581,N,11812.27961708,W,2,10,1.0,6.886,M,-37.311,M,7.0,0131*66
$PYRTM,2024,128.084016324479,19.193663734630
$GNHDT,114.004,T*2B
$PYRTM,2024,128.084022064144,19.193669474282
$GNGGA,020059.50,3304.90508224,N,11812.27919427,W,2,10,1.0,6.909,M,-37.311,M,7.4,0131*60
$PYRTM,2024,128.084022064144,19.193669474282
$GNHDT,114.081,T*26
$PYRTM,2024,128.084027900567,19.193675310706
$GNGGA,020100.00,3304.90494964,N,11812.27876597,W,2,10,1.0,6.911,M,-37.311,M,4.0,0131*6F
$PYRTM,2024,128.084027900567,19.193675310706
$GNHDT,114.200,T*2D
$PYRTM,2024,128.084033635486,19.193681045625
$GNGGA,020100.50,3304.90483020,N,11812.27833863,W,2,10,1.0,6.876,M,-37.311,M,4.4,0131*66
$PYRTM,2024,128.084033635486,19.193681045625
$GNHDT,114.101,T*2F
$PYRTM,2024,128.084039472604,19.193686882743
$GNGGA,020101.00,3304.90471424,N,11812.27790881,W,2,10,1.0,6.797,M,-37.311,M,5.0,0131*60
$PYRTM,2024,128.084039472604,19.193686882743
$GNHDT,114.041,T*2A
$PYRTM,2024,128.084045211690,19.193692621829
$GNGGA,020101.50,3304.90460449,N,11812.27748560,W,2,10,1.0,6.721,M,-37.311,M,5.4,0131*60
$PYRTM,2024,128.084045211690,19.193692621829
$GNHDT,113.799,T*2F
$PYRTM,2024,128.084051051759,19.193698461898
$GNGGA,020102.00,3304.90449499,N,11812.27706565,W,2,10,1.0,6.651,M,-37.311,M,6.0,0131*6E
$PYRTM,2024,128.084051051759,19.193698461898
$GNHDT,113.797,T*21
$PYRTM,2024,128.084056785127,19.193704195278
$GNGGA,020102.50,3304.90438210,N,11812.27666103,W,2,10,1.0,6.599,M,-37.311,M,6.4,0131*6A
$PYRTM,2024,128.084056785127,19.193704195278
$GNHDT,114.050,T*2A
$PYRTM,2024,128.084062621157,19.193710031296
$GNGGA,020103.00,3304.90425884,N,11812.27625671,W,2,10,1.0,6.573,M,-37.311,M,7.0,0131*61
$PYRTM,2024,128.084062621157,19.193710031296
$GNHDT,114.184,T*22
$PYRTM,2024,128.084068361238,19.193715771377
$GNGGA,020103.50,3304.90412127,N,11812.27584872,W,2,10,1.0,6.569,M,-37.311,M,7.4,0131*6A
$PYRTM,2024,128.084068361238,19.193715771377
$GNHDT,114.108,T*26
$PYRTM,2024,128.084074200475,19.193721610613
$GNGGA,020104.00,3304.90397036,N,11812.27543315,W,2,10,1.0,6.564,M,-37.311,M,7.0,0131*6B
$PYRTM,2024,128.084074200475,19.193721610613
$GNHDT,114.166,T*2E
$PYRTM,2024,128.084079937106,19.193727347245
$GNGGA,020104.50,3304.90381541,N,11812.27499804,W,2,10,1.0,6.600,M,-37.311,M,7.4,0131*64
$PYRTM,2024,128.084079937106,19.193727347245
$GNHDT,114.096,T*20
$PYRTM,2024,128.084085770046,19.193733180185
$GNGGA,020105.00,3304.90366394,N,11812.27454070,W,2,10,1.0,6.658,M,-37.311,M,7.0,0131*64
$PYRTM,2024,128.084085770046,19.193733180185
$GNHDT,114.111,T*2E
$PYRTM,2024,128.084091509213,19.193738919363
$GNGGA,020105.50,3304.90351193,N,11812.27406472,W,2,10,1.0,6.734,M,-37.311,M,7.4,0131*6E
$PYRTM,2024,128.084091509213,19.193738919363
$GNHDT,114.464,T*29
$PYRTM,2024,128.084097345648,19.193744755799
$GNGGA,020106.00,3304.90335808,N,11812.27357536,W,2,10,1.0,6.827,M,-37.311,M,4.0,0131*69
$PYRTM,2024,128.084097345648,19.193744755799
$GNHDT,114.548,T*26
$PYRTM,2024,128.084103078611,19.193750488750
$GNGGA,020106.50,3304.90320178,N,11812.27308138,W,2,10,1.0,6.906,M,-37.311,M,4.4,0131*60
$PYRTM,2024,128.084103078611,19.193750488750
$GNHDT,114.263,T*28
$PYRTM,2024,128.084108917708,19.193756327847
$GNGGA,020107.00,3304.90304039,N,11812.27258562,W,2,10,1.0,6.935,M,-37.311,M,5.0,0131*6C
$PYRTM,2024,128.084108917708,19.193756327847
$GNHDT,114.398,T*2D
$PYRTM,2024,128.084114656343,19.193762066481
$GNGGA,020107.50,3304.90286813,N,11812.27210117,W,2,10,1.0,6.937,M,-37.311,M,5.4,0131*6E
$PYRTM,2024,128.084114656343,19.193762066481
$GNHDT,114.154,T*2F
$PYRTM,2024,128.084120494051,19.193767904201
$GNGGA,020108.00,3304.90268868,N,11812.27162998,W,2,10,1.0,6.849,M,-37.311,M,6.0,0131*6E
$PYRTM,2024,128.084120494051,19.193767904201
$GNHDT,114.007,T*28
$PYRTM,2024,128.084126228738,19.193773638877
$GNGGA,020108.50,3304.90251164,N,11812.27116887,W,2,10,1.0,6.743,M,-37.311,M,6.4,0131*69
$PYRTM,2024,128.084126228738,19.193773638877
$GNHDT,114.126,T*2A
$PYRTM,2024,128.084132066343,19.193779476481
$GNGGA,020109.00,3304.90233800,N,11812.27072351,W,2,10,1.0,6.592,M,-37.311,M,7.0,0131*6A
$PYRTM,2024,128.084132066343,19.193779476481
$GNHDT,113.974,T*22
$PYRTM,2024,128.084137802164,19.193785212303
$GNGGA,020109.50,3304.90217665,N,11812.27028837,W,2,10,1.0,6.447,M,-37.311,M,7.4,0131*6D
$PYRTM,2024,128.084137802164,19.193785212303
$GNHDT,114.013,T*2D
$PYRTM,2024,128.084143638889,19.193791049028
$GNGGA,020110.00,3304.90202627,N,11812.26987130,W,2,10,1.0,6.326,M,-37.311,M,7.0,0131*65
$PYRTM,2024,128.084143638889,19.193791049028
$GNHDT,114.042,T*29
$PYRTM,2024,128.084149379178,19.193796789317
$GNGGA,020110.50,3304.90188228,N,11812.26947010,W,2,10,1.0,6.264,M,-37.311,M,7.4,0131*66
$PYRTM,2024,128.084149379178,19.193796789317
$GNHDT,113.944,T*21
$PYRTM,2024,128.084155215926,19.193802626065
$GNGGA,020111.00,3304.90173036,N,11812.26908270,W,2,10,1.0,6.262,M,-37.311,M,7.0,0131*66
$PYRTM,2024,128.084155215926,19.193802626065
$GNHDT,114.105,T*2B
$PYRTM,2024,128.084160952141,19.193808362292
$GNGGA,020111.50,3304.90157724,N,11812.26870178,W,2,10,1.0,6.301,M,-37.311,M,7.4,0131*64
$PYRTM,2024,128.084160952141,19.193808362292
$GNHDT,114.261,T*2A
$PYRTM,2024,128.084166787755,19.193814197894
$GNGGA,020112.00,3304.90142407,N,11812.26832308,W,2,10,1.0,6.404,M,-37.311,M,4.0,0131*62
$PYRTM,2024,128.084166787755,19.193814197894
$GNHDT,114.261,T*2A
$PYRTM,2024,128.084172530127,19.193819940266
$GNGGA,020112.50,3304.90127573,N,11812.26793712,W,2,10,1.0,6.546,M,-37.311,M,4.4,0131*6E
$PYRTM,2024,128.084172530127,19.193819940266
$GNHDT,114.630,T*2A
$PYRTM,2024,128.084178364433,19.193825774572
$GNGGA,020113.00,3304.90112893,N,11812.26753733,W,2,10,1.0,6.714,M,-37.311,M,5.0,0131*60
$PYRTM,2024,128.084178364433,19.193825774572
$GNHDT,114.603,T*2A
$PYRTM,2024,128.084184101898,19.193831512049
$GNGGA,020113.50,3304.90098614,N,11812.26711665,W,2,10,1.0,6.872,M,-37.311,M,5.4,0131*68
$PYRTM,2024,128.084184101898,19.193831512049
$GNHDT,114.562,T*2E
$PYRTM,2024,128.084189936215,19.193837346354
$GNGGA,020114.00,3304.90084764,N,11812.26667339,W,2,10,1.0,7.020,M,-37.311,M,6.0,0131*64
$PYRTM,2024,128.084189936215,19.193837346354
$GNHDT,114.537,T*2E
$PYRTM,2024,128.084195673657,19.193843083796
$GNGGA,020114.50,3304.90072243,N,11812.26620565,W,2,10,1.0,7.145,M,-37.311,M,6.4,0131*62
$PYRTM,2024,128.084195673657,19.193843083796
$GNHDT,114.172,T*2B
$PYRTM,2024,128.084201511690,19.193848921829
$GNGGA,020115.00,3304.90061084,N,11812.26572870,W,2,10,1.0,7.235,M,-37.311,M,7.0,0131*61
$PYRTM,2024,128.084201511690,19.193848921829
$GNHDT,114.060,T*29
$PYRTM,2024,128.084207247419,19.193854657569
$GNGGA,020115.50,3304.90050860,N,11812.26524997,W,2,10,1.0,7.301,M,-37.311,M,7.4,0131*6D
$PYRTM,2024,128.084207247419,19.193854657569
$GNHDT,113.992,T*2A
$PYRTM,2024,128.084213087049,19.193860497188
$GNGGA,020116.00,3304.90041295,N,11812.26477732,W,2,10,1.0,7.313,M,-37.311,M,7.0,0131*6A
$PYRTM,2024,128.084213087049,19.193860497188
$GNHDT,113.999,T*21
$PYRTM,2024,128.084218819699,19.193866229838
$GNGGA,020116.50,3304.90030997,N,11812.26431082,W,2,10,1.0,7.274,M,-37.311,M,7.4,0131*6A
$PYRTM,2024,128.084218819699,19.193866229838
$GNHDT,113.977,T*21
$PYRTM,2024,128.084224659271,19.193872069410
$GNGGA,020117.00,3304.90020064,N,11812.26385421,W,2,10,1.0,7.189,M,-37.311,M,7.0,0131*6A
$PYRTM,2024,128.084224659271,19.193872069410
$GNHDT,113.908,T*29
$PYRTM,2024,128.084230398657,19.193877808796
$GNGGA,020117.50,3304.90008424,N,11812.26341038,W,2,10,1.0,7.075,M,-37.311,M,7.4,0131*67
$PYRTM,2024,128.084230398657,19.193877808796
$GNHDT,113.816,T*27
$PYRTM,2024,128.084236231817,19.193883641956
$GNGGA,020118.00,3304.89996440,N,11812.26297360,W,2,10,1.0,6.959,M,-37.311,M,4.0,0131*6C
$PYRTM,2024,128.084236231817,19.193883641956
$GNHDT,113.805,T*25
$PYRTM,2024,128.084241969653,19.193889379792
$GNGGA,020118.50,3304.89984030,N,11812.26254481,W,2,10,1.0,6.850,M,-37.311,M,4.4,0131*62
$PYRTM,2024,128.084241969653,19.193889379792
$GNHDT,113.661,T*29
$PYRTM,2024,128.084247806852,19.193895216991
$GNGGA,020119.00,3304.89971848,N,11812.26211983,W,2,10,1.0,6.785,M,-37.311,M,5.0,0131*67
$PYRTM,2024,128.084247806852,19.193895216991
$GNHDT,113.799,T*2F
$PYRTM,2024,128.084253547141,19.193900957280
$GNGGA,020119.50,3304.89959664,N,11812.26170222,W,2,10,1.0,6.754,M,-37.311,M,5.4,0131*64
$PYRTM,2024,128.084253547141,19.193900957280
$GNHDT,113.670,T*29
$PYRTM,2024,128.084259379537,19.193906789676
$GNGGA,020120.00,3304.89947917,N,11812.26128773,W,2,10,1.0,6.744,M,-37.311,M,6.0,0131*65
$PYRTM,2024,128.084259379537,19.193906789676
$GNHDT,113.871,T*26
$PYRTM,2024,128.084265120463,19.193912530602
$GNGGA,020120.50,3304.89935726,N,11812.26087155,W,2,10,1.0,6.737,M,-37.311,M,6.4,0131*6F
$PYRTM,2024,128.084265120463,19.193912530602
$GNHDT,113.805,T*25
$PYRTM,2024,128.084270961910,19.193918372049
$GNGGA,020121.00,3304.89922473,N,11812.26045164,W,2,10,1.0,6.716,M,-37.311,M,7.0,0131*64
$PYRTM,2024,128.084270961910,19.193918372049
$GNHDT,113.786,T*21
$PYRTM,2024,128.084276693449,19.193924103588
$GNGGA,020121.50,3304.89907232,N,11812.26002740,W,2,10,1.0,6.663,M,-37.311,M,7.4,0131*61
$PYRTM,2024,128.084276693449,19.193924103588
$GNHDT,113.637,T*2A
$PYRTM,2024,128.084282529653,19.193929939803
$GNGGA,020122.00,3304.89889873,N,11812.25960000,W,2,10,1.0,6.589,M,-37.311,M,7.0,0131*61
$PYRTM,2024,128.084282529653,19.193929939803
$GNHDT,113.614,T*2B
$PYRTM,2024,128.084288265324,19.193935675463
$GNGGA,020122.50,3304.89870851,N,11812.25917488,W,2,10,1.0,6.502,M,-37.311,M,7.4,0131*61
$PYRTM,2024,128.084288265324,19.193935675463
$GNHDT,113.751,T*2B
$PYRTM,2024,128.084294104271,19.193941514410
$GNGGA,020123.00,3304.89851247,N,11812.25874343,W,2,10,1.0,6.414,M,-37.311,M,7.0,0131*6D
$PYRTM,2024,128.084294104271,19.193941514410
$GNHDT,113.813,T*22
$PYRTM,2024,128.084299843588,19.193947253727
$GNGGA,020123.50,3304.89832342,N,11812.25830813,W,2,10,1.0,6.362,M,-37.311,M,7.4,0131*65
$PYRTM,2024,128.084299843588,19.193947253727
$GNHDT,113.638,T*25
$PYRTM,2024,128.084305676192,19.193953086331
$GNGGA,020124.00,3304.89814834,N,11812.25786343,W,2,10,1.0,6.375,M,-37.311,M,4.0,0131*64
$PYRTM,2024,128.084305676192,19.193953086331
$GNHDT,113.587,T*22
$PYRTM,2024,128.084311414792,19.193958824942
$GNGGA,020124.50,3304.89799354,N,11812.25741249,W,2,10,1.0,6.440,M,-37.311,M,4.4,0131*63
$PYRTM,2024,128.084311414792,19.193958824942
$GNHDT,113.707,T*28
$PYRTM,2024,128.084317253981,19.193964664120
$GNGGA,020125.00,3304.89784921,N,11812.25695830,W,2,10,1.0,6.540,M,-37.311,M,5.0,0131*6B
$PYRTM,2024,128.084317253981,19.193964664120
$GNHDT,113.618,T*27
$PYRTM,2024,128.084322989988,19.193970400139
$GNGGA,020125.50,3304.89771091,N,11812.25650281,W,2,10,1.0,6.638,M,-37.311,M,5.4,0131*67
$PYRTM,2024,128.084322989988,19.193970400139
$GNHDT,113.638,T*25
$PYRTM,2024,128.084328824028,19.193976234178
$GNGGA,020126.00,3304.89756439,N,11812.25604855,W,2,10,1.0,6.725,M,-37.311,M,6.0,0131*6A
$PYRTM,2024,128.084328824028,19.193976234178
$GNHDT,113.525,T*2A
$PYRTM,2024,128.084334560694,19.193981970845
$GNGGA,020126.50,3304.89740497,N,11812.25559855,W,2,10,1.0,6.769,M,-37.311,M,6.4,0131*6B
$PYRTM,2024,128.084334560694,19.193981970845
$GNHDT,113.794,T*22
$PYRTM,2024,128.084340398750,19.193987808889
$GNGGA,020127.00,3304.89723261,N,11812.25514930,W,2,10,1.0,6.766,M,-37.311,M,7.0,0131*64
$PYRTM,2024,128.084340398750,19.193987808889
$GNHDT,113.802,T*22
$PYRTM,2024,128.084346136690,19.193993546829
$GNGGA,020127.50,3304.89706030,N,11812.25470498,W,2,10,1.0,6.722,M,-37.311,M,7.4,0131*68
$PYRTM,2024,128.084346136690,19.193993546829
$GNHDT,113.906,T*27
$PYRTM,2024,128.084351972292,19.193999382431
$GNGGA,020128.00,3304.89689547,N,11812.25426551,W,2,10,1.0,6.660,M,-37.311,M,7.0,0131*65
$PYRTM,2024,128.084351972292,19.193999382431
$GNHDT,113.880,T*28
$PYRTM,2024,128.084357711076,19.194005121227
$GNGGA,020128.50,3304.89675088,N,11812.25383381,W,2,10,1.0,6.625,M,-37.311,M,7.4,0131*63
$PYRTM,2024,128.084357711076,19.194005121227
$GNHDT,113.397,T*25
$PYRTM,2024,128.084363547419,19.194010957558
$GNGGA,020129.00,3304.89662874,N,11812.25340664,W,2,10,1.0,6.625,M,-37.311,M,7.0,0131*6F
$PYRTM,2024,128.084363547419,19.194010957558
$GNHDT,113.336,T*2E
$PYRTM,2024,128.084369284120,19.194016694259
$GNGGA,020129.50,3304.89652821,N,11812.25298317,W,2,10,1.0,6.679,M,-37.311,M,7.4,0131*61
$PYRTM,2024,128.084369284120,19.194016694259
$GNHDT,113.084,T*24
$PYRTM,2024,128.084375120162,19.194022530301
$GNGGA,020130.00,3304.89644143,N,11812.25255838,W,2,10,1.0,6.767,M,-37.311,M,4.0,0131*68
$PYRTM,2024,128.084375120162,19.194022530301
$GNHDT,113.065,T*2B
$PYRTM,2024,128.084380859722,19.194028269861
$GNGGA,020130.50,3304.89635256,N,11812.25213676,W,2,10,1.0,6.849,M,-37.311,M,4.4,0131*6D
$PYRTM,2024,128.084380859722,19.194028269861
$GNHDT,113.193,T*23
$PYRTM,2024,128.084386694688,19.194034104826
$GNGGA,020131.00,3304.89624618,N,11812.25172351,W,2,10,1.0,6.871,M,-37.311,M,5.0,0131*6D
$PYRTM,2024,128.084386694688,19.194034104826
$GNHDT,113.308,T*23
$PYRTM,2024,128.084392430243,19.194039840382
$GNGGA,020131.50,3304.89611415,N,11812.25131633,W,2,10,1.0,6.849,M,-37.311,M,5.4,0131*68
$PYRTM,2024,128.084392430243,19.194039840382
$GNHDT,113.734,T*28
$PYRTM,2024,128.084398267477,19.194045677616
$GNGGA,020132.00,3304.89596250,N,11812.25092087,W,2,10,1.0,6.766,M,-37.311,M,6.0,0131*61
$PYRTM,2024,128.084398267477,19.194045677616
$GNHDT,113.917,T*27
$PYRTM,2024,128.084404006655,19.194051416794
$GNGGA,020132.50,3304.89580983,N,11812.25052506,W,2,10,1.0,6.678,M,-37.311,M,6.4,0131*6C
$PYRTM,2024,128.084404006655,19.194051416794
$GNHDT,113.309,T*22
$PYRTM,2024,128.084409848090,19.194057258229
$GNGGA,020133.00,3304.89567379,N,11812.25012020,W,2,10,1.0,6.610,M,-37.311,M,7.0,0131*60
$PYRTM,2024,128.084409848090,19.194057258229
$GNHDT,113.246,T*28
$PYRTM,2024,128.084415581331,19.194062991470
$GNGGA,020133.50,3304.89556648,N,11812.24969731,W,2,10,1.0,6.596,M,-37.311,M,7.4,0131*6A
$PYRTM,2024,128.084415581331,19.194062991470
$GNHDT,113.387,T*24
$PYRTM,2024,128.084421418206,19.194068828345
$GNGGA,020134.00,3304.89548563,N,11812.24925539,W,2,10,1.0,6.634,M,-37.311,M,7.0,0131*60
$PYRTM,2024,128.084421418206,19.194068828345
$GNHDT,113.400,T*2C
$PYRTM,2024,128.084427154329,19.194074564468
$GNGGA,020134.50,3304.89541220,N,11812.24880118,W,2,10,1.0,6.691,M,-37.311,M,7.4,0131*6E
$PYRTM,2024,128.084427154329,19.194074564468
$GNHDT,113.213,T*28
$PYRTM,2024,128.084432992187,19.194080402326
$GNGGA,020135.00,3304.89532620,N,11812.24833944,W,2,10,1.0,6.738,M,-37.311,M,7.0,0131*65
$PYRTM,2024,128.084432992187,19.194080402326
$GNHDT,113.202,T*28
$PYRTM,2024,128.084438731169,19.194086141308
$GNGGA,020135.50,3304.89520703,N,11812.24788145,W,2,10,1.0,6.759,M,-37.311,M,7.4,0131*66
$PYRTM,2024,128.084438731169,19.194086141308
$GNHDT,113.392,T*20
$PYRTM,2024,128.084444562315,19.194091972465
$GNGGA,020136.00,3304.89505208,N,11812.24742686,W,2,10,1.0,6.743,M,-37.311,M,4.0,0131*6B
$PYRTM,2024,128.084444562315,19.194091972465
$GNHDT,113.427,T*29
$PYRTM,2024,128.084450303403,19.194097713542
$GNGGA,020136.50,3304.89487258,N,11812.24698143,W,2,10,1.0,6.703,M,-37.311,M,4.4,0131*68
$PYRTM,2024,128.084450303403,19.194097713542
$GNHDT,113.604,T*2A
$PYRTM,2024,128.084456139815,19.194103549954
$GNGGA,020137.00,3304.89468291,N,11812.24654160,W,2,10,1.0,6.637,M,-37.311,M,5.0,0131*6A
$PYRTM,2024,128.084456139815,19.194103549954
$GNHDT,113.559,T*21
$PYRTM,2024,128.084461877847,19.194109287986
$GNGGA,020137.50,3304.89450152,N,11812.24609978,W,2,10,1.0,6.583,M,-37.310,M,5.4,0131*68
$PYRTM,2024,128.084461877847,19.194109287986
$GNHDT,113.555,T*2D
$PYRTM,2024,128.084467713171,19.194115123322
$GNGGA,020138.00,3304.89433726,N,11812.24564671,W,2,10,1.0,6.557,M,-37.310,M,6.0,0131*62
$PYRTM,2024,128.084467713171,19.194115123322
$GNHDT,113.539,T*27
$PYRTM,2024,128.084473453461,19.194120863611
$GNGGA,020138.50,3304.89419732,N,11812.24518535,W,2,10,1.0,6.546,M,-37.310,M,6.4,0131*66
$PYRTM,2024,128.084473453461,19.194120863611
$GNHDT,113.568,T*23
$PYRTM,2024,128.084479288565,19.194126698715
$GNGGA,020139.00,3304.89407272,N,11812.24471315,W,2,10,1.0,6.561,M,-37.310,M,7.0,0131*66
$PYRTM,2024,128.084479288565,19.194126698715
$GNHDT,113.410,T*2D
$PYRTM,2024,128.084485025046,19.194132435185
$GNGGA,020139.50,3304.89396302,N,11812.24424054,W,2,10,1.0,6.548,M,-37.310,M,7.4,0131*63
$PYRTM,2024,128.084485025046,19.194132435185
$GNHDT,113.230,T*29
$PYRTM,2024,128.084490864699,19.194138274838
$GNGGA,020140.00,3304.89384628,N,11812.24377149,W,2,10,1.0,6.518,M,-37.310,M,7.0,0131*6B
$PYRTM,2024,128.084490864699,19.194138274838
$GNHDT,113.158,T*24
$PYRTM,2024,128.084496599826,19.194144009965
$GNGGA,020140.50,3304.89371157,N,11812.24331698,W,2,10,1.0,6.435,M,-37.310,M,7.4,0131*68
$PYRTM,2024,128.084496599826,19.194144009965
$GNHDT,113.126,T*2D
$PYRTM,2024,128.084502436019,19.194149846157
$GNGGA,020141.00,3304.89355011,N,11812.24288819,W,2,10,1.0,6.308,M,-37.310,M,7.0,0131*60
$PYRTM,2024,128.084502436019,19.194149846157
$GNHDT,113.125,T*2E
$PYRTM,2024,128.084508171586,19.194155581725
$GNGGA,020141.50,3304.89336607,N,11812.24248578,W,2,10,1.0,6.169,M,-37.310,M,7.4,0131*66
$PYRTM,2024,128.084508171586,19.194155581725
$GNHDT,113.197,T*27
$PYRTM,2024,128.084514010880,19.194161421019
$GNGGA,020142.00,3304.89317318,N,11812.24211500,W,2,10,1.0,6.015,M,-37.310,M,4.0,0131*66
$PYRTM,2024,128.084514010880,19.194161421019
$GNHDT,113.141,T*2C
$PYRTM,2024,128.084519745509,19.194167155648
$GNGGA,020142.50,3304.89298860,N,11812.24175646,W,2,10,1.0,5.925,M,-37.310,M,4.4,0131*6C
$PYRTM,2024,128.084519745509,19.194167155648
$GNHDT,113.154,T*28
$PYRTM,2024,128.084525582951,19.194172993090
$GNGGA,020143.00,3304.89282169,N,11812.24139900,W,2,10,1.0,5.896,M,-37.310,M,5.0,0131*6A
$PYRTM,2024,128.084525582951,19.194172993090
$GNHDT,113.178,T*26
$PYRTM,2024,128.084531319236,19.194178729375
$GNGGA,020143.50,3304.89268105,N,11812.24102215,W,2,10,1.0,5.955,M,-37.310,M,5.4,0131*6C
$PYRTM,2024,128.084531319236,19.194178729375
$GNHDT,113.243,T*2D
$PYRTM,2024,128.084537157569,19.194184567720
$GNGGA,020144.00,3304.89256326,N,11812.24062185,W,2,10,1.0,6.084,M,-37.310,M,6.0,0131*6C
$PYRTM,2024,128.084537157569,19.194184567720
$GNHDT,113.392,T*20
$PYRTM,2024,128.084542894838,19.194190304977
$GNGGA,020144.50,3304.89244870,N,11812.24019491,W,2,10,1.0,6.256,M,-37.310,M,6.4,0131*67
$PYRTM,2024,128.084542894838,19.194190304977
$GNHDT,113.377,T*2B
$PYRTM,2024,128.084548731493,19.194196141632
$GNGGA,020145.00,3304.89233244,N,11812.23974923,W,2,10,1.0,6.422,M,-37.310,M,7.0,0131*6F
$PYRTM,2024,128.084548731493,19.194196141632
$GNHDT,113.371,T*2D
$PYRTM,2024,128.084554468183,19.194201878322
$GNGGA,020145.50,3304.89220073,N,11812.23929854,W,2,10,1.0,6.549,M,-37.310,M,7.4,0131*6F
$PYRTM,2024,128.084554468183,19.194201878322
$GNHDT,113.520,T*2F
$PYRTM,2024,128.084560305475,19.194207715613
$GNGGA,020146.00,3304.89205048,N,11812.23883402,W,2,10,1.0,6.670,M,-37.310,M,7.0,0131*65
$PYRTM,2024,128.084560305475,19.194207715613
$GNHDT,113.413,T*2E
$PYRTM,2024,128.084566040984,19.194213451123
$GNGGA,020146.50,3304.89188866,N,11812.23836112,W,2,10,1.0,6.787,M,-37.310,M,7.4,0131*65
$PYRTM,2024,128.084566040984,19.194213451123
$GNHDT,113.469,T*23
$PYRTM,2024,128.084571879213,19.194219289363
$GNGGA,020147.00,3304.89171917,N,11812.23788644,W,2,10,1.0,6.893,M,-37.310,M,7.0,0131*60
$PYRTM,2024,128.084571879213,19.194219289363
$GNHDT,113.350,T*2E
$PYRTM,2024,128.084577617118,19.194225027257
$GNGGA,020147.50,3304.89155722,N,11812.23741164,W,2,10,1.0,6.970,M,-37.310,M,7.4,0131*63
$PYRTM,2024,128.084577617118,19.194225027257
$GNHDT,113.280,T*22
$PYRTM,2024,128.084583455174,19.194230865313
$GNGGA,020148.00,3304.89139830,N,11812.23693644,W,2,10,1.0,7.030,M,-37.310,M,4.0,0131*6F
$PYRTM,2024,128.084583455174,19.194230865313
$GNHDT,113.367,T*2A
$PYRTM,2024,128.084589190891,19.194236601030
$GNGGA,020148.50,3304.89125517,N,11812.23646530,W,2,10,1.0,7.069,M,-37.310,M,4.4,0131*6F
$PYRTM,2024,128.084589190891,19.194236601030
$GNHDT,113.210,T*2B
$PYRTM,2024,128.084595028044,19.194242438183
$GNGGA,020149.00,3304.89113083,N,11812.23599477,W,2,10,1.0,7.089,M,-37.310,M,5.0,0131*6E
$PYRTM,2024,128.084595028044,19.194242438183
$GNHDT,113.343,T*2C
$PYRTM,2024,128.084600764977,19.194248175116
$GNGGA,020149.50,3304.89102400,N,11812.23552529,W,2,10,1.0,7.051,M,-37.310,M,5.4,0131*68
$PYRTM,2024,128.084600764977,19.194248175116
$GNHDT,113.494,T*21
$PYRTM,2024,128.084606604537,19.194254014676
$GNGGA,020150.00,3304.89092752,N,11812.23506450,W,2,10,1.0,6.940,M,-37.310,M,6.0,0131*68
$PYRTM,2024,128.084606604537,19.194254014676
$GNHDT,113.482,T*26
$PYRTM,2024,128.084612340822,19.194259750961
$GNGGA,020150.50,3304.89083497,N,11812.23461937,W,2,10,1.0,6.792,M,-37.310,M,6.4,0131*6E
$PYRTM,2024,128.084612340822,19.194259750961
$GNHDT,113.411,T*2C
$PYRTM,2024,128.084618176354,19.194265586493
$GNGGA,020151.00,3304.89074141,N,11812.23419348,W,2,10,1.0,6.615,M,-37.310,M,7.0,0131*6A
$PYRTM,2024,128.084618176354,19.194265586493
$GNHDT,113.221,T*29
$PYRTM,2024,128.084623913356,19.194271323507
$GNGGA,020151.50,3304.89064229,N,11812.23379176,W,2,10,1.0,6.445,M,-37.310,M,7.4,0131*6E
$PYRTM,2024,128.084623913356,19.194271323507
$GNHDT,113.140,T*2D
$PYRTM,2024,128.084629748981,19.194277159120
$GNGGA,020152.00,3304.89053641,N,11812.23340646,W,2,10,1.0,6.311,M,-37.310,M,7.0,0131*6A
$PYRTM,2024,128.084629748981,19.194277159120
$GNHDT,113.148,T*25
$PYRTM,2024,128.084635487627,19.194282897778
$GNGGA,020152.50,3304.89041923,N,11812.23302806,W,2,10,1.0,6.214,M,-37.310,M,7.4,0131*6B
$PYRTM,2024,128.084635487627,19.194282897778
$GNHDT,113.255,T*2A
$PYRTM,2024,128.084641324097,19.194288734236
$GNGGA,020153.00,3304.89029123,N,11812.23265532,W,2,10,1.0,6.150,M,-37.310,M,7.0,0131*64
$PYRTM,2024,128.084641324097,19.194288734236
$GNHDT,113.317,T*2D
$PYRTM,2024,128.084647061157,19.194294471308
$GNGGA,020153.50,3304.89015651,N,11812.23228501,W,2,10,1.0,6.127,M,-37.310,M,7.4,0131*61
$PYRTM,2024,128.084647061157,19.194294471308
$GNHDT,113.284,T*26
$PYRTM,2024,128.084652896875,19.194300307025
$GNGGA,020154.00,3304.89001155,N,11812.23190696,W,2,10,1.0,6.118,M,-37.310,M,4.0,0131*63
$PYRTM,2024,128.084652896875,19.194300307025
$GNHDT,113.276,T*2B
$PYRTM,2024,128.084658635671,19.194306045810
$GNGGA,020154.50,3304.88985872,N,11812.23151790,W,2,10,1.0,6.133,M,-37.310,M,4.4,0131*69
$PYRTM,2024,128.084658635671,19.194306045810
$GNHDT,113.489,T*2D
$PYRTM,2024,128.084664471250,19.194311881389
$GNGGA,020155.00,3304.88970632,N,11812.23110425,W,2,10,1.0,6.184,M,-37.310,M,5.0,0131*6C
$PYRTM,2024,128.084664471250,19.194311881389
$GNHDT,113.557,T*2F
$PYRTM,2024,128.084670209630,19.194317619769
$GNGGA,020155.50,3304.88955500,N,11812.23066594,W,2,10,1.0,6.261,M,-37.310,M,5.4,0131*6B
$PYRTM,2024,128.084670209630,19.194317619769
$GNHDT,113.548,T*21
$PYRTM,2024,128.084676048634,19.194323458785
$GNGGA,020156.00,3304.88940535,N,11812.23019914,W,2,10,1.0,6.351,M,-37.310,M,6.0,0131*66
$PYRTM,2024,128.084676048634,19.194323458785
$GNHDT,113.577,T*2D
$PYRTM,2024,128.084681782604,19.194329192743
$GNGGA,020156.50,3304.88925442,N,11812.22971381,W,2,10,1.0,6.431,M,-37.310,M,6.4,0131*64
$PYRTM,2024,128.084681782604,19.194329192743
$GNHDT,113.529,T*26
$PYRTM,2024,128.084687623773,19.194335033912
$GNGGA,020157.00,3304.88909765,N,11812.22922007,W,2,10,1.0,6.493,M,-37.310,M,7.0,0131*6E
$PYRTM,2024,128.084687623773,19.194335033912
$GNHDT,113.591,T*25
$PYRTM,2024,128.084693358889,19.194340769028
$GNGGA,020157.50,3304.88893262,N,11812.22873422,W,2,10,1.0,6.530,M,-37.310,M,7.4,0131*61
$PYRTM,2024,128.084693358889,19.194340769028
$GNHDT,113.579,T*23
$PYRTM,2024,128.084699193519,19.194346603657
$GNGGA,020158.00,3304.88875875,N,11812.22825921,W,2,10,1.0,6.535,M,-37.310,M,7.0,0131*63
$PYRTM,2024,128.084699193519,19.194346603657
$GNHDT,113.521,T*2E
$PYRTM,2024,128.084704932118,19.194352342257
$GNGGA,020158.50,3304.88857795,N,11812.22779549,W,2,10,1.0,6.517,M,-37.310,M,7.4,0131*67
$PYRTM,2024,128.084704932118,19.194352342257
$GNHDT,113.537,T*29
$PYRTM,2024,128.084710770683,19.194358180822
$GNGGA,020159.00,3304.88839426,N,11812.22734321,W,2,10,1.0,6.477,M,-37.310,M,7.0,0131*62
$PYRTM,2024,128.084710770683,19.194358180822
$GNHDT,113.585,T*20
$PYRTM,2024,128.084716504595,19.194363914734
$GNGGA,020159.50,3304.88821425,N,11812.22689919,W,2,10,1.0,6.445,M,-37.310,M,7.4,0131*6E
$PYRTM,2024,128.084716504595,19.194363914734
$GNHDT,113.349,T*26
$PYRTM,2024,128.084722345660,19.194369755799
$GNGGA,020200.00,3304.88804046,N,11812.22646271,W,2,10,1.0,6.402,M,-37.310,M,4.0,0131*60
$PYRTM,2024,128.084722345660,19.194369755799
$GNHDT,113.281,T*23
$PYRTM,2024,128.084728078333,19.194375488472
$GNGGA,020200.50,3304.88788096,N,11812.22603144,W,2,10,1.0,6.372,M,-37.310,M,4.4,0131*63
$PYRTM,2024,128.084728078333,19.194375488472
$GNHDT,113.501,T*2C
$PYRTM,2024,128.084733915648,19.194381325787
$GNGGA,020201.00,3304.88774173,N,11812.22559968,W,2,10,1.0,6.360,M,-37.310,M,5.0,0131*62
$PYRTM,2024,128.084733915648,19.194381325787
$GNHDT,113.436,T*29
$PYRTM,2024,128.084739655255,19.194387065394
$GNGGA,020201.50,3304.88762428,N,11812.22517667,W,2,10,1.0,6.361,M,-37.310,M,5.4,0131*64
$PYRTM,2024,128.084739655255,19.194387065394
$GNHDT,113.343,T*2C
$PYRTM,2024,128.084745493507,19.194392903646
$GNGGA,020202.00,3304.88751693,N,11812.22475928,W,2,10,1.0,6.352,M,-37.310,M,6.0,0131*66
$PYRTM,2024,128.084745493507,19.194392903646
$GNHDT,113.290,T*23
$PYRTM,2024,128.084751226354,19.194398636493
$GNGGA,020202.50,3304.88741170,N,11812.22435413,W,2,10,1.0,6.331,M,-37.310,M,6.4,0131*68
$PYRTM,2024,128.084751226354,19.194398636493
$GNHDT,113.328,T*21
$PYRTM,2024,128.084757065000,19.194404475139
$GNGGA,020203.00,3304.88730363,N,11812.22395855,W,2,10,1.0,6.309,M,-37.310,M,7.0,0131*67
$PYRTM,2024,128.084757065000,19.194404475139
$GNHDT,113.340,T*2F
$PYRTM,2024,128.084762800243,19.194410210382
$GNGGA,020203.50,3304.88718452,N,11812.22356889,W,2,10,1.0,6.295,M,-37.310,M,7.4,0131*63
$PYRTM,2024,128.084762800243,19.194410210382
$GNHDT,113.457,T*2E
$PYRTM,2024,128.084768638125,19.194416048264
$GNGGA,020204.00,3304.88705494,N,11812.22318182,W,2,10,1.0,6.302,M,-37.310,M,7.0,0131*64
$PYRTM,2024,128.084768638125,19.194416048264
$GNHDT,113.512,T*2E
$PYRTM,2024,128.084774375394,19.194421785532
$GNGGA,020204.50,3304.88691503,N,11812.22279086,W,2,10,1.0,6.334,M,-37.310,M,7.4,0131*60
$PYRTM,2024,128.084774375394,19.194421785532
$GNHDT,113.647,T*2D
$PYRTM,2024,128.084780214699,19.194427624838
$GNGGA,020205.00,3304.88677702,N,11812.22238616,W,2,10,1.0,6.390,M,-37.310,M,7.0,0131*6F
$PYRTM,2024,128.084780214699,19.194427624838
$GNHDT,113.389,T*2A
$PYRTM,2024,128.084785950683,19.194433360822
$GNGGA,020205.50,3304.88664828,N,11812.22196862,W,2,10,1.0,6.507,M,-37.310,M,7.4,0131*69
$PYRTM,2024,128.084785950683,19.194433360822
$GNHDT,113.438,T*27
$PYRTM,2024,128.084791786944,19.194439197095
$GNGGA,020206.00,3304.88653093,N,11812.22153626,W,2,10,1.0,6.634,M,-37.310,M,4.0,0131*60
$PYRTM,2024,128.084791786944,19.194439197095
$GNHDT,113.526,T*29
$PYRTM,2024,128.084797524201,19.194444934352
$GNGGA,020206.50,3304.88642234,N,11812.22108906,W,2,10,1.0,6.760,M,-37.310,M,4.4,0131*6D
$PYRTM,2024,128.084797524201,19.194444934352
$GNHDT,113.825,T*27
$PYRTM,2024,128.084803361562,19.194450771701
$GNGGA,020207.00,3304.88630979,N,11812.22062866,W,2,10,1.0,6.850,M,-37.310,M,5.0,0131*6D
$PYRTM,2024,128.084803361562,19.194450771701
$GNHDT,113.881,T*29
$PYRTM,2024,128.084809101331,19.194456511470
$GNGGA,020207.50,3304.88618335,N,11812.22015371,W,2,10,1.0,6.905,M,-37.310,M,5.4,0131*68
$PYRTM,2024,128.084809101331,19.194456511470
$GNHDT,113.843,T*27
$PYRTM,2024,128.084814936076,19.194462346215
$GNGGA,020208.00,3304.88604340,N,11812.21966496,W,2,10,1.0,6.881,M,-37.310,M,6.0,0131*67
$PYRTM,2024,128.084814936076,19.194462346215
$GNHDT,113.715,T*2B
$PYRTM,2024,128.084820671123,19.194468081262
$GNGGA,020208.50,3304.88589589,N,11812.21917265,W,2,10,1.0,6.814,M,-37.310,M,6.4,0131*63
$PYRTM,2024,128.084820671123,19.194468081262
$GNHDT,113.540,T*29
$PYRTM,2024,128.084826508796,19.194473918935
$GNGGA,020209.00,3304.88575151,N,11812.21868010,W,2,10,1.0,6.745,M,-37.310,M,7.0,0131*62
$PYRTM,2024,128.084826508796,19.194473918935
$GNHDT,113.536,T*28
$PYRTM,2024,128.084832249005,19.194479659144
$GNGGA,020209.50,3304.88561057,N,11812.21820798,W,2,10,1.0,6.660,M,-37.310,M,7.4,0131*6C
$PYRTM,2024,128.084832249005,19.194479659144
$GNHDT,113.408,T*24
$PYRTM,2024,128.084838084097,19.194485494236
$GNGGA,020210.00,3304.88547141,N,11812.21776073,W,2,10,1.0,6.549,M,-37.310,M,7.0,0131*61
$PYRTM,2024,128.084838084097,19.194485494236
$GNHDT,113.259,T*26
$PYRTM,2024,128.084843820613,19.194491230764
$GNGGA,020210.50,3304.88533629,N,11812.21733224,W,2,10,1.0,6.458,M,-37.310,M,7.4,0131*6A
$PYRTM,2024,128.084843820613,19.194491230764
$GNHDT,113.310,T*2A
$PYRTM,2024,128.084849658530,19.194497068669
$GNGGA,020211.00,3304.88519691,N,11812.21692367,W,2,10,1.0,6.369,M,-37.310,M,7.0,0131*68
$PYRTM,2024,128.084849658530,19.194497068669
$GNHDT,113.313,T*29
$PYRTM,2024,128.084855395880,19.194502806019
$GNGGA,020211.50,3304.88505697,N,11812.21653023,W,2,10,1.0,6.256,M,-37.310,M,7.4,0131*61
$PYRTM,2024,128.084855395880,19.194502806019
$GNHDT,113.352,T*2C
$PYRTM,2024,128.084861231470,19.194508641620
$GNGGA,020212.00,3304.88491446,N,11812.21614315,W,2,10,1.0,6.146,M,-37.310,M,4.0,0131*65
$PYRTM,2024,128.084861231470,19.194508641620
$GNHDT,113.440,T*28
$PYRTM,2024,128.084866968681,19.194514378831
$GNGGA,020212.50,3304.88477467,N,11812.21574827,W,2,10,1.0,6.048,M,-37.310,M,4.4,0131*6F
$PYRTM,2024,128.084866968681,19.194514378831
$GNHDT,113.494,T*21
$PYRTM,2024,128.084872805382,19.194520215521
$GNGGA,020213.00,3304.88463830,N,11812.21535238,W,2,10,1.0,5.966,M,-37.310,M,5.0,0131*62
$PYRTM,2024,128.084872805382,19.194520215521
$GNHDT,113.440,T*28
$PYRTM,2024,128.084878546030,19.194525956169
$GNGGA,020213.50,3304.88449621,N,11812.21494700,W,2,10,1.0,5.922,M,-37.310,M,5.4,0131*61
$PYRTM,2024,128.084878546030,19.194525956169
$GNHDT,113.578,T*22
$PYRTM,2024,128.084884380394,19.194531790544
$GNGGA,020214.00,3304.88434903,N,11812.21454755,W,2,10,1.0,5.896,M,-37.310,M,6.0,0131*63
$PYRTM,2024,128.084884380394,19.194531790544
$GNHDT,113.708,T*27
$PYRTM,2024,128.084890121134,19.194537531273
$GNGGA,020214.50,3304.88420309,N,11812.21415130,W,2,10,1.0,5.931,M,-37.310,M,6.4,0131*6B
$PYRTM,2024,128.084890121134,19.194537531273
$GNHDT,113.839,T*2A
$PYRTM,2024,128.084895953414,19.194543363553
$GNGGA,020215.00,3304.88405864,N,11812.21375540,W,2,10,1.0,6.002,M,-37.310,M,7.0,0131*65
$PYRTM,2024,128.084895953414,19.194543363553
$GNHDT,113.891,T*28
$PYRTM,2024,128.084901692998,19.194549103148
$GNGGA,020215.50,3304.88391817,N,11812.21334627,W,2,10,1.0,6.106,M,-37.310,M,7.4,0131*68
$PYRTM,2024,128.084901692998,19.194549103148
$GNHDT,113.765,T*2C
$PYRTM,2024,128.084907526690,19.194554936829
$GNGGA,020216.00,3304.88377562,N,11812.21291551,W,2,10,1.0,6.204,M,-37.310,M,7.0,0131*60
$PYRTM,2024,128.084907526690,19.194554936829
$GNHDT,113.751,T*2B
$PYRTM,2024,128.084913267928,19.194560678067
$GNGGA,020216.50,3304.88362246,N,11812.21246452,W,2,10,1.0,6.283,M,-37.310,M,7.4,0131*63
$PYRTM,2024,128.084913267928,19.194560678067
$GNHDT,113.768,T*21
$PYRTM,2024,128.084919101921,19.194566512060
$GNGGA,020217.00,3304.88346499,N,11812.21199535,W,2,10,1.0,6.342,M,-37.310,M,7.0,0131*6C
$PYRTM,2024,128.084919101921,19.194566512060
$GNHDT,113.870,T*27
$PYRTM,2024,128.084924838044,19.194572248194
$GNGGA,020217.50,3304.88330254,N,11812.21152292,W,2,10,1.0,6.376,M,-37.310,M,7.4,0131*61
$PYRTM,2024,128.084924838044,19.194572248194
$GNHDT,113.790,T*26
$PYRTM,2024,128.084930678299,19.194578088437
$GNGGA,020218.00,3304.88313882,N,11812.21104850,W,2,10,1.0,6.420,M,-37.310,M,4.0,0131*6F
$PYRTM,2024,128.084930678299,19.194578088437
$GNHDT,113.683,T*25
$PYRTM,2024,128.084936411215,19.194583821354
$GNGGA,020218.50,3304.88298371,N,11812.21058786,W,2,10,1.0,6.458,M,-37.310,M,4.4,0131*68
$PYRTM,2024,128.084936411215,19.194583821354
$GNHDT,113.583,T*26
$PYRTM,2024,128.084942250752,19.194589660891
$GNGGA,020219.00,3304.88283964,N,11812.21013700,W,2,10,1.0,6.497,M,-37.310,M,5.0,0131*6F
$PYRTM,2024,128.084942250752,19.194589660891
$GNHDT,113.531,T*2F
$PYRTM,2024,128.084947992373,19.194595402512
$GNGGA,020219.50,3304.88270824,N,11812.20970154,W,2,10,1.0,6.542,M,-37.310,M,5.4,0131*64
$PYRTM,2024,128.084947992373,19.194595402512
$GNHDT,113.393,T*21
$PYRTM,2024,128.084953824421,19.194601234560
$GNGGA,020220.00,3304.88258698,N,11812.20926695,W,2,10,1.0,6.586,M,-37.310,M,6.0,0131*6E
$PYRTM,2024,128.084953824421,19.194601234560
$GNHDT,113.403,T*2F
$PYRTM,2024,128.084959559734,19.194606969873
$GNGGA,020220.50,3304.88246883,N,11812.20882925,W,2,10,1.0,6.622,M,-37.310,M,6.4,0131*62
$PYRTM,2024,128.084959559734,19.194606969873
$GNHDT,113.218,T*23
$PYRTM,2024,128.084965397257,19.194612807396
$GNGGA,020221.00,3304.88234256,N,11812.20838946,W,2,10,1.0,6.636,M,-37.310,M,7.0,0131*65
$PYRTM,2024,128.084965397257,19.194612807396
$GNHDT,113.263,T*2F
$PYRTM,2024,128.084971133796,19.194618543935
$GNGGA,020221.50,3304.88220831,N,11812.20794953,W,2,10,1.0,6.645,M,-37.310,M,7.4,0131*63
$PYRTM,2024,128.084971133796,19.194618543935
$GNHDT,113.429,T*27
$PYRTM,2024,128.084976972350,19.194624382488
$GNGGA,020222.00,3304.88206236,N,11812.20751753,W,2,10,1.0,6.645,M,-37.310,M,7.0,0131*6F
$PYRTM,2024,128.084976972350,19.194624382488
$GNHDT,113.337,T*2F
$PYRTM,2024,128.084982713715,19.194630123854
$GNGGA,020222.50,3304.88191088,N,11812.20710005,W,2,10,1.0,6.649,M,-37.310,M,7.4,0131*69
$PYRTM,2024,128.084982713715,19.194630123854
$GNHDT,113.515,T*29
$PYRTM,2024,128.084988546725,19.194635956863
$GNGGA,020223.00,3304.88176441,N,11812.20669289,W,2,10,1.0,6.655,M,-37.310,M,7.0,0131*65
$PYRTM,2024,128.084988546725,19.194635956863
$GNHDT,113.690,T*27
$PYRTM,2024,128.084994284676,19.194641694815
$GNGGA,020223.50,3304.88162813,N,11812.20628834,W,2,10,1.0,6.675,M,-37.310,M,7.4,0131*61
$PYRTM,2024,128.084994284676,19.194641694815
$GNHDT,113.546,T*2F
$PYRTM,2024,128.085000120359,19.194647530509
$GNGGA,020224.00,3304.88150386,N,11812.20587196,W,2,10,1.0,6.699,M,-37.310,M,4.0,0131*67
$PYRTM,2024,128.085000120359,19.194647530509
$GNHDT,113.642,T*28
$PYRTM,2024,128.085005855637,19.194653265775
$GNGGA,020224.50,3304.88138763,N,11812.20543992,W,2,10,1.0,6.722,M,-37.310,M,4.4,0131*62
$PYRTM,2024,128.085005855637,19.194653265775
$GNHDT,113.635,T*28
$PYRTM,2024,128.085011694016,19.194659104155
$GNGGA,020225.00,3304.88127611,N,11812.20500132,W,2,10,1.0,6.687,M,-37.310,M,5.0,0131*62
$PYRTM,2024,128.085011694016,19.194659104155
$GNHDT,113.647,T*2D
$PYRTM,2024,128.085017430914,19.194664841065
$GNGGA,020225.50,3304.88116055,N,11812.20456224,W,2,10,1.0,6.621,M,-37.310,M,5.4,0131*6D
$PYRTM,2024,128.085017430914,19.194664841065
$GNHDT,113.643,T*29
$PYRTM,2024,128.085023268368,19.194670678507
$GNGGA,020226.00,3304.88104238,N,11812.20413234,W,2,10,1.0,6.519,M,-37.310,M,6.0,0131*6E
$PYRTM,2024,128.085023268368,19.194670678507
$GNHDT,113.630,T*2D
$PYRTM,2024,128.085029004826,19.194676414965
$GNGGA,020226.50,3304.88092747,N,11812.20371338,W,2,10,1.0,6.431,M,-37.310,M,6.4,0131*69
$PYRTM,2024,128.085029004826,19.194676414965
$GNHDT,113.608,T*26
$PYRTM,2024,128.085034841412,19.194682251551
$GNGGA,020227.00,3304.88080457,N,11812.20330271,W,2,10,1.0,6.355,M,-37.310,M,7.0,0131*65
$PYRTM,2024,128.085034841412,19.194682251551
$GNHDT,113.657,T*2C
$PYRTM,2024,128.085040578831,19.194687988970
$GNGGA,020227.50,3304.88068170,N,11812.20289652,W,2,10,1.0,6.264,M,-37.310,M,7.4,0131*67
$PYRTM,2024,128.085040578831,19.194687988970
$GNHDT,113.819,T*28
$PYRTM,2024,128.085046416713,19.194693826852
$GNGGA,020228.00,3304.88054762,N,11812.20248257,W,2,10,1.0,6.184,M,-37.310,M,7.0,0131*62
$PYRTM,2024,128.085046416713,19.194693826852
$GNHDT,113.816,T*27
$PYRTM,2024,128.085052151076,19.194699561215
$GNGGA,020228.50,3304.88040954,N,11812.20206280,W,2,10,1.0,6.096,M,-37.310,M,7.4,0131*6F
$PYRTM,2024,128.085052151076,19.194699561215
$GNHDT,113.562,T*29
$PYRTM,2024,128.085057989850,19.194705399988
