$PYRTM,2024,123.166667065833,14.276314475972
$GNGGA,040000.00,3408.01002995,N,11950.87304144,W,2,12,0.8,7.852,M,-36.926,M,5.0,0135*61
$PYRTM,2024,123.166667065833,14.276314475972
$GNHDT,283.987,T*24
$PYRTM,2024,123.166672804016,14.276320214155
$GNGGA,040000.50,3408.01032695,N,11950.87408622,W,2,12,0.8,8.690,M,-36.926,M,5.4,0135*6F
$PYRTM,2024,123.166672804016,14.276320214155
$GNHDT,283.740,T*21
$PYRTM,2024,123.166678639317,14.276326049456
$GNGGA,040001.00,3408.01060461,N,11950.87510627,W,2,12,0.8,9.639,M,-36.926,M,6.0,0135*6D
$PYRTM,2024,123.166678639317,14.276326049456
$GNHDT,283.749,T*28
$PYRTM,2024,123.166684374664,14.276331784803
$GNGGA,040001.50,3408.01087410,N,11950.87617244,W,2,12,0.8,10.440,M,-36.926,M,6.4,0135*52
$PYRTM,2024,123.166684374664,14.276331784803
$GNHDT,283.906,T*2D
$PYRTM,2024,123.166690210174,14.276337620301
$GNGGA,040002.00,3408.01112634,N,11950.87734515,W,2,12,0.8,10.828,M,-36.926,M,7.0,0135*59
$PYRTM,2024,123.166690210174,14.276337620301
$GNHDT,284.036,T*20
$PYRTM,2024,123.166695947708,14.276343357847
$GNGGA,040002.50,3408.01138387,N,11950.87861032,W,2,12,0.8,10.619,M,-36.926,M,7.4,0135*5E
$PYRTM,2024,123.166695947708,14.276343357847
$GNHDT,284.111,T*24
$PYRTM,2024,123.166701778704,14.276349188843
$GNGGA,040003.00,3408.01164709,N,11950.87990141,W,2,12,0.8,9.889,M,-36.926,M,7.0,0135*60
$PYRTM,2024,123.166701778704,14.276349188843
$GNHDT,284.417,T*27
$PYRTM,2024,123.166707514769,14.276354924907
$GNGGA,040003.50,3408.01192486,N,11950.88119635,W,2,12,0.8,8.823,M,-36.926,M,7.4,0135*6F
$PYRTM,2024,123.166707514769,14.276354924907
$GNHDT,284.326,T*22
$PYRTM,2024,123.166713355023,14.276360765162
$GNGGA,040004.00,3408.01222165,N,11950.88243268,W,2,12,0.8,7.750,M,-36.926,M,7.0,0135*6D
$PYRTM,2024,123.166713355023,14.276360765162
$GNHDT,284.498,T*20
$PYRTM,2024,123.166719093356,14.276366503495
$GNGGA,040004.50,3408.01250388,N,11950.88360163,W,2,12,0.8,7.075,M,-36.926,M,7.4,0135*60
$PYRTM,2024,123.166719093356,14.276366503495
$GNHDT,284.426,T*25
$PYRTM,2024,123.166724926424,14.276372336563
$GNGGA,040005.00,3408.01277039,N,11950.88470624,W,2,12,0.8,7.055,M,-36.926,M,4.0,0135*6F
$PYRTM,2024,123.166724926424,14.276372336563
$GNHDT,284.630,T*20
$PYRTM,2024,123.166730681076,14.276378091215
$GNGGA,040005.50,3408.01303798,N,11950.88574891,W,2,12,0.8,7.546,M,-36.926,M,4.4,0135*62
$PYRTM,2024,123.166730681076,14.276378091215
$GNHDT,284.514,T*25
$PYRTM,2024,123.166736509884,14.276383920023
$GNGGA,040006.00,3408.01333358,N,11950.88677220,W,2,12,0.8,8.363,M,-36.926,M,5.0,0135*64
$PYRTM,2024,123.166736509884,14.276383920023
$GNHDT,284.862,T*29
$PYRTM,2024,123.166742241157,14.276389651296
$GNGGA,040006.50,3408.01364255,N,11950.88788159,W,2,12,0.8,9.152,M,-36.926,M,5.4,0135*66
$PYRTM,2024,123.166742241157,14.276389651296
$GNHDT,284.167,T*25
$PYRTM,2024,123.166748078484,14.276395488623
$GNGGA,040007.00,3408.01396757,N,11950.88909925,W,2,12,0.8,9.701,M,-36.926,M,6.0,0135*6B
$PYRTM,2024,123.166748078484,14.276395488623
$GNHDT,284.072,T*20
$PYRTM,2024,123.166753813866,14.276401224005
$GNGGA,040007.50,3408.01430374,N,11950.89038935,W,2,12,0.8,9.848,M,-36.926,M,6.4,0135*6D
$PYRTM,2024,123.166753813866,14.276401224005
$GNHDT,283.930,T*28
$PYRTM,2024,123.166759648380,14.276407058519
$GNGGA,040008.00,3408.01463650,N,11950.89170879,W,2,12,0.8,9.600,M,-36.926,M,7.0,0135*61
$PYRTM,2024,123.166759648380,14.276407058519
$GNHDT,283.890,T*23
$PYRTM,2024,123.166765386759,14.276412796898
$GNGGA,040008.50,3408.01494363,N,11950.89301279,W,2,12,0.8,9.123,M,-36.926,M,7.4,0135*65
$PYRTM,2024,123.166765386759,14.276412796898
$GNHDT,284.373,T*22
$PYRTM,2024,123.166771222222,14.276418632361
$GNGGA,040009.00,3408.01523832,N,11950.89423036,W,2,12,0.8,8.641,M,-36.926,M,7.0,0135*6B
$PYRTM,2024,123.166771222222,14.276418632361
$GNHDT,284.775,T*20
$PYRTM,2024,123.166776959931,14.276424370069
$GNGGA,040009.50,3408.01551607,N,11950.89532819,W,2,12,0.8,8.395,M,-36.926,M,7.4,0135*6F
$PYRTM,2024,123.166776959931,14.276424370069
$GNHDT,284.277,T*27
$PYRTM,2024,123.166782794225,14.276430204363
$GNGGA,040010.00,3408.01577198,N,11950.89635601,W,2,12,0.8,8.408,M,-36.926,M,7.0,0135*63
$PYRTM,2024,123.166782794225,14.276430204363
$GNHDT,284.270,T*20
$PYRTM,2024,123.166788536308,14.276435946447
$GNGGA,040010.50,3408.01601988,N,11950.89737377,W,2,12,0.8,8.631,M,-36.926,M,7.4,0135*66
$PYRTM,2024,123.166788536308,14.276435946447
$GNHDT,284.490,T*28
$PYRTM,2024,123.166794369039,14.276441779178
$GNGGA,040011.00,3408.01628527,N,11950.89844342,W,2,12,0.8,8.846,M,-36.926,M,4.0,0135*64
$PYRTM,2024,123.166794369039,14.276441779178
$GNHDT,284.557,T*22
$PYRTM,2024,123.166800104780,14.276447514919
$GNGGA,040011.50,3408.01658251,N,11950.89956495,W,2,12,0.8,8.938,M,-36.925,M,4.4,0135*60
$PYRTM,2024,123.166800104780,14.276447514919
$GNHDT,284.419,T*29
$PYRTM,2024,123.166805947280,14.276453357419
$GNGGA,040012.00,3408.01689605,N,11950.90074855,W,2,12,0.8,8.894,M,-36.925,M,5.0,0135*6C
$PYRTM,2024,123.166805947280,14.276453357419
$GNHDT,284.524,T*26
$PYRTM,2024,123.166811679074,14.276459089213
$GNGGA,040012.50,3408.01721150,N,11950.90196872,W,2,12,0.8,8.711,M,-36.925,M,5.4,0135*63
$PYRTM,2024,123.166811679074,14.276459089213
$GNHDT,284.242,T*21
$PYRTM,2024,123.166817520660,14.276464930799
$GNGGA,040013.00,3408.01752591,N,11950.90318570,W,2,12,0.8,8.476,M,-36.925,M,6.0,0135*64
$PYRTM,2024,123.166817520660,14.276464930799
$GNHDT,284.351,T*22
$PYRTM,2024,123.166823253206,14.276470663345
$GNGGA,040013.50,3408.01782971,N,11950.90437929,W,2,12,0.8,8.309,M,-36.925,M,6.4,0135*6F
$PYRTM,2024,123.166823253206,14.276470663345
$GNHDT,284.224,T*21
$PYRTM,2024,123.166829093738,14.276476503889
$GNGGA,040014.00,3408.01812484,N,11950.90553150,W,2,12,0.8,8.289,M,-36.925,M,7.0,0135*65
$PYRTM,2024,123.166829093738,14.276476503889
$GNHDT,284.107,T*23
$PYRTM,2024,123.166834830775,14.276482240914
$GNGGA,040014.50,3408.01840439,N,11950.90666068,W,2,12,0.8,8.399,M,-36.925,M,7.4,0135*6A
$PYRTM,2024,123.166834830775,14.276482240914
$GNHDT,284.270,T*20
$PYRTM,2024,123.166840665995,14.276488076134
$GNGGA,040015.00,3408.01866214,N,11950.90780499,W,2,12,0.8,8.601,M,-36.925,M,7.0,0135*60
$PYRTM,2024,123.166840665995,14.276488076134
$GNHDT,284.207,T*20
$PYRTM,2024,123.166846403125,14.276493813275
$GNGGA,040015.50,3408.01891148,N,11950.90899408,W,2,12,0.8,8.771,M,-36.925,M,7.4,0135*6A
$PYRTM,2024,123.166846403125,14.276493813275
$GNHDT,284.189,T*25
$PYRTM,2024,123.166852244294,14.276499654433
$GNGGA,040016.00,3408.01918223,N,11950.91022924,W,2,12,0.8,8.840,M,-36.925,M,7.0,0135*61
$PYRTM,2024,123.166852244294,14.276499654433
$GNHDT,284.065,T*26
$PYRTM,2024,123.166857979676,14.276505389815
$GNGGA,040016.50,3408.01948740,N,11950.91148462,W,2,12,0.8,8.789,M,-36.925,M,7.4,0135*6D
$PYRTM,2024,123.166857979676,14.276505389815
$GNHDT,284.076,T*24
$PYRTM,2024,123.166863816227,14.276511226366
$GNGGA,040017.00,3408.01980943,N,11950.91271431,W,2,12,0.8,8.732,M,-36.925,M,4.0,0135*68
$PYRTM,2024,123.166863816227,14.276511226366
$GNHDT,284.129,T*2F
$PYRTM,2024,123.166869553958,14.276516964097
$GNGGA,040017.50,3408.02012939,N,11950.91389239,W,2,12,0.8,8.776,M,-36.925,M,4.4,0135*6D
$PYRTM,2024,123.166869553958,14.276516964097
$GNHDT,284.287,T*28
$PYRTM,2024,123.166875392512,14.276522802650
$GNGGA,040018.00,3408.02043691,N,11950.91505542,W,2,12,0.8,8.888,M,-36.925,M,5.0,0135*6C
$PYRTM,2024,123.166875392512,14.276522802650
$GNHDT,284.590,T*29
$PYRTM,2024,123.166881121921,14.276528532060
$GNGGA,040018.50,3408.02074816,N,11950.91623297,W,2,12,0.8,9.021,M,-36.925,M,5.4,0135*6A
$PYRTM,2024,123.166881121921,14.276528532060
$GNHDT,284.226,T*23
$PYRTM,2024,123.166886962083,14.276534372222
$GNGGA,040019.00,3408.02104861,N,11950.91745391,W,2,12,0.8,9.083,M,-36.925,M,6.0,0135*61
$PYRTM,2024,123.166886962083,14.276534372222
$GNHDT,284.082,T*2F
$PYRTM,2024,123.166892700324,14.276540110463
$GNGGA,040019.50,3408.02134443,N,11950.91868014,W,2,12,0.8,9.093,M,-36.925,M,6.4,0135*60
$PYRTM,2024,123.166892700324,14.276540110463
$GNHDT,284.047,T*26
$PYRTM,2024,123.166898540903,14.276545951042
$GNGGA,040020.00,3408.02162909,N,11950.91991269,W,2,12,0.8,9.021,M,-36.925,M,7.0,0135*6C
$PYRTM,2024,123.166898540903,14.276545951042
$GNHDT,284.099,T*25
$PYRTM,2024,123.166904276331,14.276551686470
$GNGGA,040020.50,3408.02190429,N,11950.92117362,W,2,12,0.8,8.873,M,-36.925,M,7.4,0135*6E
$PYRTM,2024,123.166904276331,14.276551686470
$GNHDT,283.716,T*22
$PYRTM,2024,123.166910107812,14.276557517951
$GNGGA,040021.00,3408.02217419,N,11950.92246044,W,2,12,0.8,8.641,M,-36.925,M,7.0,0135*6E
$PYRTM,2024,123.166910107812,14.276557517951
$GNHDT,283.316,T*26
$PYRTM,2024,123.166915844688,14.276563254826
$GNGGA,040021.50,3408.02244458,N,11950.92373412,W,2,12,0.8,8.444,M,-36.925,M,7.4,0135*6B
$PYRTM,2024,123.166915844688,14.276563254826
$GNHDT,283.208,T*28
$PYRTM,2024,123.166921685903,14.276569096042
$GNGGA,040022.00,3408.02272040,N,11950.92499210,W,2,12,0.8,8.320,M,-36.925,M,7.0,0135*63
$PYRTM,2024,123.166921685903,14.276569096042
$GNHDT,283.076,T*23
$PYRTM,2024,123.166927419722,14.276574829861
$GNGGA,040022.50,3408.02302467,N,11950.92621991,W,2,12,0.8,8.319,M,-36.925,M,7.4,0135*6C
$PYRTM,2024,123.166927419722,14.276574829861
$GNHDT,283.001,T*23
$PYRTM,2024,123.166933261852,14.276580671991
$GNGGA,040023.00,3408.02334619,N,11950.92739206,W,2,12,0.8,8.444,M,-36.925,M,4.0,0135*63
$PYRTM,2024,123.166933261852,14.276580671991
$GNHDT,283.466,T*26
$PYRTM,2024,123.166938994931,14.276586405069
$GNGGA,040023.50,3408.02368589,N,11950.92852964,W,2,12,0.8,8.701,M,-36.925,M,4.4,0135*6E
$PYRTM,2024,123.166938994931,14.276586405069
$GNHDT,283.358,T*2C
$PYRTM,2024,123.166944833681,14.276592243819
$GNGGA,040024.00,3408.02402682,N,11950.92965729,W,2,12,0.8,9.002,M,-36.925,M,5.0,0135*6D
$PYRTM,2024,123.166944833681,14.276592243819
$GNHDT,283.453,T*20
$PYRTM,2024,123.166950569780,14.276597979919
$GNGGA,040024.50,3408.02436527,N,11950.93078833,W,2,12,0.8,9.232,M,-36.925,M,5.4,0135*66
$PYRTM,2024,123.166950569780,14.276597979919
$GNHDT,283.663,T*21
$PYRTM,2024,123.166956409005,14.276603819144
$GNGGA,040025.00,3408.02468407,N,11950.93197102,W,2,12,0.8,9.230,M,-36.925,M,6.0,0135*64
$PYRTM,2024,123.166956409005,14.276603819144
$GNHDT,283.673,T*20
$PYRTM,2024,123.166962147269,14.276609557407
$GNGGA,040025.50,3408.02497710,N,11950.93324048,W,2,12,0.8,8.940,M,-36.925,M,6.4,0135*68
$PYRTM,2024,123.166962147269,14.276609557407
$GNHDT,283.869,T*25
$PYRTM,2024,123.166967986667,14.276615396806
$GNGGA,040026.00,3408.02524584,N,11950.93456673,W,2,12,0.8,8.425,M,-36.925,M,7.0,0135*6F
$PYRTM,2024,123.166967986667,14.276615396806
$GNHDT,284.641,T*26
$PYRTM,2024,123.166973720556,14.276621130694
$GNGGA,040026.50,3408.02551516,N,11950.93587183,W,2,12,0.8,7.868,M,-36.925,M,7.4,0135*68
$PYRTM,2024,123.166973720556,14.276621130694
$GNHDT,284.218,T*2E
$PYRTM,2024,123.166979558993,14.276626969132
$GNGGA,040027.00,3408.02579851,N,11950.93710388,W,2,12,0.8,7.465,M,-36.925,M,7.0,0135*68
$PYRTM,2024,123.166979558993,14.276626969132
$GNHDT,284.480,T*29
$PYRTM,2024,123.166985292894,14.276632703032
$GNGGA,040027.50,3408.02608714,N,11950.93825685,W,2,12,0.8,7.400,M,-36.925,M,7.4,0135*60
$PYRTM,2024,123.166985292894,14.276632703032
$GNHDT,284.259,T*2B
$PYRTM,2024,123.166991133727,14.276638543866
$GNGGA,040028.00,3408.02635668,N,11950.93940361,W,2,12,0.8,7.658,M,-36.925,M,7.0,0135*68
$PYRTM,2024,123.166991133727,14.276638543866
$GNHDT,284.211,T*27
$PYRTM,2024,123.166996864630,14.276644274780
$GNGGA,040028.50,3408.02662622,N,11950.94055004,W,2,12,0.8,8.126,M,-36.925,M,7.4,0135*6E
$PYRTM,2024,123.166996864630,14.276644274780
$GNHDT,284.297,T*29
$PYRTM,2024,123.167002707465,14.276650117604
$GNGGA,040029.00,3408.02690369,N,11950.94171060,W,2,12,0.8,8.717,M,-36.925,M,4.0,0135*6B
$PYRTM,2024,123.167002707465,14.276650117604
$GNHDT,284.132,T*25
$PYRTM,2024,123.167008437998,14.276655848137
$GNGGA,040029.50,3408.02718952,N,11950.94289998,W,2,12,0.8,9.226,M,-36.925,M,4.4,0135*65
$PYRTM,2024,123.167008437998,14.276655848137
$GNHDT,283.725,T*22
$PYRTM,2024,123.167014275463,14.276661685602
$GNGGA,040030.00,3408.02747123,N,11950.94412288,W,2,12,0.8,9.572,M,-36.925,M,5.0,0135*61
$PYRTM,2024,123.167014275463,14.276661685602
$GNHDT,283.710,T*24
$PYRTM,2024,123.167020014213,14.276667424352
$GNGGA,040030.50,3408.02778123,N,11950.94534839,W,2,12,0.8,9.681,M,-36.925,M,5.4,0135*66
$PYRTM,2024,123.167020014213,14.276667424352
$GNHDT,283.879,T*24
$PYRTM,2024,123.167025853750,14.276673263889
$GNGGA,040031.00,3408.02810359,N,11950.94658413,W,2,12,0.8,9.507,M,-36.925,M,6.0,0135*6B
$PYRTM,2024,123.167025853750,14.276673263889
$GNHDT,283.882,T*20
$PYRTM,2024,123.167031592627,14.276679002766
$GNGGA,040031.50,3408.02841707,N,11950.94785836,W,2,12,0.8,9.098,M,-36.925,M,6.4,0135*68
$PYRTM,2024,123.167031592627,14.276679002766
$GNHDT,283.949,T*26
$PYRTM,2024,123.167037430868,14.276684841007
$GNGGA,040032.00,3408.02871862,N,11950.94915895,W,2,12,0.8,8.515,M,-36.925,M,7.0,0135*6B
$PYRTM,2024,123.167037430868,14.276684841007
$GNHDT,283.784,T*29
$PYRTM,2024,123.167043162292,14.276690572431
$GNGGA,040032.50,3408.02901547,N,11950.95046675,W,2,12,0.8,7.964,M,-36.925,M,7.4,0135*6D
$PYRTM,2024,123.167043162292,14.276690572431
$GNHDT,283.640,T*20
$PYRTM,2024,123.167049003484,14.276696413623
$GNGGA,040033.00,3408.02929920,N,11950.95173117,W,2,12,0.8,7.568,M,-36.925,M,7.0,0135*6E
$PYRTM,2024,123.167049003484,14.276696413623
$GNHDT,283.492,T*2D
$PYRTM,2024,123.167054738900,14.276702149039
$GNGGA,040033.50,3408.02958096,N,11950.95297221,W,2,12,0.8,7.422,M,-36.925,M,7.4,0135*6D
$PYRTM,2024,123.167054738900,14.276702149039
$GNHDT,283.383,T*2A
$PYRTM,2024,123.167060582025,14.276707992164
$GNGGA,040034.00,3408.02989935,N,11950.95416451,W,2,12,0.8,7.536,M,-36.925,M,7.0,0135*6D
$PYRTM,2024,123.167060582025,14.276707992164
$GNHDT,283.105,T*26
$PYRTM,2024,123.167066312326,14.276713722465
$GNGGA,040034.50,3408.03024227,N,11950.95538554,W,2,12,0.8,7.783,M,-36.925,M,7.4,0135*6E
$PYRTM,2024,123.167066312326,14.276713722465
$GNHDT,282.904,T*2E
$PYRTM,2024,123.167072151319,14.276719561458
$GNGGA,040035.00,3408.03061898,N,11950.95666664,W,2,12,0.8,8.073,M,-36.925,M,4.0,0135*6D
$PYRTM,2024,123.167072151319,14.276719561458
$GNHDT,283.045,T*23
$PYRTM,2024,123.167077889375,14.276725299525
$GNGGA,040035.50,3408.03098895,N,11950.95798401,W,2,12,0.8,8.326,M,-36.925,M,4.4,0135*65
$PYRTM,2024,123.167077889375,14.276725299525
$GNHDT,283.674,T*27
$PYRTM,2024,123.167083725336,14.276731135475
$GNGGA,040036.00,3408.03132405,N,11950.95926165,W,2,12,0.8,8.573,M,-36.925,M,5.0,0135*68
$PYRTM,2024,123.167083725336,14.276731135475
$GNHDT,283.703,T*26
$PYRTM,2024,123.167089461100,14.276736871238
$GNGGA,040036.50,3408.03162139,N,11950.96047189,W,2,12,0.8,8.844,M,-36.925,M,5.4,0135*60
$PYRTM,2024,123.167089461100,14.276736871238
$GNHDT,283.439,T*2C
$PYRTM,2024,123.167095296157,14.276742706296
$GNGGA,040037.00,3408.03188452,N,11950.96163232,W,2,12,0.8,9.097,M,-36.925,M,6.0,0135*6C
$PYRTM,2024,123.167095296157,14.276742706296
$GNHDT,283.453,T*20
$PYRTM,2024,123.167101033866,14.276748444005
$GNGGA,040037.50,3408.03213353,N,11950.96277264,W,2,12,0.8,9.245,M,-36.925,M,6.4,0135*62
$PYRTM,2024,123.167101033866,14.276748444005
$GNHDT,283.451,T*22
$PYRTM,2024,123.167106878067,14.276754288206
$GNGGA,040038.00,3408.03235978,N,11950.96398409,W,2,12,0.8,9.137,M,-36.925,M,7.0,0135*61
$PYRTM,2024,123.167106878067,14.276754288206
$GNHDT,283.516,T*20
$PYRTM,2024,123.167112606956,14.276760017095
$GNGGA,040038.50,3408.03259571,N,11950.96526110,W,2,12,0.8,8.777,M,-36.925,M,7.4,0135*62
$PYRTM,2024,123.167112606956,14.276760017095
$GNHDT,283.457,T*24
$PYRTM,2024,123.167118446667,14.276765856817
$GNGGA,040039.00,3408.03285728,N,11950.96650753,W,2,12,0.8,8.282,M,-36.925,M,7.0,0135*61
$PYRTM,2024,123.167118446667,14.276765856817
$GNHDT,283.486,T*28
$PYRTM,2024,123.167124179769,14.276771589919
$GNGGA,040039.50,3408.03314453,N,11950.96771012,W,2,12,0.8,7.808,M,-36.925,M,7.4,0135*61
$PYRTM,2024,123.167124179769,14.276771589919
$GNHDT,283.797,T*2B
$PYRTM,2024,123.167130020417,14.276777430556
$GNGGA,040040.00,3408.03344718,N,11950.96884817,W,2,12,0.8,7.535,M,-36.925,M,7.0,0135*6C
$PYRTM,2024,123.167130020417,14.276777430556
$GNHDT,283.890,T*23
$PYRTM,2024,123.167135752870,14.276783163009
$GNGGA,040040.50,3408.03374491,N,11950.96998802,W,2,12,0.8,7.503,M,-36.925,M,7.4,0135*61
$PYRTM,2024,123.167135752870,14.276783163009
$GNHDT,283.933,T*2B
$PYRTM,2024,123.167141599433,14.276789009572
$GNGGA,040041.00,3408.03401766,N,11950.97119156,W,2,12,0.8,7.674,M,-36.925,M,4.0,0135*67
$PYRTM,2024,123.167141599433,14.276789009572
$GNHDT,283.840,T*2E
$PYRTM,2024,123.167147328056,14.276794738194
$GNGGA,040041.50,3408.03428662,N,11950.97243739,W,2,12,0.8,7.919,M,-36.925,M,4.4,0135*6F
$PYRTM,2024,123.167147328056,14.276794738194
$GNHDT,283.505,T*22
$PYRTM,2024,123.167153174850,14.276800584988
$GNGGA,040042.00,3408.03455033,N,11950.97373064,W,2,12,0.8,8.194,M,-36.925,M,5.0,0135*6B
$PYRTM,2024,123.167153174850,14.276800584988
$GNHDT,283.156,T*20
$PYRTM,2024,123.167158902083,14.276806312222
$GNGGA,040042.50,3408.03482505,N,11950.97503457,W,2,12,0.8,8.403,M,-36.925,M,5.4,0135*6E
$PYRTM,2024,123.167158902083,14.276806312222
$GNHDT,282.974,T*29
$PYRTM,2024,123.167164739074,14.276812149213
$GNGGA,040043.00,3408.03511526,N,11950.97635029,W,2,12,0.8,8.501,M,-36.925,M,6.0,0135*6F
$PYRTM,2024,123.167164739074,14.276812149213
$GNHDT,283.254,T*21
$PYRTM,2024,123.167170483113,14.276817893252
$GNGGA,040043.50,3408.03542352,N,11950.97765775,W,2,12,0.8,8.453,M,-36.925,M,6.4,0135*61
$PYRTM,2024,123.167170483113,14.276817893252
$GNHDT,283.316,T*26
$PYRTM,2024,123.167176316470,14.276823726609
$GNGGA,040044.00,3408.03573009,N,11950.97903443,W,2,12,0.8,8.402,M,-36.925,M,7.0,0135*65
$PYRTM,2024,123.167176316470,14.276823726609
$GNHDT,283.348,T*2D
$PYRTM,2024,123.167182054028,14.276829464167
$GNGGA,040044.50,3408.03605804,N,11950.98035051,W,2,12,0.8,8.379,M,-36.925,M,7.4,0135*6C
$PYRTM,2024,123.167182054028,14.276829464167
$GNHDT,283.263,T*25
$PYRTM,2024,123.167187889664,14.276835299803
$GNGGA,040045.00,3408.03637747,N,11950.98159340,W,2,12,0.8,8.514,M,-36.925,M,7.0,0135*60
$PYRTM,2024,123.167187889664,14.276835299803
$GNHDT,283.284,T*2C
$PYRTM,2024,123.167193629664,14.276841039803
$GNGGA,040045.50,3408.03666627,N,11950.98276615,W,2,12,0.8,8.803,M,-36.925,M,7.4,0135*62
$PYRTM,2024,123.167193629664,14.276841039803
$GNHDT,283.355,T*21
$PYRTM,2024,123.167199469190,14.276846879329
$GNGGA,040046.00,3408.03693365,N,11950.98392206,W,2,12,0.8,9.161,M,-36.925,M,7.0,0135*68
$PYRTM,2024,123.167199469190,14.276846879329
$GNHDT,283.340,T*25
$PYRTM,2024,123.167205197708,14.276852607847
$GNGGA,040046.50,3408.03719801,N,11950.98513234,W,2,12,0.8,9.388,M,-36.925,M,7.4,0135*68
$PYRTM,2024,123.167205197708,14.276852607847
$GNHDT,283.331,T*23
$PYRTM,2024,123.167211039977,14.276858450116
$GNGGA,040047.00,3408.03747807,N,11950.98640695,W,2,12,0.8,9.374,M,-36.925,M,4.0,0135*6F
$PYRTM,2024,123.167211039977,14.276858450116
$GNHDT,283.418,T*2F
$PYRTM,2024,123.167216772940,14.276864183079
$GNGGA,040047.50,3408.03777476,N,11950.98772816,W,2,12,0.8,9.118,M,-36.925,M,4.4,0135*6A
$PYRTM,2024,123.167216772940,14.276864183079
$GNHDT,283.489,T*27
$PYRTM,2024,123.167222615671,14.276870025822
$GNGGA,040048.00,3408.03809601,N,11950.98907614,W,2,12,0.8,8.664,M,-36.925,M,5.0,0135*6C
$PYRTM,2024,123.167222615671,14.276870025822
$GNHDT,283.900,T*2B
$PYRTM,2024,123.167228348738,14.276875758877
$GNGGA,040048.50,3408.03842990,N,11950.99041674,W,2,12,0.8,8.135,M,-36.925,M,5.4,0135*6A
$PYRTM,2024,123.167228348738,14.276875758877
$GNHDT,284.154,T*25
$PYRTM,2024,123.167234186748,14.276881596887
$GNGGA,040049.00,3408.03874780,N,11950.99170112,W,2,12,0.8,7.751,M,-36.925,M,6.0,0135*6C
$PYRTM,2024,123.167234186748,14.276881596887
$GNHDT,284.283,T*2C
$PYRTM,2024,123.167239919259,14.276887329398
$GNGGA,040049.50,3408.03903746,N,11950.99289175,W,2,12,0.8,7.727,M,-36.925,M,6.4,0135*63
$PYRTM,2024,123.167239919259,14.276887329398
$GNHDT,283.951,T*2F
$PYRTM,2024,123.167245765174,14.276893175312
$GNGGA,040050.00,3408.03928584,N,11950.99402334,W,2,12,0.8,8.041,M,-36.925,M,7.0,0135*64
$PYRTM,2024,123.167245765174,14.276893175312
$GNHDT,283.910,T*2A
$PYRTM,2024,123.167251498542,14.276898908681
$GNGGA,040050.50,3408.03951503,N,11950.99514983,W,2,12,0.8,8.502,M,-36.925,M,7.4,0135*66
$PYRTM,2024,123.167251498542,14.276898908681
$GNHDT,283.637,T*20
$PYRTM,2024,123.167257332118,14.276904742257
$GNGGA,040051.00,3408.03973896,N,11950.99633733,W,2,12,0.8,8.897,M,-36.925,M,7.0,0135*65
$PYRTM,2024,123.167257332118,14.276904742257
$GNHDT,283.641,T*21
$PYRTM,2024,123.167263072431,14.276910482569
$GNGGA,040051.50,3408.03999878,N,11950.99762224,W,2,12,0.8,8.978,M,-36.925,M,7.4,0135*66
$PYRTM,2024,123.167263072431,14.276910482569
$GNHDT,283.855,T*2A
$PYRTM,2024,123.167268908785,14.276916318924
$GNGGA,040052.00,3408.04029237,N,11950.99898284,W,2,12,0.8,8.681,M,-36.925,M,7.0,0135*69
$PYRTM,2024,123.167268908785,14.276916318924
$GNHDT,284.017,T*23
$PYRTM,2024,123.167274643553,14.276922053704
$GNGGA,040052.50,3408.04062657,N,11951.00032751,W,2,12,0.8,8.183,M,-36.925,M,7.4,0135*64
$PYRTM,2024,123.167274643553,14.276922053704
$GNHDT,284.377,T*26
$PYRTM,2024,123.167280484711,14.276927894850
$GNGGA,040053.00,3408.04097007,N,11951.00160719,W,2,12,0.8,7.697,M,-36.925,M,4.0,0135*69
$PYRTM,2024,123.167280484711,14.276927894850
$GNHDT,284.249,T*2A
$PYRTM,2024,123.167286214861,14.276933625000
$GNGGA,040053.50,3408.04130252,N,11951.00278684,W,2,12,0.8,7.500,M,-36.925,M,4.4,0135*64
$PYRTM,2024,123.167286214861,14.276933625000
$GNHDT,284.449,T*2C
$PYRTM,2024,123.167292055729,14.276939465868
$GNGGA,040054.00,3408.04159694,N,11951.00387317,W,2,12,0.8,7.673,M,-36.925,M,5.0,0135*6B
$PYRTM,2024,123.167292055729,14.276939465868
$GNHDT,284.276,T*26
$PYRTM,2024,123.167297795081,14.276945205220
$GNGGA,040054.50,3408.04184141,N,11951.00496137,W,2,12,0.8,8.116,M,-36.924,M,5.4,0135*68
$PYRTM,2024,123.167297795081,14.276945205220
$GNHDT,284.071,T*23
$PYRTM,2024,123.167303630174,14.276951040313
$GNGGA,040055.00,3408.04207500,N,11951.00606512,W,2,12,0.8,8.637,M,-36.924,M,6.0,0135*6E
$PYRTM,2024,123.167303630174,14.276951040313
$GNHDT,283.775,T*27
$PYRTM,2024,123.167309366620,14.276956776759
$GNGGA,040055.50,3408.04232282,N,11951.00724859,W,2,12,0.8,9.003,M,-36.924,M,6.4,0135*67
$PYRTM,2024,123.167309366620,14.276956776759
$GNHDT,283.951,T*2F
$PYRTM,2024,123.167315208565,14.276962618704
$GNGGA,040056.00,3408.04261207,N,11951.00853752,W,2,12,0.8,9.010,M,-36.924,M,7.0,0135*66
$PYRTM,2024,123.167315208565,14.276962618704
$GNHDT,284.079,T*2B
$PYRTM,2024,123.167320944583,14.276968354722
$GNGGA,040056.50,3408.04294994,N,11951.00990615,W,2,12,0.8,8.642,M,-36.924,M,7.4,0135*60
$PYRTM,2024,123.167320944583,14.276968354722
$GNHDT,284.148,T*28
$PYRTM,2024,123.167326782014,14.276974192153
$GNGGA,040057.00,3408.04331239,N,11951.01129323,W,2,12,0.8,8.064,M,-36.924,M,7.0,0135*6B
$PYRTM,2024,123.167326782014,14.276974192153
$GNHDT,283.905,T*2E
$PYRTM,2024,123.167332518623,14.276979928773
$GNGGA,040057.50,3408.04366421,N,11951.01263529,W,2,12,0.8,7.527,M,-36.924,M,7.4,0135*6B
$PYRTM,2024,123.167332518623,14.276979928773
$GNHDT,283.542,T*21
$PYRTM,2024,123.167338357326,14.276985767465
$GNGGA,040058.00,3408.04397216,N,11951.01382039,W,2,12,0.8,7.394,M,-36.924,M,7.0,0135*6D
$PYRTM,2024,123.167338357326,14.276985767465
$GNHDT,283.409,T*2F
$PYRTM,2024,123.167344100081,14.276991510220
$GNGGA,040058.50,3408.04421976,N,11951.01492303,W,2,12,0.8,7.740,M,-36.924,M,7.4,0135*6A
$PYRTM,2024,123.167344100081,14.276991510220
$GNHDT,283.224,T*26
$PYRTM,2024,123.167349930961,14.276997341100
$GNGGA,040059.00,3408.04445128,N,11951.01596510,W,2,12,0.8,8.427,M,-36.924,M,4.0,0135*64
$PYRTM,2024,123.167349930961,14.276997341100
$GNHDT,283.071,T*24
$PYRTM,2024,123.167355663218,14.277003073356
$GNGGA,040059.50,3408.04467561,N,11951.01705061,W,2,12,0.8,9.117,M,-36.924,M,4.4,0135*60
$PYRTM,2024,123.167355663218,14.277003073356
$GNHDT,283.194,T*2E
$PYRTM,2024,123.167361502859,14.277008913009
$GNGGA,040100.00,3408.04491736,N,11951.01823087,W,2,12,0.8,9.591,M,-36.924,M,5.0,0135*6D
$PYRTM,2024,123.167361502859,14.277008913009
$GNHDT,283.234,T*27
$PYRTM,2024,123.167367239618,14.277014649757
$GNGGA,040100.50,3408.04518964,N,11951.01951155,W,2,12,0.8,9.670,M,-36.924,M,5.4,0135*63
$PYRTM,2024,123.167367239618,14.277014649757
$GNHDT,283.005,T*27
$PYRTM,2024,123.167373073935,14.277020484074
$GNGGA,040101.00,3408.04550336,N,11951.02081465,W,2,12,0.8,9.354,M,-36.924,M,6.0,0135*63
$PYRTM,2024,123.167373073935,14.277020484074
$GNHDT,282.991,T*22
$PYRTM,2024,123.167378815139,14.277026225278
$GNGGA,040101.50,3408.04583239,N,11951.02211071,W,2,12,0.8,8.745,M,-36.924,M,6.4,0135*6D
$PYRTM,2024,123.167378815139,14.277026225278
$GNHDT,283.575,T*25
$PYRTM,2024,123.167384656458,14.277032066597
$GNGGA,040102.00,3408.04614162,N,11951.02339091,W,2,12,0.8,8.045,M,-36.924,M,7.0,0135*6C
$PYRTM,2024,123.167384656458,14.277032066597
$GNHDT,283.856,T*29
$PYRTM,2024,123.167390384398,14.277037794537
$GNGGA,040102.50,3408.04643377,N,11951.02464701,W,2,12,0.8,7.446,M,-36.924,M,7.4,0135*60
$PYRTM,2024,123.167390384398,14.277037794537
$GNHDT,283.708,T*2D
$PYRTM,2024,123.167396226933,14.277043637072
$GNGGA,040103.00,3408.04671911,N,11951.02588345,W,2,12,0.8,7.108,M,-36.924,M,7.0,0135*63
$PYRTM,2024,123.167396226933,14.277043637072
$GNHDT,283.850,T*2F
$PYRTM,2024,123.167401963611,14.277049373750
$GNGGA,040103.50,3408.04699237,N,11951.02709756,W,2,12,0.8,7.133,M,-36.924,M,7.4,0135*6E
$PYRTM,2024,123.167401963611,14.277049373750
$GNHDT,283.612,T*27
$PYRTM,2024,123.167407803241,14.277055213380
$GNGGA,040104.00,3408.04724936,N,11951.02826959,W,2,12,0.8,7.518,M,-36.924,M,7.0,0135*6B
$PYRTM,2024,123.167407803241,14.277055213380
$GNHDT,283.381,T*28
$PYRTM,2024,123.167413529884,14.277060940023
$GNGGA,040104.50,3408.04747903,N,11951.02942214,W,2,12,0.8,8.073,M,-36.924,M,7.4,0135*6F
$PYRTM,2024,123.167413529884,14.277060940023
$GNHDT,283.299,T*20
$PYRTM,2024,123.167419370312,14.277066780451
$GNGGA,040105.00,3408.04770986,N,11951.03057940,W,2,12,0.8,8.654,M,-36.924,M,4.0,0135*60
$PYRTM,2024,123.167419370312,14.277066780451
$GNHDT,283.459,T*2A
$PYRTM,2024,123.167425110498,14.277072520637
$GNGGA,040105.50,3408.04796514,N,11951.03178727,W,2,12,0.8,9.078,M,-36.924,M,4.4,0135*64
$PYRTM,2024,123.167425110498,14.277072520637
$GNHDT,283.264,T*22
$PYRTM,2024,123.167430947407,14.277078357558
$GNGGA,040106.00,3408.04826921,N,11951.03306656,W,2,12,0.8,9.176,M,-36.924,M,5.0,0135*6A
$PYRTM,2024,123.167430947407,14.277078357558
$GNHDT,283.335,T*27
$PYRTM,2024,123.167436683137,14.277084093275
$GNGGA,040106.50,3408.04861014,N,11951.03436093,W,2,12,0.8,8.998,M,-36.924,M,5.4,0135*65
$PYRTM,2024,123.167436683137,14.277084093275
$GNHDT,283.691,T*2C
$PYRTM,2024,123.167442522072,14.277089932211
$GNGGA,040107.00,3408.04894106,N,11951.03561618,W,2,12,0.8,8.685,M,-36.924,M,6.0,0135*6B
$PYRTM,2024,123.167442522072,14.277089932211
$GNHDT,283.661,T*23
$PYRTM,2024,123.167448253102,14.277095663241
$GNGGA,040107.50,3408.04924081,N,11951.03682541,W,2,12,0.8,8.379,M,-36.924,M,6.4,0135*69
$PYRTM,2024,123.167448253102,14.277095663241
$GNHDT,283.311,T*21
$PYRTM,2024,123.167454093299,14.277101503437
$GNGGA,040108.00,3408.04950410,N,11951.03797817,W,2,12,0.8,8.202,M,-36.924,M,7.0,0135*6F
$PYRTM,2024,123.167454093299,14.277101503437
$GNHDT,283.119,T*2B
$PYRTM,2024,123.167459828588,14.277107238727
$GNGGA,040108.50,3408.04973798,N,11951.03913018,W,2,12,0.8,8.158,M,-36.924,M,7.4,0135*65
$PYRTM,2024,123.167459828588,14.277107238727
$GNHDT,283.291,T*28
$PYRTM,2024,123.167465669861,14.277113080000
$GNGGA,040109.00,3408.04997334,N,11951.04030205,W,2,12,0.8,8.233,M,-36.924,M,7.0,0135*62
$PYRTM,2024,123.167465669861,14.277113080000
$GNHDT,283.291,T*28
$PYRTM,2024,123.167471402002,14.277118812141
$GNGGA,040109.50,3408.05022302,N,11951.04149601,W,2,12,0.8,8.332,M,-36.924,M,7.4,0135*6F
$PYRTM,2024,123.167471402002,14.277118812141
$GNHDT,283.456,T*25
$PYRTM,2024,123.167477244329,14.277124654468
$GNGGA,040110.00,3408.05048998,N,11951.04271091,W,2,12,0.8,8.449,M,-36.924,M,7.0,0135*6F
$PYRTM,2024,123.167477244329,14.277124654468
$GNHDT,283.701,T*24
$PYRTM,2024,123.167482977951,14.277130388090
$GNGGA,040110.50,3408.05077486,N,11951.04394547,W,2,12,0.8,8.525,M,-36.924,M,7.4,0135*6F
$PYRTM,2024,123.167482977951,14.277130388090
$GNHDT,283.608,T*2C
$PYRTM,2024,123.167488814711,14.277136224850
$GNGGA,040111.00,3408.05108707,N,11951.04518740,W,2,12,0.8,8.594,M,-36.924,M,4.0,0135*62
$PYRTM,2024,123.167488814711,14.277136224850
$GNHDT,283.673,T*20
$PYRTM,2024,123.167494559421,14.277141969560
$GNGGA,040111.50,3408.05141092,N,11951.04645162,W,2,12,0.8,8.611,M,-36.924,M,4.4,0135*66
$PYRTM,2024,123.167494559421,14.277141969560
$GNHDT,283.492,T*2D
$PYRTM,2024,123.167500387650,14.277147797789
$GNGGA,040112.00,3408.05173525,N,11951.04773977,W,2,12,0.8,8.605,M,-36.924,M,5.0,0135*60
$PYRTM,2024,123.167500387650,14.277147797789
$GNHDT,283.319,T*29
$PYRTM,2024,123.167506127940,14.277153538079
$GNGGA,040112.50,3408.05204528,N,11951.04905880,W,2,12,0.8,8.528,M,-36.924,M,5.4,0135*65
$PYRTM,2024,123.167506127940,14.277153538079
$GNHDT,283.354,T*20
$PYRTM,2024,123.167511962917,14.277159373056
$GNGGA,040113.00,3408.05234855,N,11951.05037168,W,2,12,0.8,8.468,M,-36.924,M,6.0,0135*61
$PYRTM,2024,123.167511962917,14.277159373056
$GNHDT,283.392,T*2A
$PYRTM,2024,123.167517701053,14.277165111204
$GNGGA,040113.50,3408.05263570,N,11951.05166313,W,2,12,0.8,8.442,M,-36.924,M,6.4,0135*6B
$PYRTM,2024,123.167517701053,14.277165111204
$GNHDT,283.377,T*21
$PYRTM,2024,123.167523539236,14.277170949375
$GNGGA,040114.00,3408.05293316,N,11951.05291048,W,2,12,0.8,8.536,M,-36.924,M,7.0,0135*61
$PYRTM,2024,123.167523539236,14.277170949375
$GNHDT,283.522,T*27
$PYRTM,2024,123.167529278507,14.277176688646
$GNGGA,040114.50,3408.05323931,N,11951.05412829,W,2,12,0.8,8.713,M,-36.924,M,7.4,0135*62
$PYRTM,2024,123.167529278507,14.277176688646
$GNHDT,283.445,T*27
$PYRTM,2024,123.167535111748,14.277182521887
$GNGGA,040115.00,3408.05354849,N,11951.05530830,W,2,12,0.8,8.998,M,-36.924,M,7.0,0135*68
$PYRTM,2024,123.167535111748,14.277182521887
$GNHDT,283.525,T*20
$PYRTM,2024,123.167540848472,14.277188258611
$GNGGA,040115.50,3408.05384504,N,11951.05647361,W,2,12,0.8,9.288,M,-36.924,M,7.4,0135*67
$PYRTM,2024,123.167540848472,14.277188258611
$GNHDT,283.720,T*27
$PYRTM,2024,123.167546690718,14.277194100856
$GNGGA,040116.00,3408.05413081,N,11951.05764872,W,2,12,0.8,9.544,M,-36.924,M,7.0,0135*6A
$PYRTM,2024,123.167546690718,14.277194100856
$GNHDT,284.095,T*29
$PYRTM,2024,123.167552419907,14.277199830046
$GNGGA,040116.50,3408.05442144,N,11951.05887361,W,2,12,0.8,9.592,M,-36.924,M,7.4,0135*67
$PYRTM,2024,123.167552419907,14.277199830046
$GNHDT,283.833,T*2A
$PYRTM,2024,123.167558259537,14.277205669676
$GNGGA,040117.00,3408.05471471,N,11951.06013768,W,2,12,0.8,9.462,M,-36.924,M,4.0,0135*62
$PYRTM,2024,123.167558259537,14.277205669676
$GNHDT,283.895,T*26
$PYRTM,2024,123.167563994988,14.277211405127
$GNGGA,040117.50,3408.05499527,N,11951.06141026,W,2,12,0.8,9.216,M,-36.924,M,4.4,0135*69
$PYRTM,2024,123.167563994988,14.277211405127
$GNHDT,284.064,T*27
$PYRTM,2024,123.167569834387,14.277217244525
$GNGGA,040118.00,3408.05524338,N,11951.06267215,W,2,12,0.8,8.941,M,-36.924,M,5.0,0135*64
$PYRTM,2024,123.167569834387,14.277217244525
$GNHDT,283.938,T*20
$PYRTM,2024,123.167575567523,14.277222977662
$GNGGA,040118.50,3408.05548445,N,11951.06391290,W,2,12,0.8,8.722,M,-36.924,M,5.4,0135*6C
$PYRTM,2024,123.167575567523,14.277222977662
$GNHDT,283.974,T*28
$PYRTM,2024,123.167581408275,14.277228818414
$GNGGA,040119.00,3408.05572841,N,11951.06516865,W,2,12,0.8,8.542,M,-36.924,M,6.0,0135*63
$PYRTM,2024,123.167581408275,14.277228818414
$GNHDT,283.957,T*29
$PYRTM,2024,123.167587144410,14.277234554549
$GNGGA,040119.50,3408.05599932,N,11951.06645559,W,2,12,0.8,8.393,M,-36.924,M,6.4,0135*6F
$PYRTM,2024,123.167587144410,14.277234554549
$GNHDT,283.656,T*27
$PYRTM,2024,123.167592983044,14.277240393183
$GNGGA,040120.00,3408.05630974,N,11951.06777892,W,2,12,0.8,8.262,M,-36.924,M,7.0,0135*62
$PYRTM,2024,123.167592983044,14.277240393183
$GNHDT,283.780,T*2D
$PYRTM,2024,123.167598719769,14.277246129907
$GNGGA,040120.50,3408.05665313,N,11951.06909041,W,2,12,0.8,8.228,M,-36.924,M,7.4,0135*67
$PYRTM,2024,123.167598719769,14.277246129907
$GNHDT,283.640,T*20
$PYRTM,2024,123.167604556065,14.277251966204
$GNGGA,040121.00,3408.05701183,N,11951.07032097,W,2,12,0.8,8.380,M,-36.924,M,7.0,0135*67
$PYRTM,2024,123.167604556065,14.277251966204
$GNHDT,283.579,T*29
$PYRTM,2024,123.167610291343,14.277257701481
$GNGGA,040121.50,3408.05734433,N,11951.07152472,W,2,12,0.8,8.722,M,-36.924,M,7.4,0135*6A
$PYRTM,2024,123.167610291343,14.277257701481
$GNHDT,283.582,T*2D
$PYRTM,2024,123.167616131157,14.277263541308
$GNGGA,040122.00,3408.05767073,N,11951.07270824,W,2,12,0.8,9.126,M,-36.924,M,7.0,0135*61
$PYRTM,2024,123.167616131157,14.277263541308
$GNHDT,283.661,T*23
$PYRTM,2024,123.167621868484,14.277269278623
$GNGGA,040122.50,3408.05798131,N,11951.07395057,W,2,12,0.8,9.476,M,-36.924,M,7.4,0135*61
$PYRTM,2024,123.167621868484,14.277269278623
$GNHDT,283.524,T*21
$PYRTM,2024,123.167627705926,14.277275116076
$GNGGA,040123.00,3408.05831099,N,11951.07520409,W,2,12,0.8,9.697,M,-36.924,M,4.0,0135*67
$PYRTM,2024,123.167627705926,14.277275116076
$GNHDT,283.696,T*2B
$PYRTM,2024,123.167633443275,14.277280853414
$GNGGA,040123.50,3408.05862848,N,11951.07648185,W,2,12,0.8,9.748,M,-36.924,M,4.4,0135*6B
$PYRTM,2024,123.167633443275,14.277280853414
$GNHDT,284.154,T*25
$PYRTM,2024,123.167639281435,14.277286691574
$GNGGA,040124.00,3408.05892989,N,11951.07774235,W,2,12,0.8,9.687,M,-36.924,M,5.0,0135*6B
$PYRTM,2024,123.167639281435,14.277286691574
$GNHDT,284.204,T*23
$PYRTM,2024,123.167645013750,14.277292423900
$GNGGA,040124.50,3408.05922710,N,11951.07895969,W,2,12,0.8,9.585,M,-36.924,M,5.4,0135*6D
$PYRTM,2024,123.167645013750,14.277292423900
$GNHDT,284.040,T*21
$PYRTM,2024,123.167650853264,14.277298263403
$GNGGA,040125.00,3408.05952030,N,11951.08015870,W,2,12,0.8,9.448,M,-36.924,M,6.0,0135*6A
$PYRTM,2024,123.167650853264,14.277298263403
$GNHDT,284.085,T*28
$PYRTM,2024,123.167656587164,14.277303997303
$GNGGA,040125.50,3408.05981347,N,11951.08137048,W,2,12,0.8,9.283,M,-36.924,M,6.4,0135*65
$PYRTM,2024,123.167656587164,14.277303997303
$GNHDT,284.057,T*27
$PYRTM,2024,123.167662426088,14.277309836227
$GNGGA,040126.00,3408.06010492,N,11951.08263131,W,2,12,0.8,9.029,M,-36.924,M,7.0,0135*64
$PYRTM,2024,123.167662426088,14.277309836227
$GNHDT,284.222,T*27
$PYRTM,2024,123.167668160868,14.277315571007
$GNGGA,040126.50,3408.06041107,N,11951.08393236,W,2,12,0.8,8.732,M,-36.924,M,7.4,0135*6E
$PYRTM,2024,123.167668160868,14.277315571007
$GNHDT,283.992,T*20
$PYRTM,2024,123.167673998437,14.277321408576
$GNGGA,040127.00,3408.06071707,N,11951.08527678,W,2,12,0.8,8.393,M,-36.924,M,7.0,0135*63
$PYRTM,2024,123.167673998437,14.277321408576
$GNHDT,283.954,T*2A
$PYRTM,2024,123.167679739063,14.277327149201
$GNGGA,040127.50,3408.06102624,N,11951.08661297,W,2,12,0.8,8.135,M,-36.924,M,7.4,0135*6D
$PYRTM,2024,123.167679739063,14.277327149201
$GNHDT,284.034,T*22
$PYRTM,2024,123.167685576134,14.277332986285
$GNGGA,040128.00,3408.06131660,N,11951.08790831,W,2,12,0.8,8.104,M,-36.924,M,7.0,0135*68
$PYRTM,2024,123.167685576134,14.277332986285
$GNHDT,284.129,T*2F
$PYRTM,2024,123.167691314942,14.277338725081
$GNGGA,040128.50,3408.06158412,N,11951.08912399,W,2,12,0.8,8.383,M,-36.924,M,7.4,0135*61
$PYRTM,2024,123.167691314942,14.277338725081
$GNHDT,283.828,T*20
$PYRTM,2024,123.167697149525,14.277344559676
$GNGGA,040129.00,3408.06183716,N,11951.09029011,W,2,12,0.8,8.858,M,-36.924,M,4.0,0135*6D
$PYRTM,2024,123.167697149525,14.277344559676
$GNHDT,284.033,T*25
$PYRTM,2024,123.167702885914,14.277350296053
$GNGGA,040129.50,3408.06209166,N,11951.09146765,W,2,12,0.8,9.370,M,-36.924,M,4.4,0135*60
$PYRTM,2024,123.167702885914,14.277350296053
$GNHDT,283.703,T*26
$PYRTM,2024,123.167708726435,14.277356136574
$GNGGA,040130.00,3408.06237391,N,11951.09273077,W,2,12,0.8,9.594,M,-36.924,M,5.0,0135*62
$PYRTM,2024,123.167708726435,14.277356136574
$GNHDT,283.422,T*26
$PYRTM,2024,123.167714464699,14.277361874838
$GNGGA,040130.50,3408.06269158,N,11951.09408349,W,2,12,0.8,9.402,M,-36.924,M,5.4,0135*65
$PYRTM,2024,123.167714464699,14.277361874838
$GNHDT,283.854,T*2B
$PYRTM,2024,123.167720300694,14.277367710833
$GNGGA,040131.00,3408.06302288,N,11951.09549102,W,2,12,0.8,8.885,M,-36.924,M,6.0,0135*6F
$PYRTM,2024,123.167720300694,14.277367710833
$GNHDT,283.987,T*24
$PYRTM,2024,123.167726035799,14.277373445949
$GNGGA,040131.50,3408.06336585,N,11951.09686661,W,2,12,0.8,8.271,M,-36.924,M,6.4,0135*60
$PYRTM,2024,123.167726035799,14.277373445949
$GNHDT,283.971,T*2D
$PYRTM,2024,123.167731873669,14.277379283808
$GNGGA,040132.00,3408.06371184,N,11951.09811830,W,2,12,0.8,7.869,M,-36.924,M,7.0,0135*63
$PYRTM,2024,123.167731873669,14.277379283808
$GNHDT,284.019,T*2D
$PYRTM,2024,123.167737607581,14.277385017720
$GNGGA,040132.50,3408.06401430,N,11951.09928530,W,2,12,0.8,7.835,M,-36.924,M,7.4,0135*67
$PYRTM,2024,123.167737607581,14.277385017720
$GNHDT,283.896,T*25
$PYRTM,2024,123.167743450498,14.277390860637
$GNGGA,040133.00,3408.06429313,N,11951.10036871,W,2,12,0.8,8.201,M,-36.924,M,7.0,0135*6F
$PYRTM,2024,123.167743450498,14.277390860637
$GNHDT,283.629,T*2F
$PYRTM,2024,123.167749180937,14.277396591076
$GNGGA,040133.50,3408.06459551,N,11951.10146367,W,2,12,0.8,8.696,M,-36.924,M,7.4,0135*69
$PYRTM,2024,123.167749180937,14.277396591076
$GNHDT,284.162,T*20
$PYRTM,2024,123.167755022789,14.277402432928
$GNGGA,040134.00,3408.06491173,N,11951.10264500,W,2,12,0.8,9.084,M,-36.924,M,7.0,0135*6F
$PYRTM,2024,123.167755022789,14.277402432928
$GNHDT,284.155,T*24
$PYRTM,2024,123.167760753924,14.277408164062
$GNGGA,040134.50,3408.06522704,N,11951.10396850,W,2,12,0.8,9.203,M,-36.924,M,7.4,0135*68
$PYRTM,2024,123.167760753924,14.277408164062
$GNHDT,283.783,T*2E
$PYRTM,2024,123.167766595995,14.277414006123
$GNGGA,040135.00,3408.06554060,N,11951.10530491,W,2,12,0.8,9.115,M,-36.924,M,4.0,0135*60
$PYRTM,2024,123.167766595995,14.277414006123
$GNHDT,283.774,T*26
$PYRTM,2024,123.167772328970,14.277419739109
$GNGGA,040135.50,3408.06582894,N,11951.10660438,W,2,12,0.8,8.972,M,-36.924,M,4.4,0135*64
$PYRTM,2024,123.167772328970,14.277419739109
$GNHDT,283.912,T*28
$PYRTM,2024,123.167778167130,14.277425577280
$GNGGA,040136.00,3408.06609550,N,11951.10780933,W,2,12,0.8,8.927,M,-36.924,M,5.0,0135*6B
$PYRTM,2024,123.167778167130,14.277425577280
$GNHDT,283.896,T*25
$PYRTM,2024,123.167783908634,14.277431318773
$GNGGA,040136.50,3408.06634911,N,11951.10892285,W,2,12,0.8,9.039,M,-36.924,M,5.4,0135*60
$PYRTM,2024,123.167783908634,14.277431318773
$GNHDT,283.881,T*23
$PYRTM,2024,123.167789743958,14.277437154097
$GNGGA,040137.00,3408.06658643,N,11951.11001833,W,2,12,0.8,9.244,M,-36.923,M,6.0,0135*6A
$PYRTM,2024,123.167789743958,14.277437154097
$GNHDT,283.993,T*21
$PYRTM,2024,123.167795478947,14.277442889086
$GNGGA,040137.50,3408.06683033,N,11951.11116001,W,2,12,0.8,9.368,M,-36.923,M,6.4,0135*6D
$PYRTM,2024,123.167795478947,14.277442889086
$GNHDT,283.898,T*2B
$PYRTM,2024,123.167801321053,14.277448731192
$GNGGA,040138.00,3408.06710559,N,11951.11241576,W,2,12,0.8,9.209,M,-36.923,M,7.0,0135*62
$PYRTM,2024,123.167801321053,14.277448731192
$GNHDT,283.654,T*25
$PYRTM,2024,123.167807056111,14.277454466250
$GNGGA,040138.50,3408.06741007,N,11951.11375115,W,2,12,0.8,8.768,M,-36.923,M,7.4,0135*6D
$PYRTM,2024,123.167807056111,14.277454466250
$GNHDT,284.008,T*2D
$PYRTM,2024,123.167812889444,14.277460299583
$GNGGA,040139.00,3408.06772247,N,11951.11508549,W,2,12,0.8,8.230,M,-36.923,M,7.0,0135*62
$PYRTM,2024,123.167812889444,14.277460299583
$GNHDT,283.990,T*22
$PYRTM,2024,123.167818627558,14.277466037697
$GNGGA,040139.50,3408.06803735,N,11951.11637578,W,2,12,0.8,7.797,M,-36.923,M,7.4,0135*60
$PYRTM,2024,123.167818627558,14.277466037697
$GNHDT,283.869,T*25
$PYRTM,2024,123.167824463322,14.277471873461
$GNGGA,040140.00,3408.06833323,N,11951.11759688,W,2,12,0.8,7.680,M,-36.923,M,7.0,0135*6D
$PYRTM,2024,123.167824463322,14.277471873461
$GNHDT,283.927,T*2E
$PYRTM,2024,123.167830204595,14.277477614745
$GNGGA,040140.50,3408.06861146,N,11951.11878644,W,2,12,0.8,7.865,M,-36.923,M,7.4,0135*63
$PYRTM,2024,123.167830204595,14.277477614745
$GNHDT,283.642,T*22
$PYRTM,2024,123.167836049178,14.277483459317
$GNGGA,040141.00,3408.06887703,N,11951.11999247,W,2,12,0.8,8.223,M,-36.923,M,4.0,0135*61
$PYRTM,2024,123.167836049178,14.277483459317
$GNHDT,283.845,T*2B
$PYRTM,2024,123.167841778137,14.277489188275
$GNGGA,040141.50,3408.06914474,N,11951.12126365,W,2,12,0.8,8.608,M,-36.923,M,4.4,0135*6B
$PYRTM,2024,123.167841778137,14.277489188275
$GNHDT,283.603,T*27
$PYRTM,2024,123.167847613519,14.277495023657
$GNGGA,040142.00,3408.06942683,N,11951.12255994,W,2,12,0.8,8.901,M,-36.923,M,5.0,0135*64
$PYRTM,2024,123.167847613519,14.277495023657
$GNHDT,283.526,T*23
$PYRTM,2024,123.167853347049,14.277500757187
$GNGGA,040142.50,3408.06972464,N,11951.12383850,W,2,12,0.8,9.086,M,-36.923,M,5.4,0135*69
$PYRTM,2024,123.167853347049,14.277500757187
$GNHDT,283.758,T*28
$PYRTM,2024,123.167859188681,14.277506598819
$GNGGA,040143.00,3408.07002223,N,11951.12509204,W,2,12,0.8,9.184,M,-36.923,M,6.0,0135*6C
$PYRTM,2024,123.167859188681,14.277506598819
$GNHDT,283.925,T*2C
$PYRTM,2024,123.167864920208,14.277512330347
$GNGGA,040143.50,3408.07032149,N,11951.12632175,W,2,12,0.8,9.226,M,-36.923,M,6.4,0135*64
$PYRTM,2024,123.167864920208,14.277512330347
$GNHDT,283.917,T*2D
$PYRTM,2024,123.167870759352,14.277518169491
$GNGGA,040144.00,3408.07060937,N,11951.12751612,W,2,12,0.8,9.234,M,-36.923,M,7.0,0135*64
$PYRTM,2024,123.167870759352,14.277518169491
$GNHDT,283.800,T*2A
$PYRTM,2024,123.167876501424,14.277523911574
$GNGGA,040144.50,3408.07089857,N,11951.12868217,W,2,12,0.8,9.235,M,-36.923,M,7.4,0135*60
$PYRTM,2024,123.167876501424,14.277523911574
$GNHDT,283.826,T*2E
$PYRTM,2024,123.167882331227,14.277529741366
$GNGGA,040145.00,3408.07118870,N,11951.12984215,W,2,12,0.8,9.200,M,-36.923,M,7.0,0135*6B
$PYRTM,2024,123.167882331227,14.277529741366
$GNHDT,283.802,T*28
$PYRTM,2024,123.167888068692,14.277535478843
$GNGGA,040145.50,3408.07147334,N,11951.13102739,W,2,12,0.8,9.080,M,-36.923,M,7.4,0135*6D
$PYRTM,2024,123.167888068692,14.277535478843
$GNHDT,283.819,T*22
$PYRTM,2024,123.167893908310,14.277541318449
$GNGGA,040146.00,3408.07175285,N,11951.13226456,W,2,12,0.8,8.821,M,-36.923,M,7.0,0135*68
$PYRTM,2024,123.167893908310,14.277541318449
$GNHDT,284.015,T*21
$PYRTM,2024,123.167899647037,14.277547057176
$GNGGA,040146.50,3408.07204681,N,11951.13356199,W,2,12,0.8,8.406,M,-36.923,M,7.4,0135*65
$PYRTM,2024,123.167899647037,14.277547057176
$GNHDT,284.138,T*2F
$PYRTM,2024,123.167905488924,14.277552899062
$GNGGA,040147.00,3408.07235570,N,11951.13488634,W,2,12,0.8,7.925,M,-36.923,M,4.0,0135*6E
$PYRTM,2024,123.167905488924,14.277552899062
$GNHDT,284.205,T*22
$PYRTM,2024,123.167911224444,14.277558634583
$GNGGA,040147.50,3408.07267003,N,11951.13619226,W,2,12,0.8,7.576,M,-36.923,M,4.4,0135*6E
$PYRTM,2024,123.167911224444,14.277558634583
$GNHDT,284.222,T*27
$PYRTM,2024,123.167917063391,14.277564473530
$GNGGA,040148.00,3408.07297439,N,11951.13745230,W,2,12,0.8,7.495,M,-36.923,M,5.0,0135*60
$PYRTM,2024,123.167917063391,14.277564473530
$GNHDT,284.177,T*24
$PYRTM,2024,123.167922800394,14.277570210544
$GNGGA,040148.50,3408.07328109,N,11951.13867945,W,2,12,0.8,7.654,M,-36.923,M,5.4,0135*6B
$PYRTM,2024,123.167922800394,14.277570210544
$GNHDT,284.117,T*22
$PYRTM,2024,123.167928632870,14.277576043009
$GNGGA,040149.00,3408.07359548,N,11951.13990200,W,2,12,0.8,7.977,M,-36.923,M,6.0,0135*62
$PYRTM,2024,123.167928632870,14.277576043009
$GNHDT,284.189,T*25
$PYRTM,2024,123.167934372419,14.277581782558
$GNGGA,040149.50,3408.07392108,N,11951.14113681,W,2,12,0.8,8.362,M,-36.923,M,6.4,0135*6C
$PYRTM,2024,123.167934372419,14.277581782558
$GNHDT,284.037,T*21
$PYRTM,2024,123.167940205451,14.277587615590
$GNGGA,040150.00,3408.07425371,N,11951.14237930,W,2,12,0.8,8.715,M,-36.923,M,7.0,0135*67
$PYRTM,2024,123.167940205451,14.277587615590
$GNHDT,283.907,T*2C
$PYRTM,2024,123.167945943194,14.277593353333
$GNGGA,040150.50,3408.07459728,N,11951.14363136,W,2,12,0.8,8.911,M,-36.923,M,7.4,0135*61
$PYRTM,2024,123.167945943194,14.277593353333
$GNHDT,284.507,T*27
$PYRTM,2024,123.167951776192,14.277599186331
$GNGGA,040151.00,3408.07494130,N,11951.14490558,W,2,12,0.8,8.858,M,-36.923,M,7.0,0135*64
$PYRTM,2024,123.167951776192,14.277599186331
$GNHDT,284.284,T*2B
$PYRTM,2024,123.167957516944,14.277604927083
$GNGGA,040151.50,3408.07527433,N,11951.14618693,W,2,12,0.8,8.719,M,-36.923,M,7.4,0135*66
$PYRTM,2024,123.167957516944,14.277604927083
$GNHDT,284.327,T*23
$PYRTM,2024,123.167963354410,14.277610764549
$GNGGA,040152.00,3408.07558639,N,11951.14741742,W,2,12,0.8,8.604,M,-36.923,M,7.0,0135*69
$PYRTM,2024,123.167963354410,14.277610764549
$GNHDT,284.254,T*26
$PYRTM,2024,123.167969087523,14.277616497674
$GNGGA,040152.50,3408.07586789,N,11951.14859321,W,2,12,0.8,8.620,M,-36.923,M,7.4,0135*60
$PYRTM,2024,123.167969087523,14.277616497674
$GNHDT,284.408,T*29
$PYRTM,2024,123.167974936285,14.277622346424
$GNGGA,040153.00,3408.07611985,N,11951.14972931,W,2,12,0.8,8.758,M,-36.923,M,4.0,0135*61
$PYRTM,2024,123.167974936285,14.277622346424
$GNHDT,284.641,T*26
$PYRTM,2024,123.167980667118,14.277628077257
$GNGGA,040153.50,3408.07637050,N,11951.15086628,W,2,12,0.8,8.936,M,-36.923,M,4.4,0135*67
$PYRTM,2024,123.167980667118,14.277628077257
$GNHDT,284.420,T*23
$PYRTM,2024,123.167986504109,14.277633914248
$GNGGA,040154.00,3408.07667096,N,11951.15204142,W,2,12,0.8,8.983,M,-36.923,M,5.0,0135*62
$PYRTM,2024,123.167986504109,14.277633914248
$GNHDT,284.374,T*25
$PYRTM,2024,123.167992237164,14.277639647303
$GNGGA,040154.50,3408.07699629,N,11951.15329054,W,2,12,0.8,8.802,M,-36.923,M,5.4,0135*60
$PYRTM,2024,123.167992237164,14.277639647303
$GNHDT,284.256,T*24
$PYRTM,2024,123.167998075046,14.277645485197
$GNGGA,040155.00,3408.07732204,N,11951.15461713,W,2,12,0.8,8.442,M,-36.923,M,6.0,0135*6F
$PYRTM,2024,123.167998075046,14.277645485197
$GNHDT,284.183,T*2F
$PYRTM,2024,123.168003812407,14.277651222546
$GNGGA,040155.50,3408.07764877,N,11951.15596873,W,2,12,0.8,7.984,M,-36.923,M,6.4,0135*6B
$PYRTM,2024,123.168003812407,14.277651222546
$GNHDT,284.240,T*23
$PYRTM,2024,123.168009649630,14.277657059769
$GNGGA,040156.00,3408.07799266,N,11951.15726333,W,2,12,0.8,7.641,M,-36.923,M,7.0,0135*60
$PYRTM,2024,123.168009649630,14.277657059769
$GNHDT,284.294,T*2A
$PYRTM,2024,123.168015392500,14.277662802639
$GNGGA,040156.50,3408.07833864,N,11951.15850499,W,2,12,0.8,7.559,M,-36.923,M,7.4,0135*65
$PYRTM,2024,123.168015392500,14.277662802639
$GNHDT,284.450,T*24
$PYRTM,2024,123.168021230162,14.277668640313
$GNGGA,040157.00,3408.07868695,N,11951.15969286,W,2,12,0.8,7.774,M,-36.923,M,7.0,0135*65
$PYRTM,2024,123.168021230162,14.277668640313
$GNHDT,284.399,T*26
$PYRTM,2024,123.168026968854,14.277674378993
$GNGGA,040157.50,3408.07903214,N,11951.16088089,W,2,12,0.8,8.151,M,-36.923,M,7.4,0135*63
$PYRTM,2024,123.168026968854,14.277674378993
$GNHDT,284.439,T*2B
$PYRTM,2024,123.168032804560,14.277680214699
$GNGGA,040158.00,3408.07937136,N,11951.16209661,W,2,12,0.8,8.599,M,-36.923,M,7.0,0135*62
$PYRTM,2024,123.168032804560,14.277680214699
$GNHDT,284.580,T*28
$PYRTM,2024,123.168038537292,14.277685947431
$GNGGA,040158.50,3408.07970276,N,11951.16336231,W,2,12,0.8,8.935,M,-36.923,M,7.4,0135*61
$PYRTM,2024,123.168038537292,14.277685947431
$GNHDT,284.406,T*27
$PYRTM,2024,123.168044373889,14.277691784028
$GNGGA,040159.00,3408.08001550,N,11951.16468360,W,2,12,0.8,9.069,M,-36.923,M,4.0,0135*69
$PYRTM,2024,123.168044373889,14.277691784028
$GNHDT,284.351,T*22
$PYRTM,2024,123.168050116030,14.277697526169
$GNGGA,040159.50,3408.08030479,N,11951.16603901,W,2,12,0.8,9.019,M,-36.923,M,4.4,0135*65
$PYRTM,2024,123.168050116030,14.277697526169
$GNHDT,284.361,T*21
$PYRTM,2024,123.168055946620,14.277703356771
$GNGGA,040200.00,3408.08058671,N,11951.16737297,W,2,12,0.8,8.891,M,-36.923,M,5.0,0135*65
$PYRTM,2024,123.168055946620,14.277703356771
$GNHDT,284.229,T*2C
$PYRTM,2024,123.168061685382,14.277709095521
$GNGGA,040200.50,3408.08087817,N,11951.16863480,W,2,12,0.8,8.789,M,-36.923,M,5.4,0135*60
$PYRTM,2024,123.168061685382,14.277709095521
$GNHDT,284.272,T*22
$PYRTM,2024,123.168067522708,14.277714932859
$GNGGA,040201.00,3408.08119190,N,11951.16983218,W,2,12,0.8,8.752,M,-36.923,M,6.0,0135*6D
$PYRTM,2024,123.168067522708,14.277714932859
$GNHDT,284.148,T*28
$PYRTM,2024,123.168073257419,14.277720667558
$GNGGA,040201.50,3408.08153080,N,11951.17099216,W,2,12,0.8,8.787,M,-36.923,M,6.4,0135*67
$PYRTM,2024,123.168073257419,14.277720667558
$GNHDT,284.291,T*2F
$PYRTM,2024,123.168079098866,14.277726509005
$GNGGA,040202.00,3408.08188615,N,11951.17214881,W,2,12,0.8,8.795,M,-36.923,M,7.0,0135*68
$PYRTM,2024,123.168079098866,14.277726509005
$GNHDT,284.200,T*27
$PYRTM,2024,123.168084832257,14.277732242396
$GNGGA,040202.50,3408.08224170,N,11951.17334212,W,2,12,0.8,8.735,M,-36.923,M,7.4,0135*61
$PYRTM,2024,123.168084832257,14.277732242396
$GNHDT,284.019,T*2D
$PYRTM,2024,123.168090665081,14.277738075231
$GNGGA,040203.00,3408.08257286,N,11951.17459836,W,2,12,0.8,8.551,M,-36.923,M,7.0,0135*6F
$PYRTM,2024,123.168090665081,14.277738075231
$GNHDT,284.044,T*25
$PYRTM,2024,123.168096404051,14.277743814190
$GNGGA,040203.50,3408.08287223,N,11951.17591976,W,2,12,0.8,8.237,M,-36.923,M,7.4,0135*6B
$PYRTM,2024,123.168096404051,14.277743814190
$GNHDT,284.009,T*2C
$PYRTM,2024,123.168102252546,14.277749662685
$GNGGA,040204.00,3408.08314717,N,11951.17726771,W,2,12,0.8,7.882,M,-36.923,M,7.0,0135*68
$PYRTM,2024,123.168102252546,14.277749662685
$GNHDT,284.013,T*27
$PYRTM,2024,123.168107973958,14.277755384097
$GNGGA,040204.50,3408.08340963,N,11951.17860134,W,2,12,0.8,7.667,M,-36.923,M,7.4,0135*6A
$PYRTM,2024,123.168107973958,14.277755384097
$GNHDT,283.893,T*20
$PYRTM,2024,123.168113817002,14.277761227141
$GNGGA,040205.00,3408.08367578,N,11951.17990382,W,2,12,0.8,7.659,M,-36.923,M,4.0,0135*66
$PYRTM,2024,123.168113817002,14.277761227141
$GNHDT,283.863,T*2F
$PYRTM,2024,123.168119553287,14.277766963426
$GNGGA,040205.50,3408.08398938,N,11951.18114918,W,2,12,0.8,7.842,M,-36.923,M,4.4,0135*69
$PYRTM,2024,123.168119553287,14.277766963426
$GNHDT,283.891,T*22
$PYRTM,2024,123.168125390347,14.277772800486
$GNGGA,040206.00,3408.08434277,N,11951.18238089,W,2,12,0.8,8.153,M,-36.923,M,5.0,0135*61
$PYRTM,2024,123.168125390347,14.277772800486
$GNHDT,283.882,T*20
$PYRTM,2024,123.168131126250,14.277778536400
$GNGGA,040206.50,3408.08472364,N,11951.18361203,W,2,12,0.8,8.484,M,-36.923,M,5.4,0135*63
$PYRTM,2024,123.168131126250,14.277778536400
$GNHDT,283.873,T*2E
$PYRTM,2024,123.168136965498,14.277784375637
$GNGGA,040207.00,3408.08511039,N,11951.18483730,W,2,12,0.8,8.783,M,-36.923,M,6.0,0135*65
$PYRTM,2024,123.168136965498,14.277784375637
$GNHDT,284.012,T*26
$PYRTM,2024,123.168142699155,14.277790109294
$GNGGA,040207.50,3408.08547150,N,11951.18604546,W,2,12,0.8,9.048,M,-36.923,M,6.4,0135*66
$PYRTM,2024,123.168142699155,14.277790109294
$GNHDT,283.735,T*23
$PYRTM,2024,123.168148536887,14.277795947025
$GNGGA,040208.00,3408.08579736,N,11951.18723017,W,2,12,0.8,9.249,M,-36.923,M,7.0,0135*64
$PYRTM,2024,123.168148536887,14.277795947025
$GNHDT,283.737,T*21
$PYRTM,2024,123.168154283692,14.277801693831
$GNGGA,040208.50,3408.08608187,N,11951.18845289,W,2,12,0.8,9.296,M,-36.923,M,7.4,0135*64
$PYRTM,2024,123.168154283692,14.277801693831
$GNHDT,283.506,T*21
$PYRTM,2024,123.168160109907,14.277807520058
$GNGGA,040209.00,3408.08634139,N,11951.18974255,W,2,12,0.8,9.104,M,-36.923,M,7.0,0135*64
$PYRTM,2024,123.168160109907,14.277807520058
$GNHDT,283.530,T*24
$PYRTM,2024,123.168165853345,14.277813263484
$GNGGA,040209.50,3408.08661065,N,11951.19109348,W,2,12,0.8,8.701,M,-36.923,M,7.4,0135*61
$PYRTM,2024,123.168165853345,14.277813263484
$GNHDT,283.769,T*2A
$PYRTM,2024,123.168171686181,14.277819096319
$GNGGA,040210.00,3408.08689548,N,11951.19246162,W,2,12,0.8,8.153,M,-36.923,M,7.0,0135*67
$PYRTM,2024,123.168171686181,14.277819096319
$GNHDT,283.759,T*29
$PYRTM,2024,123.168177420579,14.277824830729
$GNGGA,040210.50,3408.08720973,N,11951.19379045,W,2,12,0.8,7.619,M,-36.923,M,7.4,0135*6F
$PYRTM,2024,123.168177420579,14.277824830729
$GNHDT,283.601,T*25
$PYRTM,2024,123.168183259213,14.277830669352
$GNGGA,040211.00,3408.08752394,N,11951.19509632,W,2,12,0.8,7.279,M,-36.923,M,4.0,0135*6F
$PYRTM,2024,123.168183259213,14.277830669352
$GNHDT,283.470,T*21
$PYRTM,2024,123.168188996562,14.277836406701
$GNGGA,040211.50,3408.08783581,N,11951.19636141,W,2,12,0.8,7.263,M,-36.923,M,4.4,0135*67
$PYRTM,2024,123.168188996562,14.277836406701
$GNHDT,283.350,T*24
$PYRTM,2024,123.168194840475,14.277842250613
$GNGGA,040212.00,3408.08814267,N,11951.19759643,W,2,12,0.8,7.530,M,-36.923,M,5.0,0135*66
$PYRTM,2024,123.168194840475,14.277842250613
$GNHDT,283.234,T*27
$PYRTM,2024,123.168200575972,14.277847986111
$GNGGA,040212.50,3408.08845224,N,11951.19879566,W,2,12,0.8,8.008,M,-36.923,M,5.4,0135*6C
$PYRTM,2024,123.168200575972,14.277847986111
$GNHDT,282.914,T*2F
$PYRTM,2024,123.168206411574,14.277853821713
$GNGGA,040213.00,3408.08875902,N,11951.20000190,W,2,12,0.8,8.545,M,-36.923,M,6.0,0135*6E
$PYRTM,2024,123.168206411574,14.277853821713
$GNHDT,282.487,T*28
$PYRTM,2024,123.168212142176,14.277859552326
$GNGGA,040213.50,3408.08906029,N,11951.20125814,W,2,12,0.8,8.975,M,-36.923,M,6.4,0135*66
$PYRTM,2024,123.168212142176,14.277859552326
$GNHDT,282.897,T*25
$PYRTM,2024,123.168217984931,14.277865395069
$GNGGA,040214.00,3408.08935617,N,11951.20257144,W,2,12,0.8,9.142,M,-36.923,M,7.0,0135*6D
$PYRTM,2024,123.168217984931,14.277865395069
$GNHDT,282.984,T*26
$PYRTM,2024,123.168223723831,14.277871133981
$GNGGA,040214.50,3408.08966527,N,11951.20390145,W,2,12,0.8,9.033,M,-36.923,M,7.4,0135*66
$PYRTM,2024,123.168223723831,14.277871133981
$GNHDT,283.235,T*26
$PYRTM,2024,123.168229560706,14.277876970845
$GNGGA,040215.00,3408.08996125,N,11951.20524877,W,2,12,0.8,8.702,M,-36.923,M,7.0,0135*6A
$PYRTM,2024,123.168229560706,14.277876970845
$GNHDT,283.321,T*22
$PYRTM,2024,123.168235292685,14.277882702824
$GNGGA,040215.50,3408.09026217,N,11951.20655795,W,2,12,0.8,8.343,M,-36.923,M,7.4,0135*6D
$PYRTM,2024,123.168235292685,14.277882702824
$GNHDT,283.149,T*2E
$PYRTM,2024,123.168241130382,14.277888540532
$GNGGA,040216.00,3408.09056157,N,11951.20782934,W,2,12,0.8,8.040,M,-36.923,M,7.0,0135*61
$PYRTM,2024,123.168241130382,14.277888540532
$GNHDT,283.046,T*20
$PYRTM,2024,123.168246863843,14.277894273981
$GNGGA,040216.50,3408.09086319,N,11951.20907438,W,2,12,0.8,7.873,M,-36.923,M,7.4,0135*60
$PYRTM,2024,123.168246863843,14.277894273981
$GNHDT,282.959,T*26
$PYRTM,2024,123.168252705683,14.277900115833
$GNGGA,040217.00,3408.09116335,N,11951.21032961,W,2,12,0.8,7.838,M,-36.923,M,4.0,0135*65
$PYRTM,2024,123.168252705683,14.277900115833
$GNHDT,283.001,T*23
$PYRTM,2024,123.168258447569,14.277905857720
$GNGGA,040217.50,3408.09148005,N,11951.21160386,W,2,12,0.8,7.905,M,-36.923,M,4.4,0135*65
$PYRTM,2024,123.168258447569,14.277905857720
$GNHDT,283.115,T*27
$PYRTM,2024,123.168264283669,14.277911693808
$GNGGA,040218.00,3408.09181296,N,11951.21288345,W,2,12,0.8,8.051,M,-36.923,M,5.0,0135*6A
$PYRTM,2024,123.168264283669,14.277911693808
$GNHDT,283.323,T*20
$PYRTM,2024,123.168270019456,14.277917429595
$GNGGA,040218.50,3408.09213611,N,11951.21413206,W,2,12,0.8,8.296,M,-36.923,M,5.4,0135*63
$PYRTM,2024,123.168270019456,14.277917429595
$GNHDT,283.272,T*25
$PYRTM,2024,123.168275856991,14.277923267130
$GNGGA,040219.00,3408.09242367,N,11951.21534924,W,2,12,0.8,8.658,M,-36.922,M,6.0,0135*68
$PYRTM,2024,123.168275856991,14.277923267130
$GNHDT,283.274,T*23
$PYRTM,2024,123.168281592604,14.277929002743
$GNGGA,040219.50,3408.09268514,N,11951.21655631,W,2,12,0.8,9.015,M,-36.922,M,6.4,0135*62
$PYRTM,2024,123.168281592604,14.277929002743
$GNHDT,283.398,T*20
$PYRTM,2024,123.168287427951,14.277934838090
$GNGGA,040220.00,3408.09296897,N,11951.21775526,W,2,12,0.8,9.217,M,-36.922,M,7.0,0135*69
$PYRTM,2024,123.168287427951,14.277934838090
$GNHDT,283.265,T*23
$PYRTM,2024,123.168293163310,14.277940573449
$GNGGA,040220.50,3408.09327023,N,11951.21906029,W,2,12,0.8,9.047,M,-36.922,M,7.4,0135*63
$PYRTM,2024,123.168293163310,14.277940573449
$GNHDT,283.533,T*27
$PYRTM,2024,123.168299006470,14.277946416609
$GNGGA,040221.00,3408.09358339,N,11951.22043220,W,2,12,0.8,8.565,M,-36.922,M,7.0,0135*67
$PYRTM,2024,123.168299006470,14.277946416609
$GNHDT,283.684,T*28
$PYRTM,2024,123.168304740914,14.277952151053
$GNGGA,040221.50,3408.09389542,N,11951.22182052,W,2,12,0.8,7.982,M,-36.922,M,7.4,0135*61
$PYRTM,2024,123.168304740914,14.277952151053
$GNHDT,283.860,T*2C
$PYRTM,2024,123.168310572616,14.277957982755
$GNGGA,040222.00,3408.09419166,N,11951.22310987,W,2,12,0.8,7.643,M,-36.922,M,7.0,0135*65
$PYRTM,2024,123.168310572616,14.277957982755
$GNHDT,283.722,T*25
$PYRTM,2024,123.168316308773,14.277963718912
$GNGGA,040222.50,3408.09446658,N,11951.22427305,W,2,12,0.8,7.738,M,-36.922,M,7.4,0135*6A
$PYRTM,2024,123.168316308773,14.277963718912
$GNHDT,283.456,T*25
$PYRTM,2024,123.168322151921,14.277969562060
$GNGGA,040223.00,3408.09472970,N,11951.22535713,W,2,12,0.8,8.232,M,-36.922,M,4.0,0135*6A
$PYRTM,2024,123.168322151921,14.277969562060
$GNHDT,283.188,T*23
$PYRTM,2024,123.168327890440,14.277975300579
$GNGGA,040223.50,3408.09501715,N,11951.22646458,W,2,12,0.8,8.829,M,-36.922,M,4.4,0135*68
$PYRTM,2024,123.168327890440,14.277975300579
$GNHDT,283.633,T*24
$PYRTM,2024,123.168333722639,14.277981132778
$GNGGA,040224.00,3408.09531238,N,11951.22770966,W,2,12,0.8,9.270,M,-36.922,M,5.0,0135*65
$PYRTM,2024,123.168333722639,14.277981132778
$GNHDT,283.546,T*25
$PYRTM,2024,123.168339462963,14.277986873102
$GNGGA,040224.50,3408.09563636,N,11951.22906599,W,2,12,0.8,9.335,M,-36.922,M,5.4,0135*6A
$PYRTM,2024,123.168339462963,14.277986873102
$GNHDT,282.879,T*25
$PYRTM,2024,123.168345301863,14.277992712002
$GNGGA,040225.00,3408.09598141,N,11951.23045317,W,2,12,0.8,9.071,M,-36.922,M,6.0,0135*66
$PYRTM,2024,123.168345301863,14.277992712002
$GNHDT,282.905,T*2F
$PYRTM,2024,123.168351034757,14.277998444907
$GNGGA,040225.50,3408.09627205,N,11951.23181983,W,2,12,0.8,8.676,M,-36.922,M,6.4,0135*6D
$PYRTM,2024,123.168351034757,14.277998444907
$GNHDT,282.814,T*2E
$PYRTM,2024,123.168356874606,14.278004284745
$GNGGA,040226.00,3408.09653994,N,11951.23310860,W,2,12,0.8,8.331,M,-36.922,M,7.0,0135*6E
$PYRTM,2024,123.168356874606,14.278004284745
$GNHDT,282.750,T*21
$PYRTM,2024,123.168362608102,14.278010018241
$GNGGA,040226.50,3408.09678736,N,11951.23432185,W,2,12,0.8,8.178,M,-36.922,M,7.4,0135*6A
$PYRTM,2024,123.168362608102,14.278010018241
$GNHDT,282.763,T*21
$PYRTM,2024,123.168368445741,14.278015855880
$GNGGA,040227.00,3408.09703657,N,11951.23550144,W,2,12,0.8,8.222,M,-36.922,M,7.0,0135*65
$PYRTM,2024,123.168368445741,14.278015855880
$GNHDT,282.758,T*29
$PYRTM,2024,123.168374185150,14.278021595289
$GNGGA,040227.50,3408.09731654,N,11951.23666025,W,2,12,0.8,8.391,M,-36.922,M,7.4,0135*6F
$PYRTM,2024,123.168374185150,14.278021595289
$GNHDT,282.810,T*2A
$PYRTM,2024,123.168380020081,14.278027430220
$GNGGA,040228.00,3408.09762687,N,11951.23782498,W,2,12,0.8,8.597,M,-36.922,M,7.0,0135*60
$PYRTM,2024,123.168380020081,14.278027430220
$GNHDT,282.932,T*2B
$PYRTM,2024,123.168385758565,14.278033168704
$GNGGA,040228.50,3408.09795039,N,11951.23900661,W,2,12,0.8,8.720,M,-36.922,M,7.4,0135*64
$PYRTM,2024,123.168385758565,14.278033168704
$GNHDT,283.102,T*21
$PYRTM,2024,123.168391594433,14.278039004572
