$PYRTM,2024,126.083333378310,17.192980788449
$GNGGA,020000.00,3437.17269374,N,12124.32944725,W,2,10,1.0,7.523,M,-38.401,M,4.0,0131*6C
$PYRTM,2024,126.083333378310,17.192980788449
$GNHDT,118.722,T*24
$PYRTM,2024,126.083339117905,17.192986528044
$GNGGA,020000.50,3437.17220386,N,12124.32828763,W,2,10,1.0,7.730,M,-38.401,M,4.4,0131*64
$PYRTM,2024,126.083339117905,17.192986528044
$GNHDT,119.000,T*22
$PYRTM,2024,126.083344949410,17.192992359549
$GNGGA,020001.00,3437.17172522,N,12124.32711006,W,2,10,1.0,7.836,M,-38.401,M,5.0,0131*61
$PYRTM,2024,126.083344949410,17.192992359549
$GNHDT,119.646,T*26
$PYRTM,2024,126.083350690718,17.192998100856
$GNGGA,020001.50,3437.17124265,N,12124.32593360,W,2,10,1.0,7.832,M,-38.401,M,5.4,0131*68
$PYRTM,2024,126.083350690718,17.192998100856
$GNHDT,120.402,T*2E
$PYRTM,2024,126.083356526250,17.193003936389
$GNGGA,020002.00,3437.17072871,N,12124.32477314,W,2,10,1.0,7.707,M,-38.401,M,6.0,0131*65
$PYRTM,2024,126.083356526250,17.193003936389
$GNHDT,121.238,T*20
$PYRTM,2024,126.083362263044,17.193009673183
$GNGGA,020002.50,3437.17016200,N,12124.32363821,W,2,10,1.0,7.500,M,-38.401,M,6.4,0131*60
$PYRTM,2024,126.083362263044,17.193009673183
$GNHDT,121.831,T*23
$PYRTM,2024,126.083368106921,17.193015517060
$GNGGA,020003.00,3437.16954181,N,12124.32251408,W,2,10,1.0,7.283,M,-38.401,M,7.0,0131*6E
$PYRTM,2024,126.083368106921,17.193015517060
$GNHDT,122.367,T*28
$PYRTM,2024,126.083373843924,17.193021254063
$GNGGA,020003.50,3437.16889749,N,12124.32137158,W,2,10,1.0,7.046,M,-38.401,M,7.4,0131*64
$PYRTM,2024,126.083373843924,17.193021254063
$GNHDT,122.378,T*26
$PYRTM,2024,126.083379674537,17.193027084676
$GNGGA,020004.00,3437.16823740,N,12124.32018926,W,2,10,1.0,6.897,M,-38.401,M,7.0,0131*63
$PYRTM,2024,126.083379674537,17.193027084676
$GNHDT,121.990,T*29
$PYRTM,2024,126.083385411296,17.193032821435
$GNGGA,020004.50,3437.16759117,N,12124.31895580,W,2,10,1.0,6.885,M,-38.401,M,7.4,0131*69
$PYRTM,2024,126.083385411296,17.193032821435
$GNHDT,121.512,T*2F
$PYRTM,2024,126.083391248183,17.193038658322
$GNGGA,020005.00,3437.16698263,N,12124.31766762,W,2,10,1.0,7.033,M,-38.401,M,7.0,0131*6C
$PYRTM,2024,126.083391248183,17.193038658322
$GNHDT,120.712,T*2C
$PYRTM,2024,126.083396990208,17.193044400347
$GNGGA,020005.50,3437.16640904,N,12124.31633754,W,2,10,1.0,7.329,M,-38.401,M,7.4,0131*6E
$PYRTM,2024,126.083396990208,17.193044400347
$GNHDT,119.968,T*25
$PYRTM,2024,126.083402827940,17.193050238079
$GNGGA,020006.00,3437.16585852,N,12124.31497667,W,2,10,1.0,7.688,M,-38.401,M,4.0,0131*64
$PYRTM,2024,126.083402827940,17.193050238079
$GNHDT,119.188,T*23
$PYRTM,2024,126.083408563819,17.193055973958
$GNGGA,020006.50,3437.16529492,N,12124.31362048,W,2,10,1.0,7.993,M,-38.401,M,4.4,0131*60
$PYRTM,2024,126.083408563819,17.193055973958
$GNHDT,118.571,T*20
$PYRTM,2024,126.083414395324,17.193061805463
$GNGGA,020007.00,3437.16467119,N,12124.31230484,W,2,10,1.0,8.189,M,-38.401,M,5.0,0131*62
$PYRTM,2024,126.083414395324,17.193061805463
$GNHDT,118.206,T*27
$PYRTM,2024,126.083420133588,17.193067543727
$GNGGA,020007.50,3437.16397239,N,12124.31105486,W,2,10,1.0,8.243,M,-38.401,M,5.4,0131*68
$PYRTM,2024,126.083420133588,17.193067543727
$GNHDT,117.936,T*20
$PYRTM,2024,126.083425969271,17.193073379410
$GNGGA,020008.00,3437.16321839,N,12124.30986449,W,2,10,1.0,8.146,M,-38.401,M,6.0,0131*65
$PYRTM,2024,126.083425969271,17.193073379410
$GNHDT,118.030,T*20
$PYRTM,2024,126.083431708611,17.193079118750
$GNGGA,020008.50,3437.16244953,N,12124.30872021,W,2,10,1.0,7.930,M,-38.401,M,6.4,0131*6D
$PYRTM,2024,126.083431708611,17.193079118750
$GNHDT,118.230,T*22
$PYRTM,2024,126.083437545093,17.193084955243
$GNGGA,020009.00,3437.16168449,N,12124.30761457,W,2,10,1.0,7.654,M,-38.401,M,7.0,0131*62
$PYRTM,2024,126.083437545093,17.193084955243
$GNHDT,118.806,T*2D
$PYRTM,2024,126.083443285347,17.193090695486
$GNGGA,020009.50,3437.16096147,N,12124.30652950,W,2,10,1.0,7.397,M,-38.401,M,7.4,0131*69
$PYRTM,2024,126.083443285347,17.193090695486
$GNHDT,119.497,T*28
$PYRTM,2024,126.083449117280,17.193096527419
$GNGGA,020010.00,3437.16029558,N,12124.30545109,W,2,10,1.0,7.204,M,-38.401,M,7.0,0131*64
$PYRTM,2024,126.083449117280,17.193096527419
$GNHDT,120.288,T*2A
$PYRTM,2024,126.083454857639,17.193102267778
$GNGGA,020010.50,3437.15970179,N,12124.30435630,W,2,10,1.0,7.139,M,-38.401,M,7.4,0131*62
$PYRTM,2024,126.083454857639,17.193102267778
$GNHDT,120.990,T*28
$PYRTM,2024,126.083460690764,17.193108100914
$GNGGA,020011.00,3437.15917936,N,12124.30323209,W,2,10,1.0,7.183,M,-38.401,M,7.0,0131*6F
$PYRTM,2024,126.083460690764,17.193108100914
$GNHDT,121.691,T*27
$PYRTM,2024,126.083466430880,17.193113841030
$GNGGA,020011.50,3437.15871912,N,12124.30205660,W,2,10,1.0,7.297,M,-38.401,M,7.4,0131*61
$PYRTM,2024,126.083466430880,17.193113841030
$GNHDT,122.129,T*20
$PYRTM,2024,126.083472269757,17.193119679896
$GNGGA,020012.00,3437.15829533,N,12124.30084578,W,2,10,1.0,7.404,M,-38.401,M,4.0,0131*6F
$PYRTM,2024,126.083472269757,17.193119679896
$GNHDT,122.646,T*2E
$PYRTM,2024,126.083478005336,17.193125415475
$GNGGA,020012.50,3437.15785056,N,12124.29962962,W,2,10,1.0,7.494,M,-38.401,M,4.4,0131*66
$PYRTM,2024,126.083478005336,17.193125415475
$GNHDT,122.518,T*26
$PYRTM,2024,126.083483840289,17.193131250428
$GNGGA,020013.00,3437.15734792,N,12124.29844482,W,2,10,1.0,7.549,M,-38.401,M,5.0,0131*65
$PYRTM,2024,126.083483840289,17.193131250428
$GNHDT,122.301,T*28
$PYRTM,2024,126.083489578843,17.193136988981
$GNGGA,020013.50,3437.15678053,N,12124.29729958,W,2,10,1.0,7.588,M,-38.401,M,5.4,0131*64
$PYRTM,2024,126.083489578843,17.193136988981
$GNHDT,122.117,T*2D
$PYRTM,2024,126.083495414664,17.193142824803
$GNGGA,020014.00,3437.15616915,N,12124.29618052,W,2,10,1.0,7.605,M,-38.401,M,6.0,0131*64
$PYRTM,2024,126.083495414664,17.193142824803
$GNHDT,121.807,T*26
$PYRTM,2024,126.083501155428,17.193148565567
$GNGGA,020014.50,3437.15554258,N,12124.29507035,W,2,10,1.0,7.627,M,-38.401,M,6.4,0131*6E
$PYRTM,2024,126.083501155428,17.193148565567
$GNHDT,121.431,T*2F
$PYRTM,2024,126.083506991042,17.193154401181
$GNGGA,020015.00,3437.15492660,N,12124.29392865,W,2,10,1.0,7.576,M,-38.401,M,7.0,0131*6B
$PYRTM,2024,126.083506991042,17.193154401181
$GNHDT,121.255,T*2B
$PYRTM,2024,126.083512729769,17.193160139907
$GNGGA,020015.50,3437.15431962,N,12124.29274557,W,2,10,1.0,7.527,M,-38.400,M,7.4,0131*6E
$PYRTM,2024,126.083512729769,17.193160139907
$GNHDT,121.214,T*2E
$PYRTM,2024,126.083518561262,17.193165971400
$GNGGA,020016.00,3437.15370686,N,12124.29152813,W,2,10,1.0,7.446,M,-38.400,M,7.0,0131*67
$PYRTM,2024,126.083518561262,17.193165971400
$GNHDT,121.002,T*2B
$PYRTM,2024,126.083524302222,17.193171712361
$GNGGA,020016.50,3437.15307822,N,12124.29030043,W,2,10,1.0,7.408,M,-38.400,M,7.4,0131*64
$PYRTM,2024,126.083524302222,17.193171712361
$GNHDT,120.942,T*27
$PYRTM,2024,126.083530136840,17.193177546991
$GNGGA,020017.00,3437.15242899,N,12124.28906895,W,2,10,1.0,7.424,M,-38.400,M,7.0,0131*64
$PYRTM,2024,126.083530136840,17.193177546991
$GNHDT,120.763,T*2A
$PYRTM,2024,126.083535876574,17.193183286713
$GNGGA,020017.50,3437.15177167,N,12124.28783765,W,2,10,1.0,7.518,M,-38.400,M,7.4,0131*65
$PYRTM,2024,126.083535876574,17.193183286713
$GNHDT,120.593,T*27
$PYRTM,2024,126.083541711111,17.193189121250
$GNGGA,020018.00,3437.15111153,N,12124.28660938,W,2,10,1.0,7.671,M,-38.400,M,4.0,0131*69
$PYRTM,2024,126.083541711111,17.193189121250
$GNHDT,120.361,T*2C
$PYRTM,2024,126.083547451215,17.193194861354
$GNGGA,020018.50,3437.15045774,N,12124.28537762,W,2,10,1.0,7.833,M,-38.400,M,4.4,0131*63
$PYRTM,2024,126.083547451215,17.193194861354
$GNHDT,120.157,T*2B
$PYRTM,2024,126.083553284468,17.193200694606
$GNGGA,020019.00,3437.14980709,N,12124.28414494,W,2,10,1.0,7.984,M,-38.400,M,5.0,0131*6E
$PYRTM,2024,126.083553284468,17.193200694606
$GNHDT,120.297,T*24
$PYRTM,2024,126.083559025394,17.193206435532
$GNGGA,020019.50,3437.14915565,N,12124.28292230,W,2,10,1.0,8.045,M,-38.400,M,5.4,0131*60
$PYRTM,2024,126.083559025394,17.193206435532
$GNHDT,120.561,T*2A
$PYRTM,2024,126.083564858206,17.193212268345
$GNGGA,020020.00,3437.14850297,N,12124.28170459,W,2,10,1.0,8.012,M,-38.400,M,6.0,0131*66
$PYRTM,2024,126.083564858206,17.193212268345
$GNHDT,120.919,T*29
$PYRTM,2024,126.083570600799,17.193218010937
$GNGGA,020020.50,3437.14785289,N,12124.28049643,W,2,10,1.0,7.889,M,-38.400,M,6.4,0131*68
$PYRTM,2024,126.083570600799,17.193218010937
$GNHDT,121.105,T*2D
$PYRTM,2024,126.083576434803,17.193223844942
$GNGGA,020021.00,3437.14720805,N,12124.27930477,W,2,10,1.0,7.713,M,-38.400,M,7.0,0131*69
$PYRTM,2024,126.083576434803,17.193223844942
$GNHDT,121.719,T*26
$PYRTM,2024,126.083582171042,17.193229581181
$GNGGA,020021.50,3437.14656438,N,12124.27814530,W,2,10,1.0,7.535,M,-38.400,M,7.4,0131*69
$PYRTM,2024,126.083582171042,17.193229581181
$GNHDT,121.944,T*20
$PYRTM,2024,126.083588005660,17.193235415799
$GNGGA,020022.00,3437.14591998,N,12124.27698919,W,2,10,1.0,7.336,M,-38.400,M,7.0,0131*6C
$PYRTM,2024,126.083588005660,17.193235415799
$GNHDT,122.397,T*27
$PYRTM,2024,126.083593744769,17.193241154907
$GNGGA,020022.50,3437.14529317,N,12124.27579564,W,2,10,1.0,7.183,M,-38.400,M,7.4,0131*65
$PYRTM,2024,126.083593744769,17.193241154907
$GNHDT,122.486,T*20
$PYRTM,2024,126.083599583495,17.193246993646
$GNGGA,020023.00,3437.14468909,N,12124.27455906,W,2,10,1.0,7.089,M,-38.400,M,7.0,0131*68
$PYRTM,2024,126.083599583495,17.193246993646
$GNHDT,121.953,T*26
$PYRTM,2024,126.083605324016,17.193252734155
$GNGGA,020023.50,3437.14410787,N,12124.27330364,W,2,10,1.0,7.091,M,-38.400,M,7.4,0131*6D
$PYRTM,2024,126.083605324016,17.193252734155
$GNHDT,121.390,T*23
$PYRTM,2024,126.083611155104,17.193258565255
$GNGGA,020024.00,3437.14354614,N,12124.27206212,W,2,10,1.0,7.226,M,-38.400,M,4.0,0131*6E
$PYRTM,2024,126.083611155104,17.193258565255
$GNHDT,120.945,T*20
$PYRTM,2024,126.083616897350,17.193264307488
$GNGGA,020024.50,3437.14300148,N,12124.27084767,W,2,10,1.0,7.477,M,-38.400,M,4.4,0131*6D
$PYRTM,2024,126.083616897350,17.193264307488
$GNHDT,120.508,T*25
$PYRTM,2024,126.083622730764,17.193270140903
$GNGGA,020025.00,3437.14247017,N,12124.26965866,W,2,10,1.0,7.726,M,-38.400,M,5.0,0131*6B
$PYRTM,2024,126.083622730764,17.193270140903
$GNHDT,120.148,T*25
$PYRTM,2024,126.083628468738,17.193275878889
$GNGGA,020025.50,3437.14194020,N,12124.26848296,W,2,10,1.0,7.899,M,-38.400,M,5.4,0131*63
$PYRTM,2024,126.083628468738,17.193275878889
$GNHDT,119.903,T*28
$PYRTM,2024,126.083634303692,17.193281713831
$GNGGA,020026.00,3437.14139264,N,12124.26731113,W,2,10,1.0,7.928,M,-38.400,M,6.0,0131*63
$PYRTM,2024,126.083634303692,17.193281713831
$GNHDT,119.620,T*26
$PYRTM,2024,126.083640044317,17.193287454456
$GNGGA,020026.50,3437.14081319,N,12124.26614486,W,2,10,1.0,7.788,M,-38.400,M,6.4,0131*60
$PYRTM,2024,126.083640044317,17.193287454456
$GNHDT,119.586,T*29
$PYRTM,2024,126.083645876481,17.193293286620
$GNGGA,020027.00,3437.14018245,N,12124.26499642,W,2,10,1.0,7.544,M,-38.400,M,7.0,0131*66
$PYRTM,2024,126.083645876481,17.193293286620
$GNHDT,119.609,T*2D
$PYRTM,2024,126.083651619931,17.193299030069
$GNGGA,020027.50,3437.13951162,N,12124.26385968,W,2,10,1.0,7.286,M,-38.400,M,7.4,0131*66
$PYRTM,2024,126.083651619931,17.193299030069
$GNHDT,119.622,T*24
$PYRTM,2024,126.083657460718,17.193304870868
$GNGGA,020028.00,3437.13881203,N,12124.26273298,W,2,10,1.0,7.070,M,-38.400,M,7.0,0131*67
$PYRTM,2024,126.083657460718,17.193304870868
$GNHDT,119.685,T*29
$PYRTM,2024,126.083663191215,17.193310601366
$GNGGA,020028.50,3437.13811673,N,12124.26160549,W,2,10,1.0,6.976,M,-38.400,M,7.4,0131*68
$PYRTM,2024,126.083663191215,17.193310601366
$GNHDT,119.645,T*25
$PYRTM,2024,126.083669024387,17.193316434525
$GNGGA,020029.00,3437.13743571,N,12124.26046664,W,2,10,1.0,7.056,M,-38.400,M,7.0,0131*62
$PYRTM,2024,126.083669024387,17.193316434525
$GNHDT,119.791,T*2D
$PYRTM,2024,126.083674770023,17.193322180162
$GNGGA,020029.50,3437.13678820,N,12124.25930356,W,2,10,1.0,7.301,M,-38.400,M,7.4,0131*6D
$PYRTM,2024,126.083674770023,17.193322180162
$GNHDT,119.888,T*2A
$PYRTM,2024,126.083680601458,17.193328011597
$GNGGA,020030.00,3437.13618621,N,12124.25810542,W,2,10,1.0,7.671,M,-38.400,M,4.0,0131*6C
$PYRTM,2024,126.083680601458,17.193328011597
$GNHDT,120.285,T*27
$PYRTM,2024,126.083686341088,17.193333751238
$GNGGA,020030.50,3437.13562846,N,12124.25687457,W,2,10,1.0,8.026,M,-38.400,M,4.4,0131*62
$PYRTM,2024,126.083686341088,17.193333751238
$GNHDT,120.831,T*22
$PYRTM,2024,126.083692175671,17.193339585810
$GNGGA,020031.00,3437.13508933,N,12124.25562497,W,2,10,1.0,8.289,M,-38.400,M,5.0,0131*6F
$PYRTM,2024,126.083692175671,17.193339585810
$GNHDT,121.331,T*28
$PYRTM,2024,126.083697914132,17.193345324271
$GNGGA,020031.50,3437.13452924,N,12124.25437602,W,2,10,1.0,8.396,M,-38.400,M,5.4,0131*66
$PYRTM,2024,126.083697914132,17.193345324271
$GNHDT,122.215,T*2C
$PYRTM,2024,126.083703748009,17.193351158148
$GNGGA,020032.00,3437.13393386,N,12124.25314737,W,2,10,1.0,8.318,M,-38.400,M,6.0,0131*68
$PYRTM,2024,126.083703748009,17.193351158148
$GNHDT,122.805,T*27
$PYRTM,2024,126.083709488171,17.193356898322
$GNGGA,020032.50,3437.13328991,N,12124.25195068,W,2,10,1.0,8.101,M,-38.400,M,6.4,0131*69
$PYRTM,2024,126.083709488171,17.193356898322
$GNHDT,122.697,T*22
$PYRTM,2024,126.083715323611,17.193362733750
$GNGGA,020033.00,3437.13260914,N,12124.25077013,W,2,10,1.0,7.797,M,-38.400,M,7.0,0131*6F
$PYRTM,2024,126.083715323611,17.193362733750
$GNHDT,122.844,T*22
$PYRTM,2024,126.083721065544,17.193368475683
$GNGGA,020033.50,3437.13192330,N,12124.24958750,W,2,10,1.0,7.463,M,-38.400,M,7.4,0131*61
$PYRTM,2024,126.083721065544,17.193368475683
$GNHDT,122.564,T*2D
$PYRTM,2024,126.083726899931,17.193374310069
$GNGGA,020034.00,3437.13127651,N,12124.24838477,W,2,10,1.0,7.187,M,-38.400,M,7.0,0131*65
$PYRTM,2024,126.083726899931,17.193374310069
$GNHDT,121.891,T*29
$PYRTM,2024,126.083732636956,17.193380047095
$GNGGA,020034.50,3437.13068091,N,12124.24718089,W,2,10,1.0,7.072,M,-38.400,M,7.4,0131*67
$PYRTM,2024,126.083732636956,17.193380047095
$GNHDT,121.574,T*2F
$PYRTM,2024,126.083738475058,17.193385885197
$GNGGA,020035.00,3437.13013633,N,12124.24596610,W,2,10,1.0,7.112,M,-38.399,M,7.0,0131*67
$PYRTM,2024,126.083738475058,17.193385885197
$GNHDT,121.161,T*2F
$PYRTM,2024,126.083744212234,17.193391622373
$GNGGA,020035.50,3437.12961567,N,12124.24475070,W,2,10,1.0,7.245,M,-38.399,M,7.4,0131*64
$PYRTM,2024,126.083744212234,17.193391622373
$GNHDT,120.691,T*26
$PYRTM,2024,126.083750046991,17.193397457130
$GNGGA,020036.00,3437.12909383,N,12124.24353537,W,2,10,1.0,7.420,M,-38.399,M,4.0,0131*67
$PYRTM,2024,126.083750046991,17.193397457130
$GNHDT,120.433,T*2C
$PYRTM,2024,126.083755786620,17.193403196759
$GNGGA,020036.50,3437.12855485,N,12124.24231808,W,2,10,1.0,7.543,M,-38.399,M,4.4,0131*6F
$PYRTM,2024,126.083755786620,17.193403196759
$GNHDT,120.508,T*25
$PYRTM,2024,126.083761617650,17.193409027789
$GNGGA,020037.00,3437.12798096,N,12124.24111264,W,2,10,1.0,7.609,M,-38.399,M,5.0,0131*6A
$PYRTM,2024,126.083761617650,17.193409027789
$GNHDT,120.483,T*27
$PYRTM,2024,126.083767359826,17.193414769965
$GNGGA,020037.50,3437.12735865,N,12124.23993590,W,2,10,1.0,7.616,M,-38.399,M,5.4,0131*6F
$PYRTM,2024,126.083767359826,17.193414769965
$GNHDT,120.519,T*25
$PYRTM,2024,126.083773195451,17.193420605590
$GNGGA,020038.00,3437.12669074,N,12124.23877536,W,2,10,1.0,7.597,M,-38.399,M,6.0,0131*6F
$PYRTM,2024,126.083773195451,17.193420605590
$GNHDT,120.324,T*2D
$PYRTM,2024,126.083778932488,17.193426342627
$GNGGA,020038.50,3437.12600194,N,12124.23763236,W,2,10,1.0,7.597,M,-38.399,M,6.4,0131*63
$PYRTM,2024,126.083778932488,17.193426342627
$GNHDT,120.301,T*2A
$PYRTM,2024,126.083784766539,17.193432176678
$GNGGA,020039.00,3437.12531916,N,12124.23650007,W,2,10,1.0,7.643,M,-38.399,M,7.0,0131*6A
$PYRTM,2024,126.083784766539,17.193432176678
$GNHDT,120.480,T*24
$PYRTM,2024,126.083790509572,17.193437919711
$GNGGA,020039.50,3437.12466544,N,12124.23536810,W,2,10,1.0,7.725,M,-38.399,M,7.4,0131*6F
$PYRTM,2024,126.083790509572,17.193437919711
$GNHDT,120.822,T*20
$PYRTM,2024,126.083796345486,17.193443755625
$GNGGA,020040.00,3437.12405418,N,12124.23422824,W,2,10,1.0,7.801,M,-38.399,M,7.0,0131*67
$PYRTM,2024,126.083796345486,17.193443755625
$GNHDT,121.446,T*2F
$PYRTM,2024,126.083802081505,17.193449491655
$GNGGA,020040.50,3437.12348261,N,12124.23307365,W,2,10,1.0,7.857,M,-38.399,M,7.4,0131*6D
$PYRTM,2024,126.083802081505,17.193449491655
$GNHDT,121.770,T*29
$PYRTM,2024,126.083807915949,17.193455326088
$GNGGA,020041.00,3437.12293760,N,12124.23190444,W,2,10,1.0,7.816,M,-38.399,M,7.0,0131*63
$PYRTM,2024,126.083807915949,17.193455326088
$GNHDT,122.360,T*2F
$PYRTM,2024,126.083813656076,17.193461066215
$GNGGA,020041.50,3437.12239831,N,12124.23072390,W,2,10,1.0,7.715,M,-38.399,M,7.4,0131*66
$PYRTM,2024,126.083813656076,17.193461066215
$GNHDT,122.530,T*2C
$PYRTM,2024,126.083819489560,17.193466899699
$GNGGA,020042.00,3437.12185047,N,12124.22954167,W,2,10,1.0,7.524,M,-38.399,M,4.0,0131*6C
$PYRTM,2024,126.083819489560,17.193466899699
$GNHDT,122.745,T*2C
$PYRTM,2024,126.083825226227,17.193472636366
$GNGGA,020042.50,3437.12128260,N,12124.22836483,W,2,10,1.0,7.300,M,-38.399,M,4.4,0131*67
$PYRTM,2024,126.083825226227,17.193472636366
$GNHDT,122.649,T*21
$PYRTM,2024,126.083831063137,17.193478473275
$GNGGA,020043.00,3437.12069202,N,12124.22720493,W,2,10,1.0,7.086,M,-38.399,M,5.0,0131*62
$PYRTM,2024,126.083831063137,17.193478473275
$GNHDT,122.531,T*2D
$PYRTM,2024,126.083836801343,17.193484211481
$GNGGA,020043.50,3437.12007811,N,12124.22605725,W,2,10,1.0,6.934,M,-38.399,M,5.4,0131*6A
$PYRTM,2024,126.083836801343,17.193484211481
$GNHDT,122.006,T*2C
$PYRTM,2024,126.083842636551,17.193490046690
$GNGGA,020044.00,3437.11944405,N,12124.22492025,W,2,10,1.0,6.859,M,-38.399,M,6.0,0131*6A
$PYRTM,2024,126.083842636551,17.193490046690
$GNHDT,121.693,T*25
$PYRTM,2024,126.083848378206,17.193495788345
$GNGGA,020044.50,3437.11880780,N,12124.22378295,W,2,10,1.0,6.856,M,-38.399,M,6.4,0131*69
$PYRTM,2024,126.083848378206,17.193495788345
$GNHDT,121.585,T*21
$PYRTM,2024,126.083854211065,17.193501621204
$GNGGA,020045.00,3437.11817448,N,12124.22262489,W,2,10,1.0,6.929,M,-38.399,M,7.0,0131*69
$PYRTM,2024,126.083854211065,17.193501621204
$GNHDT,121.439,T*27
$PYRTM,2024,126.083859949190,17.193507359340
$GNGGA,020045.50,3437.11755949,N,12124.22142900,W,2,10,1.0,7.039,M,-38.399,M,7.4,0131*69
$PYRTM,2024,126.083859949190,17.193507359340
$GNHDT,121.557,T*2E
$PYRTM,2024,126.083865790243,17.193513200382
$GNGGA,020046.00,3437.11695726,N,12124.22019141,W,2,10,1.0,7.156,M,-38.399,M,7.0,0131*6B
$PYRTM,2024,126.083865790243,17.193513200382
$GNHDT,121.479,T*23
$PYRTM,2024,126.083871525324,17.193518935463
$GNGGA,020046.50,3437.11635644,N,12124.21891904,W,2,10,1.0,7.282,M,-38.399,M,7.4,0131*6D
$PYRTM,2024,126.083871525324,17.193518935463
$GNHDT,121.695,T*23
$PYRTM,2024,126.083877361157,17.193524771296
$GNGGA,020047.00,3437.11574004,N,12124.21763691,W,2,10,1.0,7.421,M,-38.399,M,7.0,0131*67
$PYRTM,2024,126.083877361157,17.193524771296
$GNHDT,121.601,T*2E
$PYRTM,2024,126.083883099444,17.193530509583
$GNGGA,020047.50,3437.11508176,N,12124.21636883,W,2,10,1.0,7.560,M,-38.399,M,7.4,0131*61
$PYRTM,2024,126.083883099444,17.193530509583
$GNHDT,121.460,T*2B
$PYRTM,2024,126.083888938113,17.193536348241
$GNGGA,020048.00,3437.11437756,N,12124.21511952,W,2,10,1.0,7.679,M,-38.399,M,4.0,0131*65
$PYRTM,2024,126.083888938113,17.193536348241
$GNHDT,121.266,T*2B
$PYRTM,2024,126.083894674699,17.193542084838
$GNGGA,020048.50,3437.11365126,N,12124.21388741,W,2,10,1.0,7.763,M,-38.399,M,4.4,0131*65
$PYRTM,2024,126.083894674699,17.193542084838
$GNHDT,121.291,T*23
$PYRTM,2024,126.083900508380,17.193547918519
$GNGGA,020049.00,3437.11291778,N,12124.21266709,W,2,10,1.0,7.806,M,-38.399,M,5.0,0131*62
$PYRTM,2024,126.083900508380,17.193547918519
$GNHDT,121.294,T*26
$PYRTM,2024,126.083906244653,17.193553654792
$GNGGA,020049.50,3437.11220817,N,12124.21144246,W,2,10,1.0,7.819,M,-38.399,M,5.4,0131*6C
$PYRTM,2024,126.083906244653,17.193553654792
$GNHDT,120.828,T*2A
$PYRTM,2024,126.083912084514,17.193559494653
$GNGGA,020050.00,3437.11153850,N,12124.21022167,W,2,10,1.0,7.793,M,-38.399,M,6.0,0131*6E
$PYRTM,2024,126.083912084514,17.193559494653
$GNHDT,120.787,T*20
$PYRTM,2024,126.083917819618,17.193565229757
$GNGGA,020050.50,3437.11090856,N,12124.20900971,W,2,10,1.0,7.753,M,-38.399,M,6.4,0131*6C
$PYRTM,2024,126.083917819618,17.193565229757
$GNHDT,120.628,T*24
$PYRTM,2024,126.083923658819,17.193571068958
$GNGGA,020051.00,3437.11031416,N,12124.20781736,W,2,10,1.0,7.700,M,-38.399,M,7.0,0131*62
$PYRTM,2024,126.083923658819,17.193571068958
$GNHDT,120.722,T*2F
$PYRTM,2024,126.083929397813,17.193576807951
$GNGGA,020051.50,3437.10973618,N,12124.20664942,W,2,10,1.0,7.640,M,-38.399,M,7.4,0131*63
$PYRTM,2024,126.083929397813,17.193576807951
$GNHDT,120.728,T*25
$PYRTM,2024,126.083935227025,17.193582637164
$GNGGA,020052.00,3437.10916723,N,12124.20551905,W,2,10,1.0,7.561,M,-38.399,M,7.0,0131*6D
$PYRTM,2024,126.083935227025,17.193582637164
$GNHDT,120.760,T*29
$PYRTM,2024,126.083940966713,17.193588376852
$GNGGA,020052.50,3437.10859382,N,12124.20442172,W,2,10,1.0,7.473,M,-38.398,M,7.4,0131*61
$PYRTM,2024,126.083940966713,17.193588376852
$GNHDT,121.187,T*27
$PYRTM,2024,126.083946804294,17.193594214444
$GNGGA,020053.00,3437.10801494,N,12124.20334980,W,2,10,1.0,7.385,M,-38.398,M,7.0,0131*61
$PYRTM,2024,126.083946804294,17.193594214444
$GNHDT,121.468,T*23
$PYRTM,2024,126.083952541956,17.193599952095
$GNGGA,020053.50,3437.10743490,N,12124.20230080,W,2,10,1.0,7.299,M,-38.398,M,7.4,0131*6D
$PYRTM,2024,126.083952541956,17.193599952095
$GNHDT,121.850,T*24
$PYRTM,2024,126.083958375995,17.193605786134
$GNGGA,020054.00,3437.10685755,N,12124.20125226,W,2,10,1.0,7.216,M,-38.398,M,4.0,0131*67
$PYRTM,2024,126.083958375995,17.193605786134
$GNHDT,122.243,T*2F
$PYRTM,2024,126.083964118484,17.193611528623
$GNGGA,020054.50,3437.10629154,N,12124.20016713,W,2,10,1.0,7.126,M,-38.398,M,4.4,0131*65
$PYRTM,2024,126.083964118484,17.193611528623
$GNHDT,122.380,T*21
$PYRTM,2024,126.083969950683,17.193617360822
$GNGGA,020055.00,3437.10573548,N,12124.19903332,W,2,10,1.0,7.013,M,-38.398,M,5.0,0131*66
$PYRTM,2024,126.083969950683,17.193617360822
$GNHDT,122.495,T*22
$PYRTM,2024,126.083975690810,17.193623100949
$GNGGA,020055.50,3437.10517558,N,12124.19785976,W,2,10,1.0,6.942,M,-38.398,M,5.4,0131*62
$PYRTM,2024,126.083975690810,17.193623100949
$GNHDT,122.405,T*2B
$PYRTM,2024,126.083981529792,17.193628939931
$GNGGA,020056.00,3437.10459237,N,12124.19666529,W,2,10,1.0,6.901,M,-38.398,M,6.0,0131*6B
$PYRTM,2024,126.083981529792,17.193628939931
$GNHDT,122.376,T*28
$PYRTM,2024,126.083987264745,17.193634674884
$GNGGA,020056.50,3437.10397951,N,12124.19545572,W,2,10,1.0,6.922,M,-38.398,M,6.4,0131*69
$PYRTM,2024,126.083987264745,17.193634674884
$GNHDT,122.387,T*26
$PYRTM,2024,126.083993102708,17.193640512847
$GNGGA,020057.00,3437.10333427,N,12124.19422451,W,2,10,1.0,6.982,M,-38.398,M,7.0,0131*60
$PYRTM,2024,126.083993102708,17.193640512847
$GNHDT,122.184,T*27
$PYRTM,2024,126.083998842269,17.193646252407
$GNGGA,020057.50,3437.10266796,N,12124.19297273,W,2,10,1.0,7.076,M,-38.398,M,7.4,0131*64
$PYRTM,2024,126.083998842269,17.193646252407
$GNHDT,121.804,T*25
$PYRTM,2024,126.084004675162,17.193652085301
$GNGGA,020058.00,3437.10198893,N,12124.19170508,W,2,10,1.0,7.180,M,-38.398,M,7.0,0131*6B
$PYRTM,2024,126.084004675162,17.193652085301
$GNHDT,121.558,T*21
$PYRTM,2024,126.084010412199,17.193657822338
$GNGGA,020058.50,3437.10131042,N,12124.19042129,W,2,10,1.0,7.286,M,-38.398,M,7.4,0131*6F
$PYRTM,2024,126.084010412199,17.193657822338
$GNHDT,121.332,T*2B
$PYRTM,2024,126.084016250833,17.193663660972
$GNGGA,020059.00,3437.10063717,N,12124.18912440,W,2,10,1.0,7.407,M,-38.398,M,7.0,0131*66
$PYRTM,2024,126.084016250833,17.193663660972
$GNHDT,121.155,T*28
$PYRTM,2024,126.084021984977,17.193669395116
$GNGGA,020059.50,3437.09998042,N,12124.18781769,W,2,10,1.0,7.514,M,-38.398,M,7.4,0131*6A
$PYRTM,2024,126.084021984977,17.193669395116
$GNHDT,121.122,T*28
$PYRTM,2024,126.084027825880,17.193675236019
$GNGGA,020100.00,3437.09933462,N,12124.18651017,W,2,10,1.0,7.617,M,-38.398,M,4.0,0131*60
$PYRTM,2024,126.084027825880,17.193675236019
$GNHDT,121.004,T*2D
$PYRTM,2024,126.084033562384,17.193680972523
$GNGGA,020100.50,3437.09868071,N,12124.18521462,W,2,10,1.0,7.704,M,-38.398,M,4.4,0131*69
$PYRTM,2024,126.084033562384,17.193680972523
$GNHDT,120.604,T*2A
$PYRTM,2024,126.084039396435,17.193686806574
$GNGGA,020101.00,3437.09800374,N,12124.18394580,W,2,10,1.0,7.766,M,-38.398,M,5.0,0131*61
$PYRTM,2024,126.084039396435,17.193686806574
$GNHDT,120.599,T*2D
$PYRTM,2024,126.084045135058,17.193692545197
$GNGGA,020101.50,3437.09729568,N,12124.18270986,W,2,10,1.0,7.787,M,-38.398,M,5.4,0131*61
$PYRTM,2024,126.084045135058,17.193692545197
$GNHDT,120.492,T*27
$PYRTM,2024,126.084050971632,17.193698381771
$GNGGA,020102.00,3437.09656906,N,12124.18150228,W,2,10,1.0,7.778,M,-38.398,M,6.0,0131*63
$PYRTM,2024,126.084050971632,17.193698381771
$GNHDT,120.043,T*2F
$PYRTM,2024,126.084056708333,17.193704118472
$GNGGA,020102.50,3437.09585062,N,12124.18031471,W,2,10,1.0,7.748,M,-38.398,M,6.4,0131*6B
$PYRTM,2024,126.084056708333,17.193704118472
$GNHDT,119.780,T*2D
$PYRTM,2024,126.084062545509,17.193709955660
$GNGGA,020103.00,3437.09517470,N,12124.17913466,W,2,10,1.0,7.713,M,-38.398,M,7.0,0131*68
$PYRTM,2024,126.084062545509,17.193709955660
$GNHDT,119.244,T*20
$PYRTM,2024,126.084068282535,17.193715692674
$GNGGA,020103.50,3437.09455478,N,12124.17796134,W,2,10,1.0,7.689,M,-38.398,M,7.4,0131*65
$PYRTM,2024,126.084068282535,17.193715692674
$GNHDT,119.045,T*23
$PYRTM,2024,126.084074118461,17.193721528600
$GNGGA,020104.00,3437.09399382,N,12124.17680041,W,2,10,1.0,7.694,M,-38.398,M,7.0,0131*6F
$PYRTM,2024,126.084074118461,17.193721528600
$GNHDT,118.954,T*2B
$PYRTM,2024,126.084079861319,17.193727271458
$GNGGA,020104.50,3437.09348934,N,12124.17564834,W,2,10,1.0,7.682,M,-38.398,M,7.4,0131*61
$PYRTM,2024,126.084079861319,17.193727271458
$GNHDT,119.149,T*2E
$PYRTM,2024,126.084085699282,17.193733109421
$GNGGA,020105.00,3437.09302115,N,12124.17450077,W,2,10,1.0,7.608,M,-38.398,M,7.0,0131*6F
$PYRTM,2024,126.084085699282,17.193733109421
$GNHDT,119.523,T*26
$PYRTM,2024,126.084091436343,17.193738846493
$GNGGA,020105.50,3437.09255001,N,12124.17337049,W,2,10,1.0,7.459,M,-38.398,M,7.4,0131*64
$PYRTM,2024,126.084091436343,17.193738846493
$GNHDT,119.936,T*2E
$PYRTM,2024,126.084097273356,17.193744683495
$GNGGA,020106.00,3437.09203746,N,12124.17228097,W,2,10,1.0,7.235,M,-38.398,M,4.0,0131*62
$PYRTM,2024,126.084097273356,17.193744683495
$GNHDT,120.653,T*28
$PYRTM,2024,126.084103007500,17.193750417639
$GNGGA,020106.50,3437.09147380,N,12124.17122088,W,2,10,1.0,6.960,M,-38.398,M,4.4,0131*63
$PYRTM,2024,126.084103007500,17.193750417639
$GNHDT,121.010,T*28
$PYRTM,2024,126.084108845613,17.193756255752
$GNGGA,020107.00,3437.09087116,N,12124.17018494,W,2,10,1.0,6.653,M,-38.398,M,5.0,0131*6C
$PYRTM,2024,126.084108845613,17.193756255752
$GNHDT,121.234,T*2C
$PYRTM,2024,126.084114580926,17.193761991065
$GNGGA,020107.50,3437.09026566,N,12124.16913860,W,2,10,1.0,6.410,M,-38.398,M,5.4,0131*64
$PYRTM,2024,126.084114580926,17.193761991065
$GNHDT,121.462,T*29
$PYRTM,2024,126.084120413877,17.193767824028
$GNGGA,020108.00,3437.08967760,N,12124.16806442,W,2,10,1.0,6.244,M,-38.398,M,6.0,0131*6E
$PYRTM,2024,126.084120413877,17.193767824028
$GNHDT,121.683,T*24
$PYRTM,2024,126.084126154294,17.193773564433
$GNGGA,020108.50,3437.08911507,N,12124.16693690,W,2,10,1.0,6.222,M,-38.398,M,6.4,0131*62
$PYRTM,2024,126.084126154294,17.193773564433
$GNHDT,121.795,T*22
$PYRTM,2024,126.084131988796,17.193779398935
$GNGGA,020109.00,3437.08857004,N,12124.16575209,W,2,10,1.0,6.353,M,-38.398,M,7.0,0131*6E
$PYRTM,2024,126.084131988796,17.193779398935
$GNHDT,121.779,T*20
$PYRTM,2024,126.084137731713,17.193785141852
$GNGGA,020109.50,3437.08803671,N,12124.16449336,W,2,10,1.0,6.588,M,-38.398,M,7.4,0131*69
$PYRTM,2024,126.084137731713,17.193785141852
$GNHDT,121.946,T*22
$PYRTM,2024,126.084143566470,17.193790976609
$GNGGA,020110.00,3437.08750064,N,12124.16317187,W,2,10,1.0,6.884,M,-38.398,M,7.0,0131*6E
$PYRTM,2024,126.084143566470,17.193790976609
$GNHDT,121.886,T*2F
$PYRTM,2024,126.084149302766,17.193796712905
$GNGGA,020110.50,3437.08692177,N,12124.16183252,W,2,10,1.0,7.178,M,-38.398,M,7.4,0131*6C
$PYRTM,2024,126.084149302766,17.193796712905
$GNHDT,121.614,T*2A
$PYRTM,2024,126.084155137361,17.193802547500
$GNGGA,020111.00,3437.08626653,N,12124.16050344,W,2,10,1.0,7.465,M,-38.398,M,7.0,0131*62
$PYRTM,2024,126.084155137361,17.193802547500
$GNHDT,121.537,T*28
$PYRTM,2024,126.084160879479,17.193808289618
$GNGGA,020111.50,3437.08553907,N,12124.15920039,W,2,10,1.0,7.701,M,-38.398,M,7.4,0131*69
$PYRTM,2024,126.084160879479,17.193808289618
$GNHDT,121.013,T*2B
$PYRTM,2024,126.084166711551,17.193814121690
$GNGGA,020112.00,3437.08475954,N,12124.15791215,W,2,10,1.0,7.868,M,-38.397,M,4.0,0131*6C
$PYRTM,2024,126.084166711551,17.193814121690
$GNHDT,120.813,T*22
$PYRTM,2024,126.084172447998,17.193819858137
$GNGGA,020112.50,3437.08396735,N,12124.15662570,W,2,10,1.0,7.988,M,-38.397,M,4.4,0131*68
$PYRTM,2024,126.084172447998,17.193819858137
$GNHDT,120.119,T*21
$PYRTM,2024,126.084178286111,17.193825696250
$GNGGA,020113.00,3437.08319109,N,12124.15534265,W,2,10,1.0,8.048,M,-38.397,M,5.0,0131*6E
$PYRTM,2024,126.084178286111,17.193825696250
$GNHDT,119.733,T*25
$PYRTM,2024,126.084184023137,17.193831433275
$GNGGA,020113.50,3437.08245325,N,12124.15406768,W,2,10,1.0,8.079,M,-38.397,M,5.4,0131*61
$PYRTM,2024,126.084184023137,17.193831433275
$GNHDT,119.562,T*23
$PYRTM,2024,126.084189863553,17.193837273692
$GNGGA,020114.00,3437.08175800,N,12124.15280002,W,2,10,1.0,8.076,M,-38.397,M,6.0,0131*64
$PYRTM,2024,126.084189863553,17.193837273692
$GNHDT,119.505,T*22
$PYRTM,2024,126.084195603009,17.193843013160
$GNGGA,020114.50,3437.08110446,N,12124.15156134,W,2,10,1.0,8.047,M,-38.397,M,6.4,0131*66
$PYRTM,2024,126.084195603009,17.193843013160
$GNHDT,119.671,T*22
$PYRTM,2024,126.084201432731,17.193848842870
$GNGGA,020115.00,3437.08049420,N,12124.15033329,W,2,10,1.0,7.965,M,-38.397,M,7.0,0131*60
$PYRTM,2024,126.084201432731,17.193848842870
$GNHDT,119.914,T*2E
$PYRTM,2024,126.084207174942,17.193854585081
$GNGGA,020115.50,3437.07989992,N,12124.14912669,W,2,10,1.0,7.823,M,-38.397,M,7.4,0131*66
$PYRTM,2024,126.084207174942,17.193854585081
$GNHDT,120.799,T*2F
$PYRTM,2024,126.084213011794,17.193860421933
$GNGGA,020116.00,3437.07929736,N,12124.14795205,W,2,10,1.0,7.618,M,-38.397,M,7.0,0131*67
$PYRTM,2024,126.084213011794,17.193860421933
$GNHDT,121.300,T*2A
$PYRTM,2024,126.084218748750,17.193866158889
$GNGGA,020116.50,3437.07866367,N,12124.14682685,W,2,10,1.0,7.388,M,-38.397,M,7.4,0131*6B
$PYRTM,2024,126.084218748750,17.193866158889
$GNHDT,121.767,T*2F
$PYRTM,2024,126.084224580949,17.193871991088
$GNGGA,020117.00,3437.07801770,N,12124.14576113,W,2,10,1.0,7.182,M,-38.397,M,7.0,0131*60
$PYRTM,2024,126.084224580949,17.193871991088
$GNHDT,122.155,T*2B
$PYRTM,2024,126.084230322361,17.193877732512
$GNGGA,020117.50,3437.07738955,N,12124.14472661,W,2,10,1.0,7.018,M,-38.397,M,7.4,0131*68
$PYRTM,2024,126.084230322361,17.193877732512
$GNHDT,122.441,T*2B
$PYRTM,2024,126.084236158426,17.193883568565
$GNGGA,020118.00,3437.07680124,N,12124.14369942,W,2,10,1.0,6.927,M,-38.397,M,4.0,0131*6E
$PYRTM,2024,126.084236158426,17.193883568565
$GNHDT,122.621,T*2F
$PYRTM,2024,126.084241893044,17.193889303183
$GNGGA,020118.50,3437.07626128,N,12124.14264283,W,2,10,1.0,6.891,M,-38.397,M,4.4,0131*69
$PYRTM,2024,126.084241893044,17.193889303183
$GNHDT,122.800,T*22
$PYRTM,2024,126.084247730289,17.193895140428
$GNGGA,020119.00,3437.07576227,N,12124.14154500,W,2,10,1.0,6.869,M,-38.397,M,5.0,0131*69
$PYRTM,2024,126.084247730289,17.193895140428
$GNHDT,122.683,T*27
$PYRTM,2024,126.084253472199,17.193900882338
$GNGGA,020119.50,3437.07529021,N,12124.14040746,W,2,10,1.0,6.830,M,-38.397,M,5.4,0131*6E
$PYRTM,2024,126.084253472199,17.193900882338
$GNHDT,122.958,T*2E
$PYRTM,2024,126.084259301956,17.193906712095
$GNGGA,020120.00,3437.07482465,N,12124.13925339,W,2,10,1.0,6.786,M,-38.397,M,6.0,0131*61
$PYRTM,2024,126.084259301956,17.193906712095
$GNHDT,122.964,T*21
$PYRTM,2024,126.084265043634,17.193912453773
$GNGGA,020120.50,3437.07434651,N,12124.13809404,W,2,10,1.0,6.695,M,-38.397,M,6.4,0131*6D
$PYRTM,2024,126.084265043634,17.193912453773
$GNHDT,122.646,T*2E
$PYRTM,2024,126.084270878032,17.193918288171
$GNGGA,020121.00,3437.07383415,N,12124.13692764,W,2,10,1.0,6.618,M,-38.397,M,7.0,0131*69
$PYRTM,2024,126.084270878032,17.193918288171
$GNHDT,122.314,T*2C
$PYRTM,2024,126.084276619074,17.193924029213
$GNGGA,020121.50,3437.07326976,N,12124.13576244,W,2,10,1.0,6.534,M,-38.397,M,7.4,0131*6C
$PYRTM,2024,126.084276619074,17.193924029213
$GNHDT,121.991,T*28
$PYRTM,2024,126.084282454988,17.193929865127
$GNGGA,020122.00,3437.07264520,N,12124.13461058,W,2,10,1.0,6.515,M,-38.397,M,7.0,0131*6D
$PYRTM,2024,126.084282454988,17.193929865127
$GNHDT,121.685,T*22
$PYRTM,2024,126.084288191354,17.193935601505
$GNGGA,020122.50,3437.07195814,N,12124.13345972,W,2,10,1.0,6.582,M,-38.397,M,7.4,0131*65
$PYRTM,2024,126.084288191354,17.193935601505
$GNHDT,121.333,T*2A
$PYRTM,2024,126.084294027697,17.193941437836
$GNGGA,020123.00,3437.07121041,N,12124.13229390,W,2,10,1.0,6.763,M,-38.397,M,7.0,0131*62
$PYRTM,2024,126.084294027697,17.193941437836
$GNHDT,120.913,T*23
$PYRTM,2024,126.084299766690,17.193947176829
$GNGGA,020123.50,3437.07043221,N,12124.13108319,W,2,10,1.0,7.011,M,-38.397,M,7.4,0131*60
$PYRTM,2024,126.084299766690,17.193947176829
$GNHDT,120.807,T*27
$PYRTM,2024,126.084305602986,17.193953013125
$GNGGA,020124.00,3437.06963686,N,12124.12980883,W,2,10,1.0,7.355,M,-38.397,M,4.0,0131*64
$PYRTM,2024,126.084305602986,17.193953013125
$GNHDT,120.503,T*2E
$PYRTM,2024,126.084311337650,17.193958747789
$GNGGA,020124.50,3437.06885655,N,12124.12846804,W,2,10,1.0,7.711,M,-38.397,M,4.4,0131*62
$PYRTM,2024,126.084311337650,17.193958747789
$GNHDT,120.152,T*2E
$PYRTM,2024,126.084317177407,17.193964587546
$GNGGA,020125.00,3437.06809961,N,12124.12706779,W,2,10,1.0,8.086,M,-38.397,M,5.0,0131*67
$PYRTM,2024,126.084317177407,17.193964587546
$GNHDT,119.849,T*27
$PYRTM,2024,126.084322918322,17.193970328461
$GNGGA,020125.50,3437.06737177,N,12124.12564469,W,2,10,1.0,8.370,M,-38.397,M,5.4,0131*65
$PYRTM,2024,126.084322918322,17.193970328461
$GNHDT,119.625,T*23
$PYRTM,2024,126.084328746956,17.193976157095
$GNGGA,020126.00,3437.06666621,N,12124.12421891,W,2,10,1.0,8.539,M,-38.397,M,6.0,0131*65
$PYRTM,2024,126.084328746956,17.193976157095
$GNHDT,119.306,T*27
$PYRTM,2024,126.084334487975,17.193981898113
$GNGGA,020126.50,3437.06596732,N,12124.12283548,W,2,10,1.0,8.603,M,-38.397,M,6.4,0131*66
$PYRTM,2024,126.084334487975,17.193981898113
$GNHDT,119.316,T*26
$PYRTM,2024,126.084340325220,17.193987735370
$GNGGA,020127.00,3437.06524756,N,12124.12153168,W,2,10,1.0,8.503,M,-38.397,M,7.0,0131*67
$PYRTM,2024,126.084340325220,17.193987735370
$GNHDT,119.341,T*24
$PYRTM,2024,126.084346063194,17.193993473333
$GNGGA,020127.50,3437.06450606,N,12124.12030508,W,2,10,1.0,8.292,M,-38.397,M,7.4,0131*69
$PYRTM,2024,126.084346063194,17.193993473333
$GNHDT,119.414,T*23
$PYRTM,2024,126.084351898299,17.193999308438
$GNGGA,020128.00,3437.06376111,N,12124.11914471,W,2,10,1.0,7.954,M,-38.397,M,7.0,0131*68
$PYRTM,2024,126.084351898299,17.193999308438
$GNHDT,119.970,T*2C
$PYRTM,2024,126.084357639444,17.194005049595
$GNGGA,020128.50,3437.06304955,N,12124.11803094,W,2,10,1.0,7.535,M,-38.397,M,7.4,0131*67
$PYRTM,2024,126.084357639444,17.194005049595
$GNHDT,120.593,T*27
$PYRTM,2024,126.084363473924,17.194010884063
$GNGGA,020129.00,3437.06240249,N,12124.11694829,W,2,10,1.0,7.078,M,-38.397,M,7.0,0131*62
$PYRTM,2024,126.084363473924,17.194010884063
$GNHDT,121.054,T*28
$PYRTM,2024,126.084369210081,17.194016620220
$GNGGA,020129.50,3437.06183408,N,12124.11586290,W,2,10,1.0,6.688,M,-38.397,M,7.4,0131*6C
$PYRTM,2024,126.084369210081,17.194016620220
$GNHDT,121.660,T*29
$PYRTM,2024,126.084375050451,17.194022460590
$GNGGA,020130.00,3437.06133944,N,12124.11476596,W,2,10,1.0,6.371,M,-38.397,M,4.0,0131*64
$PYRTM,2024,126.084375050451,17.194022460590
$GNHDT,121.969,T*2F
$PYRTM,2024,126.084380787049,17.194028197187
$GNGGA,020130.50,3437.06087981,N,12124.11365152,W,2,10,1.0,6.186,M,-38.397,M,4.4,0131*61
$PYRTM,2024,126.084380787049,17.194028197187
$GNHDT,122.248,T*24
$PYRTM,2024,126.084386619144,17.194034029271
$GNGGA,020131.00,3437.06042964,N,12124.11254916,W,2,10,1.0,6.169,M,-38.397,M,5.0,0131*68
$PYRTM,2024,126.084386619144,17.194034029271
$GNHDT,122.302,T*2B
$PYRTM,2024,126.084392360972,17.194039771111
$GNGGA,020131.50,3437.05994605,N,12124.11147790,W,2,10,1.0,6.256,M,-38.396,M,5.4,0131*6F
$PYRTM,2024,126.084392360972,17.194039771111
$GNHDT,121.871,T*27
$PYRTM,2024,126.084398192384,17.194045602523
$GNGGA,020132.00,3437.05941779,N,12124.11042396,W,2,10,1.0,6.438,M,-38.396,M,6.0,0131*64
$PYRTM,2024,126.084398192384,17.194045602523
$GNHDT,121.738,T*25
$PYRTM,2024,126.084403930012,17.194051340150
$GNGGA,020132.50,3437.05885718,N,12124.10935027,W,2,10,1.0,6.646,M,-38.396,M,6.4,0131*61
$PYRTM,2024,126.084403930012,17.194051340150
$GNHDT,121.578,T*23
$PYRTM,2024,126.084409770683,17.194057180822
$GNGGA,020133.00,3437.05828127,N,12124.10823056,W,2,10,1.0,6.841,M,-38.396,M,7.0,0131*64
$PYRTM,2024,126.084409770683,17.194057180822
$GNHDT,121.424,T*2B
$PYRTM,2024,126.084415507477,17.194062917616
$GNGGA,020133.50,3437.05769759,N,12124.10705091,W,2,10,1.0,6.985,M,-38.396,M,7.4,0131*69
$PYRTM,2024,126.084415507477,17.194062917616
$GNHDT,121.257,T*29
$PYRTM,2024,126.084421341829,17.194068751968
$GNGGA,020134.00,3437.05709603,N,12124.10581994,W,2,10,1.0,7.096,M,-38.396,M,7.0,0131*6F
$PYRTM,2024,126.084421341829,17.194068751968
$GNHDT,120.990,T*28
$PYRTM,2024,126.084427080752,17.194074490891
$GNGGA,020134.50,3437.05646063,N,12124.10456251,W,2,10,1.0,7.188,M,-38.396,M,7.4,0131*63
$PYRTM,2024,126.084427080752,17.194074490891
$GNHDT,120.903,T*22
$PYRTM,2024,126.084432915139,17.194080325278
$GNGGA,020135.00,3437.05577758,N,12124.10329134,W,2,10,1.0,7.309,M,-38.396,M,7.0,0131*69
$PYRTM,2024,126.084432915139,17.194080325278
$GNHDT,120.697,T*20
$PYRTM,2024,126.084438656528,17.194086066667
$GNGGA,020135.50,3437.05505935,N,12124.10201601,W,2,10,1.0,7.472,M,-38.396,M,7.4,0131*69
$PYRTM,2024,126.084438656528,17.194086066667
$GNHDT,120.516,T*2A
$PYRTM,2024,126.084444491470,17.194091901620
$GNGGA,020136.00,3437.05430867,N,12124.10073547,W,2,10,1.0,7.663,M,-38.396,M,4.0,0131*6D
$PYRTM,2024,126.084444491470,17.194091901620
$GNHDT,120.236,T*2F
$PYRTM,2024,126.084450227720,17.194097637859
$GNGGA,020136.50,3437.05355454,N,12124.09945025,W,2,10,1.0,7.880,M,-38.396,M,4.4,0131*62
$PYRTM,2024,126.084450227720,17.194097637859
$GNHDT,120.037,T*2C
$PYRTM,2024,126.084456067454,17.194103477604
$GNGGA,020137.00,3437.05282204,N,12124.09813818,W,2,10,1.0,8.092,M,-38.396,M,5.0,0131*6B
$PYRTM,2024,126.084456067454,17.194103477604
$GNHDT,119.797,T*2B
$PYRTM,2024,126.084461802755,17.194109212894
$GNGGA,020137.50,3437.05212982,N,12124.09679746,W,2,10,1.0,8.243,M,-38.396,M,5.4,0131*6E
$PYRTM,2024,126.084461802755,17.194109212894
$GNHDT,119.594,T*2A
$PYRTM,2024,126.084467639352,17.194115049491
$GNGGA,020138.00,3437.05145785,N,12124.09542701,W,2,10,1.0,8.292,M,-38.396,M,6.0,0131*6F
$PYRTM,2024,126.084467639352,17.194115049491
$GNHDT,119.303,T*22
$PYRTM,2024,126.084473375949,17.194120786088
$GNGGA,020138.50,3437.05076898,N,12124.09407218,W,2,10,1.0,8.282,M,-38.396,M,6.4,0131*60
$PYRTM,2024,126.084473375949,17.194120786088
$GNHDT,119.120,T*21
$PYRTM,2024,126.084479211088,17.194126621227
$GNGGA,020139.00,3437.05004707,N,12124.09276236,W,2,10,1.0,8.213,M,-38.396,M,7.0,0131*69
$PYRTM,2024,126.084479211088,17.194126621227
$GNHDT,118.948,T*26
$PYRTM,2024,126.084484950486,17.194132360625
$GNGGA,020139.50,3437.04930295,N,12124.09151526,W,2,10,1.0,8.129,M,-38.396,M,7.4,0131*63
$PYRTM,2024,126.084484950486,17.194132360625
$GNHDT,119.146,T*21
$PYRTM,2024,126.084490783484,17.194138193623
$GNGGA,020140.00,3437.04857613,N,12124.09031298,W,2,10,1.0,8.016,M,-38.396,M,7.0,0131*6E
$PYRTM,2024,126.084490783484,17.194138193623
$GNHDT,119.211,T*20
$PYRTM,2024,126.084496522674,17.194143932812
$GNGGA,020140.50,3437.04789850,N,12124.08913632,W,2,10,1.0,7.872,M,-38.396,M,7.4,0131*63
$PYRTM,2024,126.084496522674,17.194143932812
$GNHDT,119.487,T*29
$PYRTM,2024,126.084502361551,17.194149771690
$GNGGA,020141.00,3437.04729269,N,12124.08796298,W,2,10,1.0,7.695,M,-38.396,M,7.0,0131*69
$PYRTM,2024,126.084502361551,17.194149771690
$GNHDT,119.784,T*29
$PYRTM,2024,126.084508097257,17.194155507396
$GNGGA,020141.50,3437.04675098,N,12124.08679307,W,2,10,1.0,7.479,M,-38.396,M,7.4,0131*6B
$PYRTM,2024,126.084508097257,17.194155507396
$GNHDT,120.249,T*27
$PYRTM,2024,126.084513934317,17.194161344456
$GNGGA,020142.00,3437.04625010,N,12124.08562617,W,2,10,1.0,7.206,M,-38.396,M,4.0,0131*6C
$PYRTM,2024,126.084513934317,17.194161344456
$GNHDT,120.749,T*22
$PYRTM,2024,126.084519677963,17.194167088113
$GNGGA,020142.50,3437.04576735,N,12124.08447992,W,2,10,1.0,6.926,M,-38.396,M,4.4,0131*64
$PYRTM,2024,126.084519677963,17.194167088113
$GNHDT,121.269,T*24
$PYRTM,2024,126.084525511944,17.194172922083
$GNGGA,020143.00,3437.04529315,N,12124.08337050,W,2,10,1.0,6.686,M,-38.396,M,5.0,0131*6B
$PYRTM,2024,126.084525511944,17.194172922083
$GNHDT,121.762,T*2A
$PYRTM,2024,126.084531248681,17.194178658819
$GNGGA,020143.50,3437.04480393,N,12124.08229141,W,2,10,1.0,6.494,M,-38.396,M,5.4,0131*68
$PYRTM,2024,126.084531248681,17.194178658819
$GNHDT,122.210,T*29
$PYRTM,2024,126.084537090289,17.194184500440
$GNGGA,020144.00,3437.04428898,N,12124.08122083,W,2,10,1.0,6.368,M,-38.396,M,6.0,0131*6C
$PYRTM,2024,126.084537090289,17.194184500440
$GNHDT,122.642,T*2A
$PYRTM,2024,126.084542823657,17.194190233796
$GNGGA,020144.50,3437.04374387,N,12124.08014381,W,2,10,1.0,6.263,M,-38.396,M,6.4,0131*69
$PYRTM,2024,126.084542823657,17.194190233796
$GNHDT,122.494,T*23
$PYRTM,2024,126.084548655278,17.194196065417
$GNGGA,020145.00,3437.04316687,N,12124.07904613,W,2,10,1.0,6.230,M,-38.396,M,7.0,0131*66
$PYRTM,2024,126.084548655278,17.194196065417
$GNHDT,122.379,T*27
$PYRTM,2024,126.084554399294,17.194201809433
$GNGGA,020145.50,3437.04255839,N,12124.07792399,W,2,10,1.0,6.279,M,-38.396,M,7.4,0131*61
$PYRTM,2024,126.084554399294,17.194201809433
$GNHDT,122.078,T*25
$PYRTM,2024,126.084560233542,17.194207643692
$GNGGA,020146.00,3437.04191806,N,12124.07677810,W,2,10,1.0,6.466,M,-38.396,M,7.0,0131*6C
$PYRTM,2024,126.084560233542,17.194207643692
$GNHDT,121.495,T*21
$PYRTM,2024,126.084565970382,17.194213380521
$GNGGA,020146.50,3437.04126868,N,12124.07557858,W,2,10,1.0,6.714,M,-38.396,M,7.4,0131*62
$PYRTM,2024,126.084565970382,17.194213380521
$GNHDT,121.072,T*2C
$PYRTM,2024,126.084571805486,17.194219215637
$GNGGA,020147.00,3437.04062399,N,12124.07431103,W,2,10,1.0,7.008,M,-38.396,M,7.0,0131*6B
$PYRTM,2024,126.084571805486,17.194219215637
$GNHDT,120.353,T*2D
$PYRTM,2024,126.084577544479,17.194224954630
$GNGGA,020147.50,3437.03998432,N,12124.07298976,W,2,10,1.0,7.301,M,-38.396,M,7.4,0131*62
$PYRTM,2024,126.084577544479,17.194224954630
$GNHDT,119.420,T*24
$PYRTM,2024,126.084583382569,17.194230792708
$GNGGA,020148.00,3437.03934209,N,12124.07162893,W,2,10,1.0,7.545,M,-38.396,M,4.0,0131*6D
$PYRTM,2024,126.084583382569,17.194230792708
$GNHDT,118.727,T*21
$PYRTM,2024,126.084589115023,17.194236525162
$GNGGA,020148.50,3437.03868146,N,12124.07026727,W,2,10,1.0,7.692,M,-38.395,M,4.4,0131*67
$PYRTM,2024,126.084589115023,17.194236525162
$GNHDT,117.635,T*2C
$PYRTM,2024,126.084594952928,17.194242363067
$GNGGA,020149.00,3437.03796869,N,12124.06893094,W,2,10,1.0,7.767,M,-38.395,M,5.0,0131*6F
$PYRTM,2024,126.084594952928,17.194242363067
$GNHDT,117.100,T*2D
$PYRTM,2024,126.084600694421,17.194248104560
$GNGGA,020149.50,3437.03720297,N,12124.06765491,W,2,10,1.0,7.806,M,-38.395,M,5.4,0131*67
$PYRTM,2024,126.084600694421,17.194248104560
$GNHDT,116.620,T*29
$PYRTM,2024,126.084606525579,17.194253935718
$GNGGA,020150.00,3437.03639241,N,12124.06645088,W,2,10,1.0,7.788,M,-38.395,M,6.0,0131*69
$PYRTM,2024,126.084606525579,17.194253935718
$GNHDT,116.744,T*2A
$PYRTM,2024,126.084612269178,17.194259679317
$GNGGA,020150.50,3437.03557751,N,12124.06530413,W,2,10,1.0,7.717,M,-38.395,M,6.4,0131*66
$PYRTM,2024,126.084612269178,17.194259679317
$GNHDT,117.263,T*2B
$PYRTM,2024,126.084618105336,17.194265515486
$GNGGA,020151.00,3437.03480088,N,12124.06418739,W,2,10,1.0,7.592,M,-38.395,M,7.0,0131*60
$PYRTM,2024,126.084618105336,17.194265515486
$GNHDT,118.111,T*22
$PYRTM,2024,126.084623843056,17.194271253194
$GNGGA,020151.50,3437.03408120,N,12124.06309217,W,2,10,1.0,7.490,M,-38.395,M,7.4,0131*6F
$PYRTM,2024,126.084623843056,17.194271253194
$GNHDT,119.221,T*23
$PYRTM,2024,126.084629677407,17.194277087546
$GNGGA,020152.00,3437.03343600,N,12124.06201048,W,2,10,1.0,7.367,M,-38.395,M,7.0,0131*6E
$PYRTM,2024,126.084629677407,17.194277087546
$GNHDT,120.366,T*2B
$PYRTM,2024,126.084635415475,17.194282825613
$GNGGA,020152.50,3437.03286411,N,12124.06091075,W,2,10,1.0,7.280,M,-38.395,M,7.4,0131*68
$PYRTM,2024,126.084635415475,17.194282825613
$GNHDT,121.807,T*26
$PYRTM,2024,126.084641254248,17.194288664387
$GNGGA,020153.00,3437.03234337,N,12124.05978978,W,2,10,1.0,7.238,M,-38.395,M,7.0,0131*68
$PYRTM,2024,126.084641254248,17.194288664387
$GNHDT,122.892,T*29
$PYRTM,2024,126.084646986944,17.194294397083
$GNGGA,020153.50,3437.03183404,N,12124.05863413,W,2,10,1.0,7.200,M,-38.395,M,7.4,0131*61
$PYRTM,2024,126.084646986944,17.194294397083
$GNHDT,123.940,T*26
$PYRTM,2024,126.084652831505,17.194300241644
$GNGGA,020154.00,3437.03131368,N,12124.05745015,W,2,10,1.0,7.191,M,-38.395,M,4.0,0131*62
$PYRTM,2024,126.084652831505,17.194300241644
$GNHDT,124.372,T*2A
$PYRTM,2024,126.084658562708,17.194305972847
$GNGGA,020154.50,3437.03076768,N,12124.05623118,W,2,10,1.0,7.189,M,-38.395,M,4.4,0131*61
$PYRTM,2024,126.084658562708,17.194305972847
$GNHDT,124.117,T*2B
$PYRTM,2024,126.084664401505,17.194311811644
$GNGGA,020155.00,3437.03019338,N,12124.05497802,W,2,10,1.0,7.174,M,-38.395,M,5.0,0131*65
$PYRTM,2024,126.084664401505,17.194311811644
$GNHDT,123.725,T*2B
$PYRTM,2024,126.084670139132,17.194317549271
$GNGGA,020155.50,3437.02959901,N,12124.05370528,W,2,10,1.0,7.188,M,-38.395,M,5.4,0131*60
$PYRTM,2024,126.084670139132,17.194317549271
$GNHDT,123.001,T*2A
$PYRTM,2024,126.084675969549,17.194323379699
$GNGGA,020156.00,3437.02898585,N,12124.05241620,W,2,10,1.0,7.249,M,-38.395,M,6.0,0131*6B
$PYRTM,2024,126.084675969549,17.194323379699
$GNHDT,122.140,T*2F
$PYRTM,2024,126.084681711424,17.194329121563
$GNGGA,020156.50,3437.02837040,N,12124.05111827,W,2,10,1.0,7.315,M,-38.395,M,6.4,0131*64
$PYRTM,2024,126.084681711424,17.194329121563
$GNHDT,121.268,T*25
$PYRTM,2024,126.084687547442,17.194334957581
$GNGGA,020157.00,3437.02776071,N,12124.04980569,W,2,10,1.0,7.391,M,-38.395,M,7.0,0131*67
$PYRTM,2024,126.084687547442,17.194334957581
$GNHDT,120.126,T*2D
$PYRTM,2024,126.084693283773,17.194340693924
$GNGGA,020157.50,3437.02715437,N,12124.04847983,W,2,10,1.0,7.434,M,-38.395,M,7.4,0131*6F
$PYRTM,2024,126.084693283773,17.194340693924
$GNHDT,119.148,T*2F
$PYRTM,2024,126.084699130880,17.194346541019
$GNGGA,020158.00,3437.02653679,N,12124.04718227,W,2,10,1.0,7.409,M,-38.395,M,7.0,0131*64
$PYRTM,2024,126.084699130880,17.194346541019
$GNHDT,118.595,T*2A
$PYRTM,2024,126.084704857778,17.194352267928
$GNGGA,020158.50,3437.02589453,N,12124.04593390,W,2,10,1.0,7.314,M,-38.395,M,7.4,0131*6C
$PYRTM,2024,126.084704857778,17.194352267928
$GNHDT,118.249,T*2C
$PYRTM,2024,126.084710692905,17.194358103044
$GNGGA,020159.00,3437.02522420,N,12124.04475206,W,2,10,1.0,7.197,M,-38.395,M,7.0,0131*67
$PYRTM,2024,126.084710692905,17.194358103044
$GNHDT,117.823,T*25
$PYRTM,2024,126.084716435081,17.194363845220
$GNGGA,020159.50,3437.02453707,N,12124.04364630,W,2,10,1.0,7.057,M,-38.395,M,7.4,0131*6C
$PYRTM,2024,126.084716435081,17.194363845220
$GNHDT,117.864,T*26
$PYRTM,2024,126.084722273206,17.194369683356
$GNGGA,020200.00,3437.02383801,N,12124.04261076,W,2,10,1.0,6.944,M,-38.395,M,4.0,0131*68
$PYRTM,2024,126.084722273206,17.194369683356
$GNHDT,118.207,T*26
$PYRTM,2024,126.084728007650,17.194375417789
$GNGGA,020200.50,3437.02314142,N,12124.04160625,W,2,10,1.0,6.840,M,-38.395,M,4.4,0131*6E
$PYRTM,2024,126.084728007650,17.194375417789
$GNHDT,118.912,T*29
$PYRTM,2024,126.084733846343,17.194381256481
$GNGGA,020201.00,3437.02245244,N,12124.04061687,W,2,10,1.0,6.769,M,-38.395,M,5.0,0131*63
$PYRTM,2024,126.084733846343,17.194381256481
$GNHDT,119.698,T*25
$PYRTM,2024,126.084739583148,17.194386993299
$GNGGA,020201.50,3437.02178786,N,12124.03962240,W,2,10,1.0,6.715,M,-38.395,M,5.4,0131*6D
$PYRTM,2024,126.084739583148,17.194386993299
$GNHDT,120.237,T*2E
$PYRTM,2024,126.084745418322,17.194392828472
$GNGGA,020202.00,3437.02114680,N,12124.03859329,W,2,10,1.0,6.668,M,-38.395,M,6.0,0131*6D
$PYRTM,2024,126.084745418322,17.194392828472
$GNHDT,120.940,T*25
$PYRTM,2024,126.084751153461,17.194398563611
$GNGGA,020202.50,3437.02053380,N,12124.03751485,W,2,10,1.0,6.658,M,-38.395,M,6.4,0131*6E
$PYRTM,2024,126.084751153461,17.194398563611
$GNHDT,121.480,T*25
$PYRTM,2024,126.084756989062,17.194404399201
$GNGGA,020203.00,3437.01993697,N,12124.03637873,W,2,10,1.0,6.690,M,-38.395,M,7.0,0131*6A
$PYRTM,2024,126.084756989062,17.194404399201
$GNHDT,121.873,T*25
$PYRTM,2024,126.084762728819,17.194410138958
$GNGGA,020203.50,3437.01935307,N,12124.03519575,W,2,10,1.0,6.778,M,-38.395,M,7.4,0131*68
$PYRTM,2024,126.084762728819,17.194410138958
$GNHDT,122.004,T*2E
$PYRTM,2024,126.084768562546,17.194415972685
$GNGGA,020204.00,3437.01876237,N,12124.03397533,W,2,10,1.0,6.918,M,-38.395,M,7.0,0131*60
$PYRTM,2024,126.084768562546,17.194415972685
$GNHDT,122.024,T*2C
$PYRTM,2024,126.084774301829,17.194421711968
$GNGGA,020204.50,3437.01815324,N,12124.03272728,W,2,10,1.0,7.056,M,-38.395,M,7.4,0131*67
$PYRTM,2024,126.084774301829,17.194421711968
$GNHDT,121.731,T*2C
$PYRTM,2024,126.084780141111,17.194427551250
$GNGGA,020205.00,3437.01752408,N,12124.03144591,W,2,10,1.0,7.193,M,-38.395,M,7.0,0131*6C
$PYRTM,2024,126.084780141111,17.194427551250
$GNHDT,121.414,T*28
$PYRTM,2024,126.084785874491,17.194433284630
$GNGGA,020205.50,3437.01688995,N,12124.03014698,W,2,10,1.0,7.308,M,-38.395,M,7.4,0131*6C
$PYRTM,2024,126.084785874491,17.194433284630
$GNHDT,120.951,T*25
$PYRTM,2024,126.084791713472,17.194439123611
$GNGGA,020206.00,3437.01626606,N,12124.02883663,W,2,10,1.0,7.417,M,-38.395,M,4.0,0131*66
$PYRTM,2024,126.084791713472,17.194439123611
$GNHDT,120.432,T*2D
$PYRTM,2024,126.084797449375,17.194444859525
$GNGGA,020206.50,3437.01566223,N,12124.02752474,W,2,10,1.0,7.534,M,-38.395,M,4.4,0131*64
$PYRTM,2024,126.084797449375,17.194444859525
$GNHDT,119.985,T*26
$PYRTM,2024,126.084803285961,17.194450696100
$GNGGA,020207.00,3437.01507774,N,12124.02622508,W,2,10,1.0,7.644,M,-38.395,M,5.0,0131*6D
$PYRTM,2024,126.084803285961,17.194450696100
$GNHDT,119.418,T*2F
$PYRTM,2024,126.084809025799,17.194456435938
$GNGGA,020207.50,3437.01451039,N,12124.02495226,W,2,10,1.0,7.741,M,-38.395,M,5.4,0131*61
$PYRTM,2024,126.084809025799,17.194456435938
$GNHDT,119.029,T*29
$PYRTM,2024,126.084814861447,17.194462271586
$GNGGA,020208.00,3437.01395769,N,12124.02371522,W,2,10,1.0,7.799,M,-38.394,M,6.0,0131*6B
$PYRTM,2024,126.084814861447,17.194462271586
$GNHDT,118.755,T*24
$PYRTM,2024,126.084820598171,17.194468008310
$GNGGA,020208.50,3437.01340659,N,12124.02252653,W,2,10,1.0,7.790,M,-38.394,M,6.4,0131*6C
$PYRTM,2024,126.084820598171,17.194468008310
$GNHDT,118.795,T*28
$PYRTM,2024,126.084826436516,17.194473846655
$GNGGA,020209.00,3437.01284717,N,12124.02138130,W,2,10,1.0,7.708,M,-38.394,M,7.0,0131*63
$PYRTM,2024,126.084826436516,17.194473846655
$GNHDT,118.653,T*23
$PYRTM,2024,126.084832172176,17.194479582315
$GNGGA,020209.50,3437.01227082,N,12124.02027060,W,2,10,1.0,7.561,M,-38.394,M,7.4,0131*66
$PYRTM,2024,126.084832172176,17.194479582315
$GNHDT,118.819,T*23
$PYRTM,2024,126.084838014977,17.194485425116
$GNGGA,020210.00,3437.01168288,N,12124.01918317,W,2,10,1.0,7.375,M,-38.394,M,7.0,0131*69
$PYRTM,2024,126.084838014977,17.194485425116
$GNHDT,118.798,T*25
$PYRTM,2024,126.084843750914,17.194491161053
$GNGGA,020210.50,3437.01109091,N,12124.01809407,W,2,10,1.0,7.168,M,-38.394,M,7.4,0131*6C
$PYRTM,2024,126.084843750914,17.194491161053
$GNHDT,119.104,T*27
$PYRTM,2024,126.084849585544,17.194496995683
$GNGGA,020211.00,3437.01051159,N,12124.01698750,W,2,10,1.0,6.977,M,-38.394,M,7.0,0131*65
$PYRTM,2024,126.084849585544,17.194496995683
$GNHDT,119.194,T*2E
$PYRTM,2024,126.084855323981,17.194502734120
$GNGGA,020211.50,3437.00994122,N,12124.01585507,W,2,10,1.0,6.848,M,-38.394,M,7.4,0131*6B
$PYRTM,2024,126.084855323981,17.194502734120
$GNHDT,119.502,T*25
$PYRTM,2024,126.084861169884,17.194508580023
$GNGGA,020212.00,3437.00936710,N,12124.01470002,W,2,10,1.0,6.812,M,-38.394,M,4.0,0131*61
$PYRTM,2024,126.084861169884,17.194508580023
$GNHDT,119.787,T*2A
$PYRTM,2024,126.084866897014,17.194514307153
$GNGGA,020212.50,3437.00878311,N,12124.01352968,W,2,10,1.0,6.852,M,-38.394,M,4.4,0131*68
$PYRTM,2024,126.084866897014,17.194514307153
$GNHDT,120.004,T*2C
$PYRTM,2024,126.084872733241,17.194520143380
$GNGGA,020213.00,3437.00817746,N,12124.01233650,W,2,10,1.0,6.945,M,-38.394,M,5.0,0131*63
$PYRTM,2024,126.084872733241,17.194520143380
$GNHDT,120.250,T*2F
$PYRTM,2024,126.084878470856,17.194525880995
$GNGGA,020213.50,3437.00753837,N,12124.01111781,W,2,10,1.0,7.033,M,-38.394,M,5.4,0131*63
$PYRTM,2024,126.084878470856,17.194525880995
$GNHDT,120.401,T*2D
$PYRTM,2024,126.084884310880,17.194531721019
$GNGGA,020214.00,3437.00685988,N,12124.00988739,W,2,10,1.0,7.067,M,-38.394,M,6.0,0131*62
$PYRTM,2024,126.084884310880,17.194531721019
$GNHDT,120.353,T*2D
$PYRTM,2024,126.084890044051,17.194537454190
$GNGGA,020214.50,3437.00614573,N,12124.00865485,W,2,10,1.0,7.097,M,-38.394,M,6.4,0131*6A
$PYRTM,2024,126.084890044051,17.194537454190
$GNHDT,120.587,T*22
$PYRTM,2024,126.084895887361,17.194543297500
$GNGGA,020215.00,3437.00541666,N,12124.00743095,W,2,10,1.0,7.109,M,-38.394,M,7.0,0131*67
$PYRTM,2024,126.084895887361,17.194543297500
$GNHDT,120.340,T*2F
$PYRTM,2024,126.084901622975,17.194549033113
$GNGGA,020215.50,3437.00470261,N,12124.00620968,W,2,10,1.0,7.163,M,-38.394,M,7.4,0131*65
$PYRTM,2024,126.084901622975,17.194549033113
$GNHDT,120.199,T*29
$PYRTM,2024,126.084907455486,17.194554865625
$GNGGA,020216.00,3437.00403372,N,12124.00499059,W,2,10,1.0,7.236,M,-38.394,M,7.0,0131*68
$PYRTM,2024,126.084907455486,17.194554865625
$GNHDT,119.989,T*2A
$PYRTM,2024,126.084913193773,17.194560603912
$GNGGA,020216.50,3437.00343366,N,12124.00378677,W,2,10,1.0,7.317,M,-38.394,M,7.4,0131*6F
$PYRTM,2024,126.084913193773,17.194560603912
$GNHDT,119.660,T*22
$PYRTM,2024,126.084919032905,17.194566443044
$GNGGA,020217.00,3437.00288772,N,12124.00261454,W,2,10,1.0,7.388,M,-38.394,M,7.0,0131*64
$PYRTM,2024,126.084919032905,17.194566443044
$GNHDT,119.850,T*2F
$PYRTM,2024,126.084924771748,17.194572181887
$GNGGA,020217.50,3437.00237021,N,12124.00148111,W,2,10,1.0,7.395,M,-38.394,M,7.4,0131*60
$PYRTM,2024,126.084924771748,17.194572181887
$GNHDT,120.327,T*2E
$PYRTM,2024,126.084930607188,17.194578017326
$GNGGA,020218.00,3437.00186445,N,12124.00037616,W,2,10,1.0,7.311,M,-38.394,M,4.0,0131*67
$PYRTM,2024,126.084930607188,17.194578017326
$GNHDT,120.617,T*28
$PYRTM,2024,126.084936337755,17.194583747894
$GNGGA,020218.50,3437.00134369,N,12123.99928405,W,2,10,1.0,7.142,M,-38.394,M,4.4,0131*62
$PYRTM,2024,126.084936337755,17.194583747894
$GNHDT,121.016,T*2E
$PYRTM,2024,126.084942179456,17.194589589595
$GNGGA,020219.00,3437.00079724,N,12123.99820234,W,2,10,1.0,6.908,M,-38.394,M,5.0,0131*6C
$PYRTM,2024,126.084942179456,17.194589589595
$GNHDT,121.013,T*2B
$PYRTM,2024,126.084947919630,17.194595329769
$GNGGA,020219.50,3437.00021582,N,12123.99712899,W,2,10,1.0,6.692,M,-38.394,M,5.4,0131*61
$PYRTM,2024,126.084947919630,17.194595329769
$GNHDT,121.204,T*2F
$PYRTM,2024,126.084953755880,17.194601166019
$GNGGA,020220.00,3436.99961970,N,12123.99607110,W,2,10,1.0,6.560,M,-38.394,M,6.0,0131*67
$PYRTM,2024,126.084953755880,17.194601166019
$GNHDT,121.158,T*25
$PYRTM,2024,126.084959490590,17.194606900729
$GNGGA,020220.50,3436.99902311,N,12123.99500413,W,2,10,1.0,6.593,M,-38.394,M,6.4,0131*60
$PYRTM,2024,126.084959490590,17.194606900729
$GNHDT,120.691,T*26
$PYRTM,2024,126.084965328449,17.194612738600
$GNGGA,020221.00,3436.99843821,N,12123.99389797,W,2,10,1.0,6.778,M,-38.394,M,7.0,0131*62
$PYRTM,2024,126.084965328449,17.194612738600
$GNHDT,120.408,T*24
$PYRTM,2024,126.084971061227,17.194618471366
$GNGGA,020221.50,3436.99786669,N,12123.99272625,W,2,10,1.0,7.053,M,-38.394,M,7.4,0131*65
$PYRTM,2024,126.084971061227,17.194618471366
$GNHDT,120.284,T*26
$PYRTM,2024,126.084976897824,17.194624307975
$GNGGA,020222.00,3436.99729963,N,12123.99149791,W,2,10,1.0,7.333,M,-38.394,M,7.0,0131*67
$PYRTM,2024,126.084976897824,17.194624307975
$GNHDT,120.171,T*2F
$PYRTM,2024,126.084982633356,17.194630043495
$GNGGA,020222.50,3436.99671067,N,12123.99023571,W,2,10,1.0,7.555,M,-38.394,M,7.4,0131*60
$PYRTM,2024,126.084982633356,17.194630043495
$GNHDT,119.984,T*27
$PYRTM,2024,126.084988473669,17.194635883808
$GNGGA,020223.00,3436.99608945,N,12123.98896022,W,2,10,1.0,7.681,M,-38.394,M,7.0,0131*69
$PYRTM,2024,126.084988473669,17.194635883808
$GNHDT,119.773,T*21
$PYRTM,2024,126.084994208391,17.194641618530
$GNGGA,020223.50,3436.99544733,N,12123.98769036,W,2,10,1.0,7.750,M,-38.394,M,7.4,0131*6B
$PYRTM,2024,126.084994208391,17.194641618530
$GNHDT,119.676,T*25
$PYRTM,2024,126.085000043113,17.194647453252
$GNGGA,020224.00,3436.99478952,N,12123.98644401,W,2,10,1.0,7.776,M,-38.394,M,4.0,0131*63
$PYRTM,2024,126.085000043113,17.194647453252
$GNHDT,119.668,T*2A
$PYRTM,2024,126.085005783831,17.194653193970
$GNGGA,020224.50,3436.99413097,N,12123.98524211,W,2,10,1.0,7.774,M,-38.394,M,4.4,0131*6F
$PYRTM,2024,126.085005783831,17.194653193970
$GNHDT,119.752,T*22
$PYRTM,2024,126.085011624410,17.194659034549
$GNGGA,020225.00,3436.99347515,N,12123.98408812,W,2,10,1.0,7.717,M,-38.394,M,5.0,0131*64
$PYRTM,2024,126.085011624410,17.194659034549
$GNHDT,119.992,T*20
$PYRTM,2024,126.085017358738,17.194664768877
$GNGGA,020225.50,3436.99283915,N,12123.98295914,W,2,10,1.0,7.608,M,-38.393,M,5.4,0131*6D
$PYRTM,2024,126.085017358738,17.194664768877
$GNHDT,120.356,T*28
$PYRTM,2024,126.085023196875,17.194670607014
$GNGGA,020226.00,3436.99222563,N,12123.98182886,W,2,10,1.0,7.413,M,-38.393,M,6.0,0131*6D
$PYRTM,2024,126.085023196875,17.194670607014
$GNHDT,120.691,T*26
$PYRTM,2024,126.085028937130,17.194676347280
$GNGGA,020226.50,3436.99162814,N,12123.98068238,W,2,10,1.0,7.137,M,-38.393,M,6.4,0131*6F
$PYRTM,2024,126.085028937130,17.194676347280
$GNHDT,121.127,T*2D
$PYRTM,2024,126.085034776424,17.194682186562
$GNGGA,020227.00,3436.99104320,N,12123.97953685,W,2,10,1.0,6.829,M,-38.393,M,7.0,0131*69
$PYRTM,2024,126.085034776424,17.194682186562
$GNHDT,121.068,T*27
$PYRTM,2024,126.085040508843,17.194687918981
$GNGGA,020227.50,3436.99046019,N,12123.97840358,W,2,10,1.0,6.593,M,-38.393,M,7.4,0131*6C
$PYRTM,2024,126.085040508843,17.194687918981
$GNHDT,120.804,T*24
$PYRTM,2024,126.085046344167,17.194693754306
$GNGGA,020228.00,3436.98988174,N,12123.97728945,W,2,10,1.0,6.510,M,-38.393,M,7.0,0131*6E
$PYRTM,2024,126.085046344167,17.194693754306
$GNHDT,120.639,T*24
$PYRTM,2024,126.085052081285,17.194699491424
$GNGGA,020228.50,3436.98932052,N,12123.97618162,W,2,10,1.0,6.580,M,-38.393,M,7.4,0131*6D
$PYRTM,2024,126.085052081285,17.194699491424
$GNHDT,120.515,T*29
$PYRTM,2024,126.085057922245,17.194705332396
