$PYRTM,2024,126.333333953519,17.442981363657
$GNGGA,080000.00,3413.39125188,N,12031.48498112,W,2,11,0.9,7.345,M,-37.217,M,4.0,0131*61
$PYRTM,2024,126.333333953519,17.442981363657
$GNHDT,104.360,T*2B
$PYRTM,2024,126.333340296053,17.442987706192
$GNGGA,080000.50,3413.39082113,N,12031.48365169,W,2,11,0.9,7.465,M,-37.217,M,4.4,0131*62
$PYRTM,2024,126.333340296053,17.442987706192
$GNHDT,104.277,T*2C
$PYRTM,2024,126.333346083079,17.442993493218
$GNGGA,080001.00,3413.39038846,N,12031.48235100,W,2,11,0.9,7.508,M,-37.217,M,5.0,0131*6A
$PYRTM,2024,126.333346083079,17.442993493218
$GNHDT,104.221,T*2F
$PYRTM,2024,126.333352379363,17.442999789502
$GNGGA,080001.50,3413.38996144,N,12031.48105715,W,2,11,0.9,7.467,M,-37.217,M,5.4,0131*66
$PYRTM,2024,126.333352379363,17.442999789502
$GNHDT,104.492,T*21
$PYRTM,2024,126.333357009063,17.443004419201
$GNGGA,080002.00,3413.38952016,N,12031.47980049,W,2,11,0.9,7.350,M,-37.217,M,6.0,0131*6E
$PYRTM,2024,126.333357009063,17.443004419201
$GNHDT,104.815,T*22
$PYRTM,2024,126.333364509005,17.443011919144
$GNGGA,080002.50,3413.38907623,N,12031.47857553,W,2,11,0.9,7.185,M,-37.217,M,6.4,0131*60
$PYRTM,2024,126.333364509005,17.443011919144
$GNHDT,105.175,T*2C
$PYRTM,2024,126.333370296007,17.443017706146
$GNGGA,080003.00,3413.38863060,N,12031.47740981,W,2,11,0.9,6.985,M,-37.217,M,7.0,0131*60
$PYRTM,2024,126.333370296007,17.443017706146
$GNHDT,105.486,T*25
$PYRTM,2024,126.333376592326,17.443024002465
$GNGGA,080003.50,3413.38821113,N,12031.47622665,W,2,11,0.9,6.819,M,-37.217,M,7.4,0131*66
$PYRTM,2024,126.333376592326,17.443024002465
$GNHDT,105.822,T*27
$PYRTM,2024,126.333381221944,17.443028632083
$GNGGA,080004.00,3413.38779898,N,12031.47504077,W,2,11,0.9,6.704,M,-37.217,M,7.0,0131*69
$PYRTM,2024,126.333381221944,17.443028632083
$GNHDT,105.737,T*2C
$PYRTM,2024,126.333386125799,17.443033535937
$GNGGA,080004.50,3413.38739169,N,12031.47383281,W,2,11,0.9,6.655,M,-37.217,M,7.4,0131*6C
$PYRTM,2024,126.333386125799,17.443033535937
$GNHDT,105.786,T*26
$PYRTM,2024,126.333393629387,17.443041039525
$GNGGA,080005.00,3413.38697042,N,12031.47262658,W,2,11,0.9,6.682,M,-37.217,M,7.0,0131*65
$PYRTM,2024,126.333393629387,17.443041039525
$GNHDT,105.803,T*24
$PYRTM,2024,126.333397699444,17.443045109583
$GNGGA,080005.50,3413.38654251,N,12031.47140038,W,2,11,0.9,6.778,M,-37.217,M,7.4,0131*6C
$PYRTM,2024,126.333397699444,17.443045109583
$GNHDT,105.502,T*28
$PYRTM,2024,126.333404508958,17.443051919097
$GNGGA,080006.00,3413.38611229,N,12031.47015300,W,2,11,0.9,6.912,M,-37.217,M,4.0,0131*68
$PYRTM,2024,126.333404508958,17.443051919097
$GNHDT,105.285,T*20
$PYRTM,2024,126.333410805289,17.443058215428
$GNGGA,080006.50,3413.38568337,N,12031.46888815,W,2,11,0.9,7.024,M,-37.217,M,4.4,0131*65
$PYRTM,2024,126.333410805289,17.443058215428
$GNHDT,105.284,T*21
$PYRTM,2024,126.333416592350,17.443064002488
$GNGGA,080007.00,3413.38526129,N,12031.46761061,W,2,11,0.9,7.113,M,-37.217,M,5.0,0131*65
$PYRTM,2024,126.333416592350,17.443064002488
$GNHDT,105.468,T*25
$PYRTM,2024,126.333422888634,17.443070298773
$GNGGA,080007.50,3413.38484191,N,12031.46634765,W,2,11,0.9,7.163,M,-37.217,M,5.4,0131*6B
$PYRTM,2024,126.333422888634,17.443070298773
$GNHDT,105.424,T*2D
$PYRTM,2024,126.333426175706,17.443073585845
$GNGGA,080008.00,3413.38442359,N,12031.46509820,W,2,11,0.9,7.149,M,-37.217,M,6.0,0131*61
$PYRTM,2024,126.333426175706,17.443073585845
$GNHDT,105.709,T*21
$PYRTM,2024,126.333433860856,17.443081270995
$GNGGA,080008.50,3413.38399348,N,12031.46387684,W,2,11,0.9,7.107,M,-37.217,M,6.4,0131*6B
$PYRTM,2024,126.333433860856,17.443081270995
$GNHDT,106.287,T*21
$PYRTM,2024,126.333439647882,17.443087058021
$GNGGA,080009.00,3413.38355093,N,12031.46267144,W,2,11,0.9,7.008,M,-37.217,M,7.0,0131*65
$PYRTM,2024,126.333439647882,17.443087058021
$GNHDT,106.441,T*2D
$PYRTM,2024,126.333445990486,17.443093400625
$GNGGA,080009.50,3413.38309219,N,12031.46147515,W,2,11,0.9,6.866,M,-37.217,M,7.4,0131*6D
$PYRTM,2024,126.333445990486,17.443093400625
$GNHDT,107.025,T*2A
$PYRTM,2024,126.333450620127,17.443098030266
$GNGGA,080010.00,3413.38263002,N,12031.46026809,W,2,11,0.9,6.684,M,-37.217,M,7.0,0131*65
$PYRTM,2024,126.333450620127,17.443098030266
$GNHDT,107.119,T*24
$PYRTM,2024,126.333456916389,17.443104326528
$GNGGA,080010.50,3413.38218583,N,12031.45904879,W,2,11,0.9,6.523,M,-37.216,M,7.4,0131*66
$PYRTM,2024,126.333456916389,17.443104326528
$GNHDT,106.837,T*20
$PYRTM,2024,126.333462703391,17.443110113530
$GNGGA,080011.00,3413.38176843,N,12031.45782369,W,2,11,0.9,6.384,M,-37.216,M,7.0,0131*6D
$PYRTM,2024,126.333462703391,17.443110113530
$GNHDT,106.671,T*2C
$PYRTM,2024,126.333467145914,17.443114556053
$GNGGA,080011.50,3413.38137995,N,12031.45660563,W,2,11,0.9,6.349,M,-37.216,M,7.4,0131*63
$PYRTM,2024,126.333467145914,17.443114556053
$GNHDT,106.645,T*2B
$PYRTM,2024,126.333475712674,17.443123122812
$GNGGA,080012.00,3413.38102239,N,12031.45537463,W,2,11,0.9,6.413,M,-37.216,M,4.0,0131*61
$PYRTM,2024,126.333475712674,17.443123122812
$GNHDT,106.309,T*26
$PYRTM,2024,126.333482055278,17.443129465417
$GNGGA,080012.50,3413.38068935,N,12031.45411880,W,2,11,0.9,6.552,M,-37.216,M,4.4,0131*6A
$PYRTM,2024,126.333482055278,17.443129465417
$GNHDT,106.227,T*2B
$PYRTM,2024,126.333486684884,17.443134095023
$GNGGA,080013.00,3413.38036575,N,12031.45284533,W,2,11,0.9,6.730,M,-37.216,M,5.0,0131*61
$PYRTM,2024,126.333486684884,17.443134095023
$GNHDT,106.238,T*25
$PYRTM,2024,126.333492981227,17.443140391366
$GNGGA,080013.50,3413.38002005,N,12031.45157588,W,2,11,0.9,6.927,M,-37.216,M,5.4,0131*60
$PYRTM,2024,126.333492981227,17.443140391366
$GNHDT,105.961,T*21
$PYRTM,2024,126.333498768310,17.443146178449
$GNGGA,080014.00,3413.37962802,N,12031.45031815,W,2,11,0.9,7.114,M,-37.216,M,6.0,0131*6B
$PYRTM,2024,126.333498768310,17.443146178449
$GNHDT,105.891,T*2F
$PYRTM,2024,126.333505064479,17.443152474618
$GNGGA,080014.50,3413.37918398,N,12031.44906422,W,2,11,0.9,7.249,M,-37.216,M,6.4,0131*60
$PYRTM,2024,126.333505064479,17.443152474618
$GNHDT,106.045,T*2D
$PYRTM,2024,126.333509694132,17.443157104271
$GNGGA,080015.00,3413.37869785,N,12031.44780625,W,2,11,0.9,7.319,M,-37.216,M,7.0,0131*6F
$PYRTM,2024,126.333509694132,17.443157104271
$GNHDT,106.142,T*2B
$PYRTM,2024,126.333516036748,17.443163446887
$GNGGA,080015.50,3413.37819716,N,12031.44653913,W,2,11,0.9,7.347,M,-37.216,M,7.4,0131*6D
$PYRTM,2024,126.333516036748,17.443163446887
$GNHDT,106.090,T*25
$PYRTM,2024,126.333521823715,17.443169233854
$GNGGA,080016.00,3413.37769668,N,12031.44528378,W,2,11,0.9,7.350,M,-37.216,M,7.0,0131*61
$PYRTM,2024,126.333521823715,17.443169233854
$GNHDT,106.292,T*25
$PYRTM,2024,126.333528120081,17.443175530220
$GNGGA,080016.50,3413.37721527,N,12031.44405338,W,2,11,0.9,7.357,M,-37.216,M,7.4,0131*69
$PYRTM,2024,126.333528120081,17.443175530220
$GNHDT,106.703,T*28
$PYRTM,2024,126.333532749676,17.443180159815
$GNGGA,080017.00,3413.37676367,N,12031.44283741,W,2,11,0.9,7.381,M,-37.216,M,7.0,0131*61
$PYRTM,2024,126.333532749676,17.443180159815
$GNHDT,106.958,T*28
$PYRTM,2024,126.333536588993,17.443183999132
$GNGGA,080017.50,3413.37633428,N,12031.44161373,W,2,11,0.9,7.362,M,-37.216,M,7.4,0131*6A
$PYRTM,2024,126.333536588993,17.443183999132
$GNHDT,107.158,T*21
$PYRTM,2024,126.333543953403,17.443191363542
$GNGGA,080018.00,3413.37592800,N,12031.44035919,W,2,11,0.9,7.288,M,-37.216,M,4.0,0131*6A
$PYRTM,2024,126.333543953403,17.443191363542
$GNHDT,107.136,T*29
$PYRTM,2024,126.333550249745,17.443197659884
$GNGGA,080018.50,3413.37552841,N,12031.43908231,W,2,11,0.9,7.175,M,-37.216,M,4.4,0131*62
$PYRTM,2024,126.333550249745,17.443197659884
$GNHDT,106.733,T*2B
$PYRTM,2024,126.333554879329,17.443202289468
$GNGGA,080019.00,3413.37512647,N,12031.43779593,W,2,11,0.9,7.032,M,-37.216,M,5.0,0131*6A
$PYRTM,2024,126.333554879329,17.443202289468
$GNHDT,106.431,T*2A
$PYRTM,2024,126.333561222002,17.443208632141
$GNGGA,080019.50,3413.37472085,N,12031.43652740,W,2,11,0.9,6.899,M,-37.216,M,5.4,0131*68
$PYRTM,2024,126.333561222002,17.443208632141
$GNHDT,106.021,T*2F
$PYRTM,2024,126.333567008993,17.443214419132
$GNGGA,080020.00,3413.37431191,N,12031.43527898,W,2,11,0.9,6.786,M,-37.216,M,6.0,0131*69
$PYRTM,2024,126.333567008993,17.443214419132
$GNHDT,105.764,T*2A
$PYRTM,2024,126.333573305289,17.443220715428
$GNGGA,080020.50,3413.37389488,N,12031.43403903,W,2,11,0.9,6.685,M,-37.216,M,6.4,0131*67
$PYRTM,2024,126.333573305289,17.443220715428
$GNHDT,105.704,T*2C
$PYRTM,2024,126.333577934873,17.443225345012
$GNGGA,080021.00,3413.37345805,N,12031.43280231,W,2,11,0.9,6.586,M,-37.216,M,7.0,0131*68
$PYRTM,2024,126.333577934873,17.443225345012
$GNHDT,105.509,T*23
$PYRTM,2024,126.333584231192,17.443231641331
$GNGGA,080021.50,3413.37299299,N,12031.43157304,W,2,11,0.9,6.509,M,-37.216,M,7.4,0131*6F
$PYRTM,2024,126.333584231192,17.443231641331
$GNHDT,105.412,T*28
$PYRTM,2024,126.333590018218,17.443237428356
$GNGGA,080022.00,3413.37249887,N,12031.43035426,W,2,11,0.9,6.468,M,-37.216,M,7.0,0131*61
$PYRTM,2024,126.333590018218,17.443237428356
$GNHDT,105.382,T*26
$PYRTM,2024,126.333596360787,17.443243770926
$GNGGA,080022.50,3413.37201011,N,12031.42914213,W,2,11,0.9,6.502,M,-37.216,M,7.4,0131*6D
$PYRTM,2024,126.333596360787,17.443243770926
$GNHDT,105.316,T*2B
$PYRTM,2024,126.333599833032,17.443247243171
$GNGGA,080023.00,3413.37154243,N,12031.42794017,W,2,11,0.9,6.610,M,-37.216,M,7.0,0131*6B
$PYRTM,2024,126.333599833032,17.443247243171
$GNHDT,105.390,T*25
$PYRTM,2024,126.333606034664,17.443253444803
$GNGGA,080023.50,3413.37111563,N,12031.42674753,W,2,11,0.9,6.800,M,-37.216,M,7.4,0131*69
$PYRTM,2024,126.333606034664,17.443253444803
$GNHDT,105.525,T*2D
$PYRTM,2024,126.333612842292,17.443260252431
$GNGGA,080024.00,3413.37071973,N,12031.42556935,W,2,11,0.9,7.006,M,-37.216,M,4.0,0131*64
$PYRTM,2024,126.333612842292,17.443260252431
$GNHDT,105.891,T*2F
$PYRTM,2024,126.333619184861,17.443266595000
$GNGGA,080024.50,3413.37032294,N,12031.42440824,W,2,11,0.9,7.183,M,-37.216,M,4.4,0131*6B
$PYRTM,2024,126.333619184861,17.443266595000
$GNHDT,106.173,T*29
$PYRTM,2024,126.333624971921,17.443272382060
$GNGGA,080025.00,3413.36990547,N,12031.42326156,W,2,11,0.9,7.275,M,-37.216,M,5.0,0131*62
$PYRTM,2024,126.333624971921,17.443272382060
$GNHDT,106.949,T*28
$PYRTM,2024,126.333631268218,17.443278678356
$GNGGA,080025.50,3413.36948516,N,12031.42211490,W,2,11,0.9,7.236,M,-37.216,M,5.4,0131*6F
$PYRTM,2024,126.333631268218,17.443278678356
$GNHDT,107.098,T*2C
$PYRTM,2024,126.333635897859,17.443283307998
$GNGGA,080026.00,3413.36906702,N,12031.42096531,W,2,11,0.9,7.104,M,-37.216,M,6.0,0131*66
$PYRTM,2024,126.333635897859,17.443283307998
$GNHDT,107.661,T*2C
$PYRTM,2024,126.333642240486,17.443289650625
$GNGGA,080026.50,3413.36864861,N,12031.41980602,W,2,11,0.9,6.943,M,-37.216,M,6.4,0131*6C
$PYRTM,2024,126.333642240486,17.443289650625
$GNHDT,108.266,T*20
$PYRTM,2024,126.333648027488,17.443295437627
$GNGGA,080027.00,3413.36821140,N,12031.41863411,W,2,11,0.9,6.786,M,-37.216,M,7.0,0131*6D
$PYRTM,2024,126.333648027488,17.443295437627
$GNHDT,108.282,T*2A
$PYRTM,2024,126.333654323808,17.443301733947
$GNGGA,080027.50,3413.36776381,N,12031.41743165,W,2,11,0.9,6.706,M,-37.216,M,7.4,0131*6D
$PYRTM,2024,126.333654323808,17.443301733947
$GNHDT,108.191,T*2B
$PYRTM,2024,126.333658953414,17.443306363553
$GNGGA,080028.00,3413.36731668,N,12031.41618654,W,2,11,0.9,6.723,M,-37.216,M,7.0,0131*6F
$PYRTM,2024,126.333658953414,17.443306363553
$GNHDT,107.621,T*28
$PYRTM,2024,126.333665296111,17.443312706250
$GNGGA,080028.50,3413.36688452,N,12031.41489680,W,2,11,0.9,6.822,M,-37.216,M,7.4,0131*6B
$PYRTM,2024,126.333665296111,17.443312706250
$GNHDT,106.859,T*28
$PYRTM,2024,126.333671083206,17.443318493345
$GNGGA,080029.00,3413.36646639,N,12031.41357665,W,2,11,0.9,6.982,M,-37.216,M,7.0,0131*62
$PYRTM,2024,126.333671083206,17.443318493345
$GNHDT,106.472,T*2D
$PYRTM,2024,126.333677379363,17.443324789502
$GNGGA,080029.50,3413.36606731,N,12031.41222975,W,2,11,0.9,7.155,M,-37.216,M,7.4,0131*60
$PYRTM,2024,126.333677379363,17.443324789502
$GNHDT,105.828,T*2D
$PYRTM,2024,126.333682008981,17.443329419120
$GNGGA,080030.00,3413.36566410,N,12031.41086805,W,2,11,0.9,7.298,M,-37.216,M,4.0,0131*67
$PYRTM,2024,126.333682008981,17.443329419120
$GNHDT,105.761,T*2F
$PYRTM,2024,126.333688305255,17.443335715394
$GNGGA,080030.50,3413.36524751,N,12031.40950302,W,2,11,0.9,7.392,M,-37.216,M,4.4,0131*62
$PYRTM,2024,126.333688305255,17.443335715394
$GNHDT,105.322,T*2C
$PYRTM,2024,126.333694092303,17.443341502442
$GNGGA,080031.00,3413.36480858,N,12031.40815117,W,2,11,0.9,7.421,M,-37.216,M,5.0,0131*63
$PYRTM,2024,126.333694092303,17.443341502442
$GNHDT,105.000,T*2F
$PYRTM,2024,126.333700434884,17.443347845023
$GNGGA,080031.50,3413.36433845,N,12031.40683603,W,2,11,0.9,7.419,M,-37.216,M,5.4,0131*6E
$PYRTM,2024,126.333700434884,17.443347845023
$GNHDT,105.259,T*21
$PYRTM,2024,126.333705064525,17.443352474664
$GNGGA,080032.00,3413.36382859,N,12031.40557493,W,2,11,0.9,7.386,M,-37.216,M,6.0,0131*6F
$PYRTM,2024,126.333705064525,17.443352474664
$GNHDT,105.614,T*2C
$PYRTM,2024,126.333711360810,17.443358770949
$GNGGA,080032.50,3413.36330541,N,12031.40436221,W,2,11,0.9,7.339,M,-37.216,M,6.4,0131*6E
$PYRTM,2024,126.333711360810,17.443358770949
$GNHDT,105.589,T*2B
$PYRTM,2024,126.333717147882,17.443364558009
$GNGGA,080033.00,3413.36279455,N,12031.40319250,W,2,11,0.9,7.273,M,-37.216,M,7.0,0131*64
$PYRTM,2024,126.333717147882,17.443364558009
$GNHDT,106.267,T*2F
$PYRTM,2024,126.333723444155,17.443370854294
$GNGGA,080033.50,3413.36231442,N,12031.40205523,W,2,11,0.9,7.178,M,-37.216,M,7.4,0131*68
$PYRTM,2024,126.333723444155,17.443370854294
$GNHDT,107.027,T*28
$PYRTM,2024,126.333729231204,17.443376641343
$GNGGA,080034.00,3413.36187774,N,12031.40093670,W,2,11,0.9,7.021,M,-37.215,M,7.0,0131*60
$PYRTM,2024,126.333729231204,17.443376641343
$GNHDT,107.663,T*2E
$PYRTM,2024,126.333733349294,17.443380759433
$GNGGA,080034.50,3413.36148246,N,12031.39980584,W,2,11,0.9,6.844,M,-37.215,M,7.4,0131*61
$PYRTM,2024,126.333733349294,17.443380759433
$GNHDT,108.208,T*28
$PYRTM,2024,126.333740342303,17.443387752442
$GNGGA,080035.00,3413.36110932,N,12031.39866298,W,2,11,0.9,6.655,M,-37.215,M,7.0,0131*69
$PYRTM,2024,126.333740342303,17.443387752442
$GNHDT,108.253,T*26
$PYRTM,2024,126.333746638692,17.443394048831
$GNGGA,080035.50,3413.36073821,N,12031.39751304,W,2,11,0.9,6.490,M,-37.215,M,7.4,0131*6B
$PYRTM,2024,126.333746638692,17.443394048831
$GNHDT,108.568,T*29
$PYRTM,2024,126.333752425660,17.443399835799
$GNGGA,080036.00,3413.36036229,N,12031.39635238,W,2,11,0.9,6.399,M,-37.215,M,4.0,0131*6A
$PYRTM,2024,126.333752425660,17.443399835799
$GNHDT,108.610,T*25
$PYRTM,2024,126.333758721944,17.443406132083
$GNGGA,080036.50,3413.35997487,N,12031.39518695,W,2,11,0.9,6.386,M,-37.215,M,4.4,0131*69
$PYRTM,2024,126.333758721944,17.443406132083
$GNHDT,108.646,T*26
$PYRTM,2024,126.333763351574,17.443410761713
$GNGGA,080037.00,3413.35957412,N,12031.39400437,W,2,11,0.9,6.441,M,-37.215,M,5.0,0131*66
$PYRTM,2024,126.333763351574,17.443410761713
$GNHDT,108.480,T*2E
$PYRTM,2024,126.333769647847,17.443417057986
$GNGGA,080037.50,3413.35915629,N,12031.39279535,W,2,11,0.9,6.553,M,-37.215,M,5.4,0131*62
$PYRTM,2024,126.333769647847,17.443417057986
$GNHDT,107.926,T*20
$PYRTM,2024,126.333775434873,17.443422845012
$GNGGA,080038.00,3413.35871355,N,12031.39155227,W,2,11,0.9,6.677,M,-37.215,M,6.0,0131*6E
$PYRTM,2024,126.333775434873,17.443422845012
$GNHDT,107.450,T*2C
$PYRTM,2024,126.333781731169,17.443429141308
$GNGGA,080038.50,3413.35824099,N,12031.39028172,W,2,11,0.9,6.802,M,-37.215,M,6.4,0131*68
$PYRTM,2024,126.333781731169,17.443429141308
$GNHDT,107.072,T*28
$PYRTM,2024,126.333786360741,17.443433770880
$GNGGA,080039.00,3413.35774242,N,12031.38897858,W,2,11,0.9,6.932,M,-37.215,M,7.0,0131*69
$PYRTM,2024,126.333786360741,17.443433770880
$GNHDT,106.671,T*2C
$PYRTM,2024,126.333792657199,17.443440067338
$GNGGA,080039.50,3413.35723417,N,12031.38764695,W,2,11,0.9,7.056,M,-37.215,M,7.4,0131*6A
$PYRTM,2024,126.333792657199,17.443440067338
$GNHDT,106.348,T*23
$PYRTM,2024,126.333798444271,17.443445854410
$GNGGA,080040.00,3413.35672741,N,12031.38628653,W,2,11,0.9,7.179,M,-37.215,M,7.0,0131*6F
$PYRTM,2024,126.333798444271,17.443445854410
$GNHDT,106.053,T*2A
$PYRTM,2024,126.333802793067,17.443450203206
$GNGGA,080040.50,3413.35622272,N,12031.38492543,W,2,11,0.9,7.308,M,-37.215,M,7.4,0131*6B
$PYRTM,2024,126.333802793067,17.443450203206
$GNHDT,105.936,T*23
$PYRTM,2024,126.333809370035,17.443456780174
$GNGGA,080041.00,3413.35571349,N,12031.38359561,W,2,11,0.9,7.471,M,-37.215,M,7.0,0131*6E
$PYRTM,2024,126.333809370035,17.443456780174
$GNHDT,105.815,T*23
$PYRTM,2024,126.333815666424,17.443463076562
$GNGGA,080041.50,3413.35520419,N,12031.38230658,W,2,11,0.9,7.626,M,-37.215,M,7.4,0131*6E
$PYRTM,2024,126.333815666424,17.443463076562
$GNHDT,105.939,T*2C
$PYRTM,2024,126.333821453380,17.443468863519
$GNGGA,080042.00,3413.35471113,N,12031.38105178,W,2,11,0.9,7.732,M,-37.215,M,4.0,0131*61
$PYRTM,2024,126.333821453380,17.443468863519
$GNHDT,106.322,T*2F
$PYRTM,2024,126.333827796030,17.443475206181
$GNGGA,080042.50,3413.35424367,N,12031.37981412,W,2,11,0.9,7.763,M,-37.215,M,4.4,0131*67
$PYRTM,2024,126.333827796030,17.443475206181
$GNHDT,106.629,T*21
$PYRTM,2024,126.333832425648,17.443479835787
$GNGGA,080043.00,3413.35378655,N,12031.37859628,W,2,11,0.9,7.637,M,-37.215,M,5.0,0131*63
$PYRTM,2024,126.333832425648,17.443479835787
$GNHDT,107.241,T*2A
$PYRTM,2024,126.333838721968,17.443486132106
$GNGGA,080043.50,3413.35333280,N,12031.37740133,W,2,11,0.9,7.416,M,-37.215,M,5.4,0131*6A
$PYRTM,2024,126.333838721968,17.443486132106
$GNHDT,107.928,T*2E
$PYRTM,2024,126.333843351713,17.443490761852
$GNGGA,080044.00,3413.35287414,N,12031.37623123,W,2,11,0.9,7.105,M,-37.215,M,6.0,0131*68
$PYRTM,2024,126.333843351713,17.443490761852
$GNHDT,108.373,T*25
$PYRTM,2024,126.333849694167,17.443497104306
$GNGGA,080044.50,3413.35241333,N,12031.37507172,W,2,11,0.9,6.787,M,-37.215,M,6.4,0131*6D
$PYRTM,2024,126.333849694167,17.443497104306
$GNHDT,108.570,T*20
$PYRTM,2024,126.333855481181,17.443502891319
$GNGGA,080045.00,3413.35195974,N,12031.37392872,W,2,11,0.9,6.520,M,-37.215,M,7.0,0131*63
$PYRTM,2024,126.333855481181,17.443502891319
$GNHDT,108.781,T*2C
$PYRTM,2024,126.333860662778,17.443508072928
$GNGGA,080045.50,3413.35153232,N,12031.37277794,W,2,11,0.9,6.357,M,-37.215,M,7.4,0131*6A
$PYRTM,2024,126.333860662778,17.443508072928
$GNHDT,108.696,T*2B
$PYRTM,2024,126.333866407130,17.443513817269
$GNGGA,080046.00,3413.35114759,N,12031.37161927,W,2,11,0.9,6.322,M,-37.215,M,7.0,0131*63
$PYRTM,2024,126.333866407130,17.443513817269
$GNHDT,108.732,T*24
$PYRTM,2024,126.333872749688,17.443520159826
$GNGGA,080046.50,3413.35080557,N,12031.37044020,W,2,11,0.9,6.406,M,-37.215,M,7.4,0131*6B
$PYRTM,2024,126.333872749688,17.443520159826
$GNHDT,108.339,T*2B
$PYRTM,2024,126.333878490440,17.443525900579
$GNGGA,080047.00,3413.35047991,N,12031.36922831,W,2,11,0.9,6.562,M,-37.215,M,7.0,0131*65
$PYRTM,2024,126.333878490440,17.443525900579
$GNHDT,108.341,T*24
$PYRTM,2024,126.333884786748,17.443532196887
$GNGGA,080047.50,3413.35014665,N,12031.36797527,W,2,11,0.9,6.720,M,-37.215,M,7.4,0131*68
$PYRTM,2024,126.333884786748,17.443532196887
$GNHDT,107.993,T*2E
$PYRTM,2024,126.333889416458,17.443536826597
$GNGGA,080048.00,3413.34977297,N,12031.36668197,W,2,11,0.9,6.840,M,-37.215,M,4.0,0131*66
$PYRTM,2024,126.333889416458,17.443536826597
$GNHDT,107.374,T*2D
$PYRTM,2024,126.333895712650,17.443543122789
$GNGGA,080048.50,3413.34934323,N,12031.36537617,W,2,11,0.9,6.938,M,-37.215,M,4.4,0131*66
$PYRTM,2024,126.333895712650,17.443543122789
$GNHDT,106.931,T*27
$PYRTM,2024,126.333902749745,17.443550159884
$GNGGA,080049.00,3413.34884836,N,12031.36408027,W,2,11,0.9,7.003,M,-37.215,M,5.0,0131*6A
$PYRTM,2024,126.333902749745,17.443550159884
$GNHDT,106.353,T*29
$PYRTM,2024,126.333909046065,17.443556456204
$GNGGA,080049.50,3413.34831321,N,12031.36279727,W,2,11,0.9,7.094,M,-37.215,M,5.4,0131*61
$PYRTM,2024,126.333909046065,17.443556456204
$GNHDT,105.846,T*25
$PYRTM,2024,126.333913675637,17.443561085775
$GNGGA,080050.00,3413.34775555,N,12031.36153565,W,2,11,0.9,7.197,M,-37.215,M,6.0,0131*6C
$PYRTM,2024,126.333913675637,17.443561085775
$GNHDT,105.693,T*23
$PYRTM,2024,126.333920018310,17.443567428449
$GNGGA,080050.50,3413.34722017,N,12031.36028973,W,2,11,0.9,7.330,M,-37.215,M,6.4,0131*65
$PYRTM,2024,126.333920018310,17.443567428449
$GNHDT,105.772,T*2D
$PYRTM,2024,126.333925805243,17.443573215382
$GNGGA,080051.00,3413.34672244,N,12031.35906038,W,2,11,0.9,7.460,M,-37.215,M,7.0,0131*66
$PYRTM,2024,126.333925805243,17.443573215382
$GNHDT,106.016,T*2B
$PYRTM,2024,126.333930107396,17.443577517535
$GNGGA,080051.50,3413.34627709,N,12031.35784308,W,2,11,0.9,7.562,M,-37.215,M,7.4,0131*6C
$PYRTM,2024,126.333930107396,17.443577517535
$GNHDT,106.461,T*2F
$PYRTM,2024,126.333937842269,17.443585252407
$GNGGA,080052.00,3413.34587004,N,12031.35662651,W,2,11,0.9,7.576,M,-37.215,M,7.0,0131*68
$PYRTM,2024,126.333937842269,17.443585252407
$GNHDT,107.009,T*24
$PYRTM,2024,126.333944138588,17.443591548727
$GNGGA,080052.50,3413.34546750,N,12031.35542229,W,2,11,0.9,7.499,M,-37.215,M,7.4,0131*68
$PYRTM,2024,126.333944138588,17.443591548727
$GNHDT,107.637,T*2F
$PYRTM,2024,126.333949925741,17.443597335880
$GNGGA,080053.00,3413.34505067,N,12031.35424410,W,2,11,0.9,7.316,M,-37.215,M,7.0,0131*61
$PYRTM,2024,126.333949925741,17.443597335880
$GNHDT,108.287,T*2F
$PYRTM,2024,126.333956221898,17.443603632037
$GNGGA,080053.50,3413.34462389,N,12031.35308693,W,2,11,0.9,7.100,M,-37.215,M,7.4,0131*66
$PYRTM,2024,126.333956221898,17.443603632037
$GNHDT,108.356,T*22
$PYRTM,2024,126.333960851563,17.443608261690
$GNGGA,080054.00,3413.34419341,N,12031.35194841,W,2,11,0.9,6.859,M,-37.215,M,4.0,0131*69
$PYRTM,2024,126.333960851563,17.443608261690
$GNHDT,108.334,T*26
$PYRTM,2024,126.333967147870,17.443614558009
$GNGGA,080054.50,3413.34376516,N,12031.35081432,W,2,11,0.9,6.687,M,-37.215,M,4.4,0131*62
$PYRTM,2024,126.333967147870,17.443614558009
$GNHDT,108.314,T*24
$PYRTM,2024,126.333970620370,17.443618030498
$GNGGA,080055.00,3413.34334356,N,12031.34967075,W,2,11,0.9,6.580,M,-37.215,M,5.0,0131*64
$PYRTM,2024,126.333970620370,17.443618030498
$GNHDT,108.246,T*22
$PYRTM,2024,126.333978073750,17.443625483889
$GNGGA,080055.50,3413.34292722,N,12031.34850955,W,2,11,0.9,6.526,M,-37.215,M,5.4,0131*6D
$PYRTM,2024,126.333978073750,17.443625483889
$GNHDT,107.422,T*29
$PYRTM,2024,126.333983860833,17.443631270972
$GNGGA,080056.00,3413.34251165,N,12031.34733928,W,2,11,0.9,6.538,M,-37.215,M,6.0,0131*69
$PYRTM,2024,126.333983860833,17.443631270972
$GNHDT,107.310,T*2F
$PYRTM,2024,126.333987976424,17.443635386563
$GNGGA,080056.50,3413.34208821,N,12031.34615880,W,2,11,0.9,6.587,M,-37.215,M,6.4,0131*6F
$PYRTM,2024,126.333987976424,17.443635386563
$GNHDT,107.542,T*2E
$PYRTM,2024,126.333996129294,17.443643539433
$GNGGA,080057.00,3413.34164693,N,12031.34497161,W,2,11,0.9,6.667,M,-37.215,M,7.0,0131*63
$PYRTM,2024,126.333996129294,17.443643539433
$GNHDT,107.603,T*28
$PYRTM,2024,126.334002425625,17.443649835764
$GNGGA,080057.50,3413.34118964,N,12031.34376914,W,2,11,0.9,6.757,M,-37.215,M,7.4,0131*6E
$PYRTM,2024,126.334002425625,17.443649835764
$GNHDT,107.582,T*22
$PYRTM,2024,126.334008212604,17.443655622743
$GNGGA,080058.00,3413.34072990,N,12031.34254560,W,2,11,0.9,6.859,M,-37.214,M,7.0,0131*68
$PYRTM,2024,126.334008212604,17.443655622743
$GNHDT,107.567,T*29
$PYRTM,2024,126.334014509016,17.443661919155
$GNGGA,080058.50,3413.34027162,N,12031.34130149,W,2,11,0.9,6.969,M,-37.214,M,7.4,0131*60
$PYRTM,2024,126.334014509016,17.443661919155
$GNHDT,107.963,T*21
$PYRTM,2024,126.334019138553,17.443666548692
$GNGGA,080059.00,3413.33981628,N,12031.34003769,W,2,11,0.9,7.109,M,-37.214,M,7.0,0131*61
$PYRTM,2024,126.334019138553,17.443666548692
$GNHDT,107.862,T*21
$PYRTM,2024,126.334025481192,17.443672891331
$GNGGA,080059.50,3413.33936645,N,12031.33875951,W,2,11,0.9,7.231,M,-37.214,M,7.4,0131*64
$PYRTM,2024,126.334025481192,17.443672891331
$GNHDT,107.708,T*22
$PYRTM,2024,126.334031268264,17.443678678403
$GNGGA,080100.00,3413.33891507,N,12031.33745882,W,2,11,0.9,7.317,M,-37.214,M,4.0,0131*64
$PYRTM,2024,126.334031268264,17.443678678403
$GNHDT,107.379,T*20
$PYRTM,2024,126.334037564514,17.443684974653
$GNGGA,080100.50,3413.33844077,N,12031.33616002,W,2,11,0.9,7.350,M,-37.214,M,4.4,0131*6B
$PYRTM,2024,126.334037564514,17.443684974653
$GNHDT,107.642,T*2D
$PYRTM,2024,126.334042194190,17.443689604340
$GNGGA,080101.00,3413.33794461,N,12031.33486009,W,2,11,0.9,7.324,M,-37.214,M,5.0,0131*68
$PYRTM,2024,126.334042194190,17.443689604340
$GNHDT,107.509,T*21
$PYRTM,2024,126.334048490544,17.443695900683
$GNGGA,080101.50,3413.33744328,N,12031.33356330,W,2,11,0.9,7.254,M,-37.214,M,5.4,0131*6B
$PYRTM,2024,126.334048490544,17.443695900683
$GNHDT,107.015,T*29
$PYRTM,2024,126.334054277523,17.443701687662
$GNGGA,080102.00,3413.33695002,N,12031.33226556,W,2,11,0.9,7.146,M,-37.214,M,6.0,0131*6C
$PYRTM,2024,126.334054277523,17.443701687662
$GNHDT,106.744,T*2B
$PYRTM,2024,126.334058305914,17.443705716053
$GNGGA,080102.50,3413.33646608,N,12031.33098518,W,2,11,0.9,7.055,M,-37.214,M,6.4,0131*61
$PYRTM,2024,126.334058305914,17.443705716053
$GNHDT,106.654,T*2B
$PYRTM,2024,126.334063861134,17.443711271273
$GNGGA,080103.00,3413.33599497,N,12031.32973940,W,2,11,0.9,7.033,M,-37.214,M,7.0,0131*69
$PYRTM,2024,126.334063861134,17.443711271273
$GNHDT,106.409,T*21
$PYRTM,2024,126.334070157199,17.443717567338
$GNGGA,080103.50,3413.33553926,N,12031.32853519,W,2,11,0.9,7.083,M,-37.214,M,7.4,0131*61
$PYRTM,2024,126.334070157199,17.443717567338
$GNHDT,106.436,T*2D
$PYRTM,2024,126.334075944155,17.443723354294
$GNGGA,080104.00,3413.33509845,N,12031.32735592,W,2,11,0.9,7.191,M,-37.214,M,7.0,0131*62
$PYRTM,2024,126.334075944155,17.443723354294
$GNHDT,106.408,T*20
$PYRTM,2024,126.334082240428,17.443729650567
$GNGGA,080104.50,3413.33468266,N,12031.32618553,W,2,11,0.9,7.271,M,-37.214,M,7.4,0131*60
$PYRTM,2024,126.334082240428,17.443729650567
$GNHDT,106.561,T*2E
$PYRTM,2024,126.334088027465,17.443735437604
$GNGGA,080105.00,3413.33429921,N,12031.32501713,W,2,11,0.9,7.289,M,-37.214,M,7.0,0131*67
$PYRTM,2024,126.334088027465,17.443735437604
$GNHDT,106.705,T*2E
$PYRTM,2024,126.334093166366,17.443740576505
$GNGGA,080105.50,3413.33393573,N,12031.32385233,W,2,11,0.9,7.196,M,-37.214,M,7.4,0131*6B
$PYRTM,2024,126.334093166366,17.443740576505
$GNHDT,107.257,T*2D
$PYRTM,2024,126.334097796053,17.443745206192
$GNGGA,080106.00,3413.33356068,N,12031.32270324,W,2,11,0.9,7.025,M,-37.214,M,4.0,0131*69
$PYRTM,2024,126.334097796053,17.443745206192
$GNHDT,107.535,T*2E
$PYRTM,2024,126.334104138657,17.443751548796
$GNGGA,080106.50,3413.33314795,N,12031.32156268,W,2,11,0.9,6.807,M,-37.214,M,4.4,0131*6C
$PYRTM,2024,126.334104138657,17.443751548796
$GNHDT,107.682,T*21
$PYRTM,2024,126.334109925613,17.443757335752
$GNGGA,080107.00,3413.33269418,N,12031.32042798,W,2,11,0.9,6.582,M,-37.214,M,5.0,0131*6E
$PYRTM,2024,126.334109925613,17.443757335752
$GNHDT,107.914,T*21
$PYRTM,2024,126.334116221933,17.443763632072
$GNGGA,080107.50,3413.33222116,N,12031.31927970,W,2,11,0.9,6.440,M,-37.214,M,5.4,0131*65
$PYRTM,2024,126.334116221933,17.443763632072
$GNHDT,107.609,T*22
$PYRTM,2024,126.334120851586,17.443768261725
$GNGGA,080108.00,3413.33175224,N,12031.31808231,W,2,11,0.9,6.410,M,-37.214,M,6.0,0131*6C
$PYRTM,2024,126.334120851586,17.443768261725
$GNHDT,107.226,T*2B
$PYRTM,2024,126.334127147859,17.443774557998
$GNGGA,080108.50,3413.33131781,N,12031.31682211,W,2,11,0.9,6.467,M,-37.214,M,6.4,0131*69
$PYRTM,2024,126.334127147859,17.443774557998
$GNHDT,106.595,T*25
$PYRTM,2024,126.334132934907,17.443780345046
$GNGGA,080109.00,3413.33093113,N,12031.31551475,W,2,11,0.9,6.635,M,-37.214,M,7.0,0131*60
$PYRTM,2024,126.334132934907,17.443780345046
$GNHDT,106.178,T*22
$PYRTM,2024,126.334139231215,17.443786641343
$GNGGA,080109.50,3413.33058205,N,12031.31420134,W,2,11,0.9,6.883,M,-37.214,M,7.4,0131*66
$PYRTM,2024,126.334139231215,17.443786641343
$GNHDT,105.499,T*2B
$PYRTM,2024,126.334143860775,17.443791270914
$GNGGA,080110.00,3413.33022926,N,12031.31288939,W,2,11,0.9,7.151,M,-37.214,M,7.0,0131*6E
$PYRTM,2024,126.334143860775,17.443791270914
$GNHDT,105.333,T*2C
$PYRTM,2024,126.334150157211,17.443797567350
$GNGGA,080110.50,3413.32984512,N,12031.31159915,W,2,11,0.9,7.383,M,-37.214,M,7.4,0131*6C
$PYRTM,2024,126.334150157211,17.443797567350
$GNHDT,105.022,T*2F
$PYRTM,2024,126.334155944167,17.443803354306
$GNGGA,080111.00,3413.32941108,N,12031.31032348,W,2,11,0.9,7.512,M,-37.214,M,7.0,0131*6A
$PYRTM,2024,126.334155944167,17.443803354306
$GNHDT,105.069,T*20
$PYRTM,2024,126.334162240440,17.443809650579
$GNGGA,080111.50,3413.32892517,N,12031.30907077,W,2,11,0.9,7.522,M,-37.214,M,7.4,0131*6C
$PYRTM,2024,126.334162240440,17.443809650579
$GNHDT,105.357,T*2E
$PYRTM,2024,126.334166870069,17.443814280208
$GNGGA,080112.00,3413.32839722,N,12031.30785137,W,2,11,0.9,7.400,M,-37.214,M,4.0,0131*68
$PYRTM,2024,126.334166870069,17.443814280208
$GNHDT,105.518,T*23
$PYRTM,2024,126.334173161215,17.443820571354
$GNGGA,080112.50,3413.32785697,N,12031.30665999,W,2,11,0.9,7.213,M,-37.214,M,4.4,0131*69
$PYRTM,2024,126.334173161215,17.443820571354
$GNHDT,105.786,T*26
$PYRTM,2024,126.334181268252,17.443828678391
$GNGGA,080113.00,3413.32734359,N,12031.30548515,W,2,11,0.9,6.989,M,-37.214,M,5.0,0131*68
$PYRTM,2024,126.334181268252,17.443828678391
$GNHDT,106.023,T*2D
$PYRTM,2024,126.334187564525,17.443834974664
$GNGGA,080113.50,3413.32688217,N,12031.30432012,W,2,11,0.9,6.801,M,-37.214,M,5.4,0131*6B
$PYRTM,2024,126.334187564525,17.443834974664
$GNHDT,106.444,T*28
$PYRTM,2024,126.334193351551,17.443840761690
$GNGGA,080114.00,3413.32648966,N,12031.30315200,W,2,11,0.9,6.681,M,-37.214,M,6.0,0131*6A
$PYRTM,2024,126.334193351551,17.443840761690
$GNHDT,106.473,T*2C
$PYRTM,2024,126.334199647917,17.443847058056
$GNGGA,080114.50,3413.32614060,N,12031.30198023,W,2,11,0.9,6.661,M,-37.214,M,6.4,0131*67
$PYRTM,2024,126.334199647917,17.443847058056
$GNHDT,106.431,T*2A
$PYRTM,2024,126.334204277500,17.443851687639
$GNGGA,080115.00,3413.32581437,N,12031.30080371,W,2,11,0.9,6.715,M,-37.214,M,7.0,0131*61
$PYRTM,2024,126.334204277500,17.443851687639
$GNHDT,106.404,T*2C
$PYRTM,2024,126.334210620046,17.443858030185
$GNGGA,080115.50,3413.32547818,N,12031.29962078,W,2,11,0.9,6.808,M,-37.214,M,7.4,0131*6F
$PYRTM,2024,126.334210620046,17.443858030185
$GNHDT,106.789,T*2A
$PYRTM,2024,126.334216407118,17.443863817257
$GNGGA,080116.00,3413.32511489,N,12031.29843699,W,2,11,0.9,6.892,M,-37.214,M,7.0,0131*62
$PYRTM,2024,126.334216407118,17.443863817257
$GNHDT,106.973,T*21
$PYRTM,2024,126.334222703449,17.443870113588
$GNGGA,080116.50,3413.32471609,N,12031.29725365,W,2,11,0.9,6.956,M,-37.214,M,7.4,0131*6E
$PYRTM,2024,126.334222703449,17.443870113588
$GNHDT,107.303,T*2D
$PYRTM,2024,126.334227333079,17.443874743218
$GNGGA,080117.00,3413.32427970,N,12031.29606048,W,2,11,0.9,6.967,M,-37.214,M,7.0,0131*62
$PYRTM,2024,126.334227333079,17.443874743218
$GNHDT,107.274,T*2C
$PYRTM,2024,126.334233629387,17.443881039525
$GNGGA,080117.50,3413.32381668,N,12031.29484482,W,2,11,0.9,6.927,M,-37.214,M,7.4,0131*60
$PYRTM,2024,126.334233629387,17.443881039525
$GNHDT,107.325,T*29
$PYRTM,2024,126.334239416331,17.443886826470
$GNGGA,080118.00,3413.32333692,N,12031.29360502,W,2,11,0.9,6.885,M,-37.214,M,4.0,0131*6C
$PYRTM,2024,126.334239416331,17.443886826470
$GNHDT,107.182,T*26
$PYRTM,2024,126.334242607280,17.443890017431
$GNGGA,080118.50,3413.32285707,N,12031.29232629,W,2,11,0.9,6.864,M,-37.214,M,4.4,0131*6F
$PYRTM,2024,126.334242607280,17.443890017431
$GNHDT,106.553,T*2F
$PYRTM,2024,126.334250342280,17.443897752419
$GNGGA,080119.00,3413.32239881,N,12031.29098723,W,2,11,0.9,6.899,M,-37.214,M,5.0,0131*63
$PYRTM,2024,126.334250342280,17.443897752419
$GNHDT,105.774,T*2B
$PYRTM,2024,126.334256684861,17.443904095000
$GNGGA,080119.50,3413.32196133,N,12031.28961186,W,2,11,0.9,7.022,M,-37.214,M,5.4,0131*6A
$PYRTM,2024,126.334256684861,17.443904095000
$GNHDT,105.186,T*20
$PYRTM,2024,126.334262471875,17.443909882014
$GNGGA,080120.00,3413.32153218,N,12031.28823671,W,2,11,0.9,7.215,M,-37.214,M,6.0,0131*6F
$PYRTM,2024,126.334262471875,17.443909882014
$GNHDT,104.677,T*28
$PYRTM,2024,126.334268768310,17.443916178449
$GNGGA,080120.50,3413.32110163,N,12031.28690179,W,2,11,0.9,7.494,M,-37.214,M,6.4,0131*60
$PYRTM,2024,126.334268768310,17.443916178449
$GNHDT,104.536,T*2E
$PYRTM,2024,126.334273397905,17.443920808044
$GNGGA,080121.00,3413.32066177,N,12031.28562321,W,2,11,0.9,7.766,M,-37.214,M,7.0,0131*6B
$PYRTM,2024,126.334273397905,17.443920808044
$GNHDT,104.459,T*26
$PYRTM,2024,126.334279694201,17.443927104340
$GNGGA,080121.50,3413.32020537,N,12031.28438816,W,2,11,0.9,7.929,M,-37.214,M,7.4,0131*6C
$PYRTM,2024,126.334279694201,17.443927104340
$GNHDT,104.816,T*21
$PYRTM,2024,126.334285481215,17.443932891343
$GNGGA,080122.00,3413.31972960,N,12031.28318627,W,2,11,0.9,7.965,M,-37.213,M,7.0,0131*6B
$PYRTM,2024,126.334285481215,17.443932891343
$GNHDT,105.423,T*2A
$PYRTM,2024,126.334291777512,17.443939187650
$GNGGA,080122.50,3413.31924133,N,12031.28200649,W,2,11,0.9,7.852,M,-37.213,M,7.4,0131*62
$PYRTM,2024,126.334291777512,17.443939187650
$GNHDT,105.855,T*27
$PYRTM,2024,126.334297564549,17.443944974688
$GNGGA,080123.00,3413.31875468,N,12031.28084438,W,2,11,0.9,7.581,M,-37.213,M,7.0,0131*65
$PYRTM,2024,126.334297564549,17.443944974688
$GNHDT,106.689,T*2B
$PYRTM,2024,126.334303860868,17.443951271007
$GNGGA,080123.50,3413.31828831,N,12031.27969920,W,2,11,0.9,7.260,M,-37.213,M,7.4,0131*65
$PYRTM,2024,126.334303860868,17.443951271007
$GNHDT,107.701,T*2B
$PYRTM,2024,126.334308490382,17.443955900521
$GNGGA,080124.00,3413.31784976,N,12031.27857884,W,2,11,0.9,6.931,M,-37.213,M,4.0,0131*66
$PYRTM,2024,126.334308490382,17.443955900521
$GNHDT,108.578,T*28
$PYRTM,2024,126.334314833056,17.443962243194
$GNGGA,080124.50,3413.31744286,N,12031.27746980,W,2,11,0.9,6.666,M,-37.213,M,4.4,0131*68
$PYRTM,2024,126.334314833056,17.443962243194
$GNHDT,108.655,T*24
$PYRTM,2024,126.334320620081,17.443968030220
$GNGGA,080125.00,3413.31706136,N,12031.27636328,W,2,11,0.9,6.498,M,-37.213,M,5.0,0131*6A
$PYRTM,2024,126.334320620081,17.443968030220
$GNHDT,109.051,T*27
$PYRTM,2024,126.334326916377,17.443974326516
$GNGGA,080125.50,3413.31669519,N,12031.27523800,W,2,11,0.9,6.419,M,-37.213,M,5.4,0131*65
$PYRTM,2024,126.334326916377,17.443974326516
$GNHDT,108.921,T*28
$PYRTM,2024,126.334331545984,17.443978956123
$GNGGA,080126.00,3413.31634653,N,12031.27407905,W,2,11,0.9,6.430,M,-37.213,M,6.0,0131*69
$PYRTM,2024,126.334331545984,17.443978956123
$GNHDT,108.367,T*20
$PYRTM,2024,126.334337842257,17.443985252396
$GNGGA,080126.50,3413.31600188,N,12031.27289119,W,2,11,0.9,6.488,M,-37.213,M,6.4,0131*68
$PYRTM,2024,126.334337842257,17.443985252396
$GNHDT,107.690,T*22
$PYRTM,2024,126.334343629363,17.443991039502
$GNGGA,080127.00,3413.31565173,N,12031.27168899,W,2,11,0.9,6.570,M,-37.213,M,7.0,0131*66
$PYRTM,2024,126.334343629363,17.443991039502
$GNHDT,107.108,T*24
$PYRTM,2024,126.334349925579,17.443997335718
$GNGGA,080127.50,3413.31527211,N,12031.27047558,W,2,11,0.9,6.641,M,-37.213,M,7.4,0131*6B
$PYRTM,2024,126.334349925579,17.443997335718
$GNHDT,106.864,T*26
$PYRTM,2024,126.334354555231,17.444001965370
$GNGGA,080128.00,3413.31485087,N,12031.26924760,W,2,11,0.9,6.688,M,-37.213,M,7.0,0131*60
$PYRTM,2024,126.334354555231,17.444001965370
$GNHDT,106.455,T*28
$PYRTM,2024,126.334360851505,17.444008261644
$GNGGA,080128.50,3413.31438712,N,12031.26801412,W,2,11,0.9,6.725,M,-37.213,M,7.4,0131*6A
$PYRTM,2024,126.334360851505,17.444008261644
$GNHDT,106.052,T*2B
$PYRTM,2024,126.334366638576,17.444014048704
$GNGGA,080129.00,3413.31388308,N,12031.26679573,W,2,11,0.9,6.765,M,-37.213,M,7.0,0131*6A
$PYRTM,2024,126.334366638576,17.444014048704
$GNHDT,105.754,T*29
$PYRTM,2024,126.334369923588,17.444017333727
$GNGGA,080129.50,3413.31336184,N,12031.26559443,W,2,11,0.9,6.823,M,-37.213,M,7.4,0131*66
$PYRTM,2024,126.334369923588,17.444017333727
$GNHDT,105.831,T*25
$PYRTM,2024,126.334378212616,17.444025622755
$GNGGA,080130.00,3413.31283654,N,12031.26441138,W,2,11,0.9,6.900,M,-37.213,M,4.0,0131*68
$PYRTM,2024,126.334378212616,17.444025622755
$GNHDT,106.008,T*24
$PYRTM,2024,126.334384555313,17.444031965451
$GNGGA,080130.50,3413.31231674,N,12031.26324626,W,2,11,0.9,6.995,M,-37.213,M,4.4,0131*62
$PYRTM,2024,126.334384555313,17.444031965451
$GNHDT,106.543,T*2E
$PYRTM,2024,126.334389184850,17.444036594988
$GNGGA,080131.00,3413.31180953,N,12031.26209077,W,2,11,0.9,7.114,M,-37.213,M,5.0,0131*6C
$PYRTM,2024,126.334389184850,17.444036594988
$GNHDT,106.708,T*23
$PYRTM,2024,126.334395481169,17.444042891308
$GNGGA,080131.50,3413.31132759,N,12031.26092972,W,2,11,0.9,7.229,M,-37.213,M,5.4,0131*61
$PYRTM,2024,126.334395481169,17.444042891308
$GNHDT,107.029,T*26
$PYRTM,2024,126.334401268229,17.444048678368
$GNGGA,080132.00,3413.31089209,N,12031.25976633,W,2,11,0.9,7.336,M,-37.213,M,6.0,0131*64
$PYRTM,2024,126.334401268229,17.444048678368
$GNHDT,107.424,T*2F
$PYRTM,2024,126.334405296609,17.444052706840
$GNGGA,080132.50,3413.31050882,N,12031.25859685,W,2,11,0.9,7.438,M,-37.213,M,6.4,0131*60
$PYRTM,2024,126.334405296609,17.444052706840
$GNHDT,107.896,T*2A
$PYRTM,2024,126.334411592269,17.444059002407
$GNGGA,080133.00,3413.31017439,N,12031.25741840,W,2,11,0.9,7.496,M,-37.213,M,7.0,0131*6B
$PYRTM,2024,126.334411592269,17.444059002407
$GNHDT,108.286,T*2E
$PYRTM,2024,126.334417888588,17.444065298727
$GNGGA,080133.50,3413.30985291,N,12031.25622817,W,2,11,0.9,7.497,M,-37.213,M,7.4,0131*6A
$PYRTM,2024,126.334417888588,17.444065298727
$GNHDT,108.398,T*20
$PYRTM,2024,126.334423675625,17.444071085764
$GNGGA,080134.00,3413.30951085,N,12031.25502853,W,2,11,0.9,7.425,M,-37.213,M,7.0,0131*6A
$PYRTM,2024,126.334423675625,17.444071085764
$GNHDT,108.311,T*21
$PYRTM,2024,126.334428860775,17.444076270914
$GNGGA,080134.50,3413.30910763,N,12031.25382490,W,2,11,0.9,7.313,M,-37.213,M,7.4,0131*6E
$PYRTM,2024,126.334428860775,17.444076270914
$GNHDT,108.168,T*2D
$PYRTM,2024,126.334434647917,17.444082058056
$GNGGA,080135.00,3413.30863901,N,12031.25261298,W,2,11,0.9,7.144,M,-37.213,M,7.0,0131*63
$PYRTM,2024,126.334434647917,17.444082058056
$GNHDT,107.490,T*20
$PYRTM,2024,126.334439369167,17.444086779306
$GNGGA,080135.50,3413.30816493,N,12031.25133574,W,2,11,0.9,7.033,M,-37.213,M,7.4,0131*66
$PYRTM,2024,126.334439369167,17.444086779306
$GNHDT,106.974,T*26
$PYRTM,2024,126.334447379410,17.444094789549
$GNGGA,080136.00,3413.30770086,N,12031.25001133,W,2,11,0.9,6.969,M,-37.213,M,4.0,0131*68
$PYRTM,2024,126.334447379410,17.444094789549
$GNHDT,106.075,T*2E
$PYRTM,2024,126.334453675579,17.444101085718
$GNGGA,080136.50,3413.30726312,N,12031.24864264,W,2,11,0.9,6.992,M,-37.213,M,4.4,0131*6B
$PYRTM,2024,126.334453675579,17.444101085718
$GNHDT,105.023,T*2E
$PYRTM,2024,126.334459462685,17.444106872824
$GNGGA,080137.00,3413.30684875,N,12031.24724986,W,2,11,0.9,7.127,M,-37.213,M,5.0,0131*62
$PYRTM,2024,126.334459462685,17.444106872824
$GNHDT,104.400,T*2A
$PYRTM,2024,126.334465805266,17.444113215405
$GNGGA,080137.50,3413.30644513,N,12031.24587375,W,2,11,0.9,7.346,M,-37.213,M,5.4,0131*6A
$PYRTM,2024,126.334465805266,17.444113215405
$GNHDT,103.387,T*25
$PYRTM,2024,126.334470434977,17.444117845116
$GNGGA,080138.00,3413.30603264,N,12031.24453379,W,2,11,0.9,7.582,M,-37.213,M,6.0,0131*69
$PYRTM,2024,126.334470434977,17.444117845116
$GNHDT,103.173,T*2C
$PYRTM,2024,126.334476731215,17.444124141354
$GNGGA,080138.50,3413.30560863,N,12031.24323748,W,2,11,0.9,7.745,M,-37.213,M,6.4,0131*6C
$PYRTM,2024,126.334476731215,17.444124141354
$GNHDT,103.701,T*2F
$PYRTM,2024,126.334482518264,17.444129928403
$GNGGA,080139.00,3413.30516030,N,12031.24200149,W,2,11,0.9,7.766,M,-37.213,M,7.0,0131*64
$PYRTM,2024,126.334482518264,17.444129928403
$GNHDT,104.503,T*28
$PYRTM,2024,126.334488860868,17.444136271007
$GNGGA,080139.50,3413.30468309,N,12031.24081897,W,2,11,0.9,7.624,M,-37.213,M,7.4,0131*62
$PYRTM,2024,126.334488860868,17.444136271007
$GNHDT,105.617,T*2F
$PYRTM,2024,126.334497471968,17.444144882106
$GNGGA,080140.00,3413.30417767,N,12031.23970224,W,2,11,0.9,7.355,M,-37.213,M,7.0,0131*68
$PYRTM,2024,126.334497471968,17.444144882106
$GNHDT,106.837,T*20
$PYRTM,2024,126.334497472350,17.444144882488
$GNGGA,080140.50,3413.30365184,N,12031.23864001,W,2,11,0.9,6.965,M,-37.213,M,7.4,0131*69
$PYRTM,2024,126.334497472350,17.444144882488
$GNHDT,107.898,T*24
$PYRTM,2024,126.334503258981,17.444150669120
$GNGGA,080141.00,3413.30313513,N,12031.23761691,W,2,11,0.9,6.569,M,-37.213,M,7.0,0131*67
$PYRTM,2024,126.334503258981,17.444150669120
$GNHDT,108.829,T*21
$PYRTM,2024,126.334508809479,17.444156219618
$GNGGA,080141.50,3413.30265232,N,12031.23661264,W,2,11,0.9,6.219,M,-37.213,M,7.4,0131*6D
$PYRTM,2024,126.334508809479,17.444156219618
$GNHDT,109.657,T*27
$PYRTM,2024,126.334515342315,17.444162752454
$GNGGA,080142.00,3413.30221409,N,12031.23562065,W,2,11,0.9,6.008,M,-37.213,M,4.0,0131*63
$PYRTM,2024,126.334515342315,17.444162752454
$GNHDT,110.155,T*2A
$PYRTM,2024,126.334521638623,17.444169048762
$GNGGA,080142.50,3413.30183206,N,12031.23461498,W,2,11,0.9,5.955,M,-37.213,M,4.4,0131*66
$PYRTM,2024,126.334521638623,17.444169048762
$GNHDT,110.647,T*2E
$PYRTM,2024,126.334527425625,17.444174835764
$GNGGA,080143.00,3413.30151239,N,12031.23355432,W,2,11,0.9,6.021,M,-37.213,M,5.0,0131*6D
$PYRTM,2024,126.334527425625,17.444174835764
$GNHDT,110.537,T*2A
$PYRTM,2024,126.334533768252,17.444181178391
$GNGGA,080143.50,3413.30122940,N,12031.23242132,W,2,11,0.9,6.152,M,-37.213,M,5.4,0131*6A
$PYRTM,2024,126.334533768252,17.444181178391
$GNHDT,110.293,T*23
$PYRTM,2024,126.334538397917,17.444185808056
$GNGGA,080144.00,3413.30095158,N,12031.23122435,W,2,11,0.9,6.324,M,-37.213,M,6.0,0131*67
$PYRTM,2024,126.334538397917,17.444185808056
$GNHDT,109.545,T*27
$PYRTM,2024,126.334544694190,17.444192104329
$GNGGA,080144.50,3413.30062922,N,12031.23000126,W,2,11,0.9,6.537,M,-37.213,M,6.4,0131*69
$PYRTM,2024,126.334544694190,17.444192104329
$GNHDT,109.090,T*2A
$PYRTM,2024,126.334550481204,17.444197891343
$GNGGA,080145.00,3413.30023734,N,12031.22876593,W,2,11,0.9,6.801,M,-37.213,M,7.0,0131*6E
$PYRTM,2024,126.334550481204,17.444197891343
$GNHDT,108.339,T*2B
$PYRTM,2024,126.334556823773,17.444204233912
$GNGGA,080145.50,3413.29976135,N,12031.22752781,W,2,11,0.9,7.054,M,-37.213,M,7.4,0131*68
$PYRTM,2024,126.334556823773,17.444204233912
$GNHDT,107.860,T*23
$PYRTM,2024,126.334562610810,17.444210020949
$GNGGA,080146.00,3413.29920850,N,12031.22628386,W,2,11,0.9,7.330,M,-37.213,M,7.0,0131*6D
$PYRTM,2024,126.334562610810,17.444210020949
$GNHDT,107.516,T*2F
$PYRTM,2024,126.334568907465,17.444216317604
$GNGGA,080146.50,3413.29860480,N,12031.22504626,W,2,11,0.9,7.542,M,-37.213,M,7.4,0131*69
$PYRTM,2024,126.334568907465,17.444216317604
$GNHDT,107.593,T*22
$PYRTM,2024,126.334572379363,17.444219789502
$GNGGA,080147.00,3413.29799212,N,12031.22380539,W,2,11,0.9,7.673,M,-37.213,M,7.0,0131*6B
$PYRTM,2024,126.334572379363,17.444219789502
$GNHDT,107.740,T*2E
$PYRTM,2024,126.334578256620,17.444225666759
$GNGGA,080147.50,3413.29741733,N,12031.22255437,W,2,11,0.9,7.720,M,-37.213,M,7.4,0131*68
$PYRTM,2024,126.334578256620,17.444225666759
$GNHDT,108.001,T*23
$PYRTM,2024,126.334585018252,17.444232428391
$GNGGA,080148.00,3413.29689252,N,12031.22130419,W,2,11,0.9,7.714,M,-37.213,M,4.0,0131*69
$PYRTM,2024,126.334585018252,17.444232428391
$GNHDT,108.479,T*28
$PYRTM,2024,126.334591360822,17.444238770961
$GNGGA,080148.50,3413.29640770,N,12031.22007058,W,2,11,0.9,7.671,M,-37.213,M,4.4,0131*6E
$PYRTM,2024,126.334591360822,17.444238770961
$GNHDT,108.839,T*20
$PYRTM,2024,126.334597147917,17.444244558056
$GNGGA,080149.00,3413.29595141,N,12031.21887714,W,2,11,0.9,7.608,M,-37.212,M,5.0,0131*63
$PYRTM,2024,126.334597147917,17.444244558056
$GNHDT,109.394,T*2D
$PYRTM,2024,126.334603490498,17.444250900637
$GNGGA,080149.50,3413.29551563,N,12031.21772301,W,2,11,0.9,7.542,M,-37.212,M,5.4,0131*66
$PYRTM,2024,126.334603490498,17.444250900637
$GNHDT,110.219,T*21
$PYRTM,2024,126.334608120139,17.444255530278
$GNGGA,080150.00,3413.29509962,N,12031.21660964,W,2,11,0.9,7.479,M,-37.212,M,6.0,0131*6E
$PYRTM,2024,126.334608120139,17.444255530278
$GNHDT,110.674,T*2E
$PYRTM,2024,126.334614416389,17.444261826528
$GNGGA,080150.50,3413.29469656,N,12031.21551351,W,2,11,0.9,7.407,M,-37.212,M,6.4,0131*64
$PYRTM,2024,126.334614416389,17.444261826528
$GNHDT,111.056,T*29
$PYRTM,2024,126.334620203484,17.444267613623
$GNGGA,080151.00,3413.29430193,N,12031.21442838,W,2,11,0.9,7.284,M,-37.212,M,7.0,0131*6D
$PYRTM,2024,126.334620203484,17.444267613623
$GNHDT,111.625,T*2B
$PYRTM,2024,126.334626499792,17.444273909931
$GNGGA,080151.50,3413.29389919,N,12031.21335347,W,2,11,0.9,7.129,M,-37.212,M,7.4,0131*63
$PYRTM,2024,126.334626499792,17.444273909931
$GNHDT,111.979,T*2D
$PYRTM,2024,126.334631129352,17.444278539491
$GNGGA,080152.00,3413.29347520,N,12031.21229619,W,2,11,0.9,6.949,M,-37.212,M,7.0,0131*68
$PYRTM,2024,126.334631129352,17.444278539491
$GNHDT,112.359,T*26
$PYRTM,2024,126.334637471944,17.444284882083
$GNGGA,080152.50,3413.29303076,N,12031.21124354,W,2,11,0.9,6.771,M,-37.212,M,7.4,0131*68
$PYRTM,2024,126.334637471944,17.444284882083
$GNHDT,112.636,T*2A
$PYRTM,2024,126.334643258970,17.444290669109
$GNGGA,080153.00,3413.29257367,N,12031.21018734,W,2,11,0.9,6.645,M,-37.212,M,7.0,0131*61
$PYRTM,2024,126.334643258970,17.444290669109
$GNHDT,112.635,T*29
$PYRTM,2024,126.334647700891,17.444295111030
$GNGGA,080153.50,3413.29211504,N,12031.20911920,W,2,11,0.9,6.588,M,-37.212,M,7.4,0131*69
$PYRTM,2024,126.334647700891,17.444295111030
$GNHDT,112.125,T*2F
$PYRTM,2024,126.334661083032,17.444308493171
$GNGGA,080154.00,3413.29167885,N,12031.20801889,W,2,11,0.9,6.622,M,-37.212,M,4.0,0131*6B
$PYRTM,2024,126.334661083032,17.444308493171
$GNHDT,111.491,T*26
$PYRTM,2024,126.334661083368,17.444308493507
$GNGGA,080154.50,3413.29126296,N,12031.20687757,W,2,11,0.9,6.721,M,-37.212,M,4.4,0131*69
$PYRTM,2024,126.334661083368,17.444308493507
$GNHDT,111.431,T*2C
$PYRTM,2024,126.334665712685,17.444313122824
$GNGGA,080155.00,3413.29086399,N,12031.20568839,W,2,11,0.9,6.875,M,-37.212,M,5.0,0131*66
$PYRTM,2024,126.334665712685,17.444313122824
$GNHDT,110.539,T*24
$PYRTM,2024,126.334672008958,17.444319419097
$GNGGA,080155.50,3413.29046227,N,12031.20445729,W,2,11,0.9,7.050,M,-37.212,M,5.4,0131*61
$PYRTM,2024,126.334672008958,17.444319419097
$GNHDT,109.701,T*25
$PYRTM,2024,126.334677796007,17.444325206146
$GNGGA,080156.00,3413.29004498,N,12031.20319858,W,2,11,0.9,7.229,M,-37.212,M,6.0,0131*6F
$PYRTM,2024,126.334677796007,17.444325206146
$GNHDT,108.938,T*20
$PYRTM,2024,126.334684092280,17.444331502419
$GNGGA,080156.50,3413.28959449,N,12031.20192320,W,2,11,0.9,7.414,M,-37.212,M,6.4,0131*6F
$PYRTM,2024,126.334684092280,17.444331502419
$GNHDT,108.075,T*20
$PYRTM,2024,126.334689879329,17.444337289468
$GNGGA,080157.00,3413.28909170,N,12031.20064659,W,2,11,0.9,7.562,M,-37.212,M,7.0,0131*67
$PYRTM,2024,126.334689879329,17.444337289468
$GNHDT,107.646,T*29
$PYRTM,2024,126.334696175648,17.444343585787
$GNGGA,080157.50,3413.28852752,N,12031.19938699,W,2,11,0.9,7.694,M,-37.212,M,7.4,0131*63
$PYRTM,2024,126.334696175648,17.444343585787
$GNHDT,107.321,T*2D
$PYRTM,2024,126.334700805278,17.444348215417
$GNGGA,080158.00,3413.28791304,N,12031.19814075,W,2,11,0.9,7.759,M,-37.212,M,7.0,0131*61
$PYRTM,2024,126.334700805278,17.444348215417
$GNHDT,107.263,T*2A
$PYRTM,2024,126.334707101586,17.444354511725
$GNGGA,080158.50,3413.28729030,N,12031.19689978,W,2,11,0.9,7.780,M,-37.212,M,7.4,0131*6D
$PYRTM,2024,126.334707101586,17.444354511725
$GNHDT,107.496,T*26
$PYRTM,2024,126.334712888831,17.444360298970
$GNGGA,080159.00,3413.28669748,N,12031.19565293,W,2,11,0.9,7.757,M,-37.212,M,7.0,0131*65
$PYRTM,2024,126.334712888831,17.444360298970
$GNHDT,107.619,T*23
$PYRTM,2024,126.334717143600,17.444364553738
$GNGGA,080159.50,3413.28615209,N,12031.19440310,W,2,11,0.9,7.727,M,-37.212,M,7.4,0131*64
$PYRTM,2024,126.334717143600,17.444364553738
$GNHDT,107.800,T*25
$PYRTM,2024,126.334723814537,17.444371224676
$GNGGA,080200.00,3413.28565381,N,12031.19315457,W,2,11,0.9,7.687,M,-37.212,M,4.0,0131*64
$PYRTM,2024,126.334723814537,17.444371224676
$GNHDT,108.280,T*28
$PYRTM,2024,126.334730110799,17.444377520938
$GNGGA,080200.50,3413.28519532,N,12031.19191290,W,2,11,0.9,7.653,M,-37.212,M,4.4,0131*6A
$PYRTM,2024,126.334730110799,17.444377520938
$GNHDT,108.963,T*2E
$PYRTM,2024,126.334735897847,17.444383307975
$GNGGA,080201.00,3413.28476105,N,12031.19068307,W,2,11,0.9,7.610,M,-37.212,M,5.0,0131*6C
$PYRTM,2024,126.334735897847,17.444383307975
$GNHDT,109.372,T*25
$PYRTM,2024,126.334742194225,17.444389604363
$GNGGA,080201.50,3413.28433175,N,12031.18947882,W,2,11,0.9,7.559,M,-37.212,M,5.4,0131*66
$PYRTM,2024,126.334742194225,17.444389604363
$GNHDT,109.408,T*2F
$PYRTM,2024,126.334746823877,17.444394234016
$GNGGA,080202.00,3413.28389784,N,12031.18829868,W,2,11,0.9,7.470,M,-37.212,M,6.0,0131*6E
$PYRTM,2024,126.334746823877,17.444394234016
$GNHDT,109.592,T*2D
$PYRTM,2024,126.334753166493,17.444400576632
$GNGGA,080202.50,3413.28346346,N,12031.18713557,W,2,11,0.9,7.342,M,-37.212,M,6.4,0131*67
$PYRTM,2024,126.334753166493,17.444400576632
$GNHDT,109.687,T*2A
$PYRTM,2024,126.334758953530,17.444406363669
$GNGGA,080203.00,3413.28303862,N,12031.18600517,W,2,11,0.9,7.189,M,-37.212,M,7.0,0131*68
$PYRTM,2024,126.334758953530,17.444406363669
$GNHDT,109.924,T*2C
$PYRTM,2024,126.334765249688,17.444412659826
$GNGGA,080203.50,3413.28263743,N,12031.18490804,W,2,11,0.9,7.049,M,-37.212,M,7.4,0131*6B
$PYRTM,2024,126.334765249688,17.444412659826
$GNHDT,110.107,T*2D
$PYRTM,2024,126.334769879595,17.444417289734
$GNGGA,080204.00,3413.28226968,N,12031.18383169,W,2,11,0.9,6.920,M,-37.212,M,7.0,0131*6B
$PYRTM,2024,126.334769879595,17.444417289734
$GNHDT,110.150,T*2F
$PYRTM,2024,126.334775015475,17.444422425613
$GNGGA,080204.50,3413.28191520,N,12031.18275017,W,2,11,0.9,6.806,M,-37.212,M,7.4,0131*60
$PYRTM,2024,126.334775015475,17.444422425613
$GNHDT,109.979,T*24
$PYRTM,2024,126.334781546076,17.444428956215
$GNGGA,080205.00,3413.28155410,N,12031.18165119,W,2,11,0.9,6.691,M,-37.212,M,7.0,0131*67
$PYRTM,2024,126.334781546076,17.444428956215
$GNHDT,109.438,T*2C
$PYRTM,2024,126.334788999699,17.444436409838
$GNGGA,080205.50,3413.28116935,N,12031.18052285,W,2,11,0.9,6.603,M,-37.212,M,7.4,0131*63
$PYRTM,2024,126.334788999699,17.444436409838
$GNHDT,109.070,T*24
$PYRTM,2024,126.334792471944,17.444439882083
$GNGGA,080206.00,3413.28076452,N,12031.17936145,W,2,11,0.9,6.517,M,-37.212,M,4.0,0131*64
$PYRTM,2024,126.334792471944,17.444439882083
$GNHDT,108.186,T*2D
$PYRTM,2024,126.334798814560,17.444446224699
$GNGGA,080206.50,3413.28034853,N,12031.17817587,W,2,11,0.9,6.490,M,-37.212,M,4.4,0131*68
$PYRTM,2024,126.334798814560,17.444446224699
$GNHDT,107.469,T*26
$PYRTM,2024,126.334803444236,17.444450854375
$GNGGA,080207.00,3413.27992687,N,12031.17697975,W,2,11,0.9,6.546,M,-37.212,M,5.0,0131*69
$PYRTM,2024,126.334803444236,17.444450854375
$GNHDT,106.699,T*2A
$PYRTM,2024,126.334809740799,17.444457150937
$GNGGA,080207.50,3413.27950181,N,12031.17577717,W,2,11,0.9,6.683,M,-37.212,M,5.4,0131*6A
$PYRTM,2024,126.334809740799,17.444457150937
$GNHDT,106.166,T*2D
$PYRTM,2024,126.334815527639,17.444462937778
$GNGGA,080208.00,3413.27906646,N,12031.17457006,W,2,11,0.9,6.929,M,-37.212,M,6.0,0131*63
$PYRTM,2024,126.334815527639,17.444462937778
$GNHDT,105.395,T*20
$PYRTM,2024,126.334821823819,17.444469233947
$GNGGA,080208.50,3413.27860469,N,12031.17335914,W,2,11,0.9,7.219,M,-37.212,M,6.4,0131*6C
$PYRTM,2024,126.334821823819,17.444469233947
$GNHDT,105.284,T*21
$PYRTM,2024,126.334827610822,17.444475020961
$GNGGA,080209.00,3413.27811523,N,12031.17214621,W,2,11,0.9,7.491,M,-37.212,M,7.0,0131*69
$PYRTM,2024,126.334827610822,17.444475020961
$GNHDT,105.456,T*28
$PYRTM,2024,126.334833953403,17.444481363542
$GNGGA,080209.50,3413.27760813,N,12031.17092642,W,2,11,0.9,7.720,M,-37.212,M,7.4,0131*6F
$PYRTM,2024,126.334833953403,17.444481363542
$GNHDT,105.583,T*21
$PYRTM,2024,126.334838583125,17.444485993264
$GNGGA,080210.00,3413.27708950,N,12031.16968310,W,2,11,0.9,7.807,M,-37.212,M,7.0,0131*6B
$PYRTM,2024,126.334838583125,17.444485993264
$GNHDT,106.018,T*25
$PYRTM,2024,126.334844458021,17.444491868160
$GNGGA,080210.50,3413.27657525,N,12031.16842418,W,2,11,0.9,7.799,M,-37.212,M,7.4,0131*61
$PYRTM,2024,126.334844458021,17.444491868160
$GNHDT,106.545,T*28
$PYRTM,2024,126.334851823773,17.444499233912
$GNGGA,080211.00,3413.27607120,N,12031.16715145,W,2,11,0.9,7.727,M,-37.212,M,7.0,0131*60
$PYRTM,2024,126.334851823773,17.444499233912
$GNHDT,106.667,T*2B
$PYRTM,2024,126.334857008947,17.444504419086
$GNGGA,080211.50,3413.27557605,N,12031.16587330,W,2,11,0.9,7.627,M,-37.212,M,7.4,0131*6F
$PYRTM,2024,126.334857008947,17.444504419086
$GNHDT,107.130,T*2F
$PYRTM,2024,126.334861638588,17.444509048727
$GNGGA,080212.00,3413.27508793,N,12031.16460863,W,2,11,0.9,7.574,M,-37.212,M,4.0,0131*6A
$PYRTM,2024,126.334861638588,17.444509048727
$GNHDT,107.345,T*2F
$PYRTM,2024,126.334867934919,17.444515345058
$GNGGA,080212.50,3413.27461839,N,12031.16335120,W,2,11,0.9,7.588,M,-37.212,M,4.4,0131*60
$PYRTM,2024,126.334867934919,17.444515345058
$GNHDT,107.120,T*2E
$PYRTM,2024,126.334873722002,17.444521132141
$GNGGA,080213.00,3413.27418573,N,12031.16208240,W,2,11,0.9,7.653,M,-37.212,M,5.0,0131*63
$PYRTM,2024,126.334873722002,17.444521132141
$GNHDT,106.977,T*25
$PYRTM,2024,126.334880064549,17.444527474688
$GNGGA,080213.50,3413.27379540,N,12031.16080347,W,2,11,0.9,7.739,M,-37.212,M,5.4,0131*6B
$PYRTM,2024,126.334880064549,17.444527474688
$GNHDT,106.853,T*22
$PYRTM,2024,126.334884694167,17.444532104294
$GNGGA,080214.00,3413.27342797,N,12031.15953441,W,2,11,0.9,7.815,M,-37.212,M,6.0,0131*6A
$PYRTM,2024,126.334884694167,17.444532104294
$GNHDT,106.842,T*22
$PYRTM,2024,126.334890990440,17.444538400567
$GNGGA,080214.50,3413.27305591,N,12031.15828310,W,2,11,0.9,7.827,M,-37.212,M,6.4,0131*63
$PYRTM,2024,126.334890990440,17.444538400567
$GNHDT,106.728,T*21
$PYRTM,2024,126.334896777546,17.444544187685
$GNGGA,080215.00,3413.27267117,N,12031.15705192,W,2,11,0.9,7.777,M,-37.212,M,7.0,0131*6F
$PYRTM,2024,126.334896777546,17.444544187685
$GNHDT,106.823,T*25
$PYRTM,2024,126.334902328137,17.444549738275
$GNGGA,080215.50,3413.27226077,N,12031.15583140,W,2,11,0.9,7.653,M,-37.212,M,7.4,0131*68
$PYRTM,2024,126.334902328137,17.444549738275
$GNHDT,106.777,T*2B
$PYRTM,2024,126.334907749722,17.444555159861
$GNGGA,080216.00,3413.27183348,N,12031.15461608,W,2,11,0.9,7.473,M,-37.211,M,7.0,0131*6C
$PYRTM,2024,126.334907749722,17.444555159861
$GNHDT,106.538,T*22
$PYRTM,2024,126.334914046053,17.444561456192
$GNGGA,080216.50,3413.27139767,N,12031.15340327,W,2,11,0.9,7.293,M,-37.211,M,7.4,0131*61
$PYRTM,2024,126.334914046053,17.444561456192
$GNHDT,106.175,T*2F
$PYRTM,2024,126.334919833067,17.444567243206
$GNGGA,080217.00,3413.27097867,N,12031.15220511,W,2,11,0.9,7.126,M,-37.211,M,7.0,0131*62
$PYRTM,2024,126.334919833067,17.444567243206
$GNHDT,105.610,T*28
$PYRTM,2024,126.334926175764,17.444573585903
$GNGGA,080217.50,3413.27057920,N,12031.15102906,W,2,11,0.9,7.081,M,-37.211,M,7.4,0131*68
$PYRTM,2024,126.334926175764,17.444573585903
$GNHDT,104.809,T*2F
$PYRTM,2024,126.334930805278,17.444578215417
$GNGGA,080218.00,3413.27019405,N,12031.14988915,W,2,11,0.9,7.138,M,-37.211,M,4.0,0131*6F
$PYRTM,2024,126.334930805278,17.444578215417
$GNHDT,104.504,T*2F
$PYRTM,2024,126.334937101852,17.444584511991
$GNGGA,080218.50,3413.26981633,N,12031.14877740,W,2,11,0.9,7.267,M,-37.211,M,4.4,0131*66
$PYRTM,2024,126.334937101852,17.444584511991
$GNHDT,104.789,T*28
$PYRTM,2024,126.334942888646,17.444590298785
$GNGGA,080219.00,3413.26943678,N,12031.14768383,W,2,11,0.9,7.387,M,-37.211,M,5.0,0131*63
$PYRTM,2024,126.334942888646,17.444590298785
$GNHDT,105.082,T*25
$PYRTM,2024,126.334949184896,17.444596595035
$GNGGA,080219.50,3413.26906021,N,12031.14658498,W,2,11,0.9,7.435,M,-37.211,M,5.4,0131*68
$PYRTM,2024,126.334949184896,17.444596595035
$GNHDT,105.295,T*21
$PYRTM,2024,126.334954971991,17.444602382130
$GNGGA,080220.00,3413.26868111,N,12031.14546621,W,2,11,0.9,7.384,M,-37.211,M,6.0,0131*6A
$PYRTM,2024,126.334954971991,17.444602382130
$GNHDT,105.673,T*2D
$PYRTM,2024,126.334961268287,17.444608678426
$GNGGA,080220.50,3413.26828678,N,12031.14432150,W,2,11,0.9,7.261,M,-37.211,M,6.4,0131*6E
$PYRTM,2024,126.334961268287,17.444608678426
$GNHDT,106.266,T*2E
$PYRTM,2024,126.334965897917,17.444613308056
$GNGGA,080221.00,3413.26786861,N,12031.14316967,W,2,11,0.9,7.113,M,-37.211,M,7.0,0131*69
$PYRTM,2024,126.334965897917,17.444613308056
$GNHDT,106.468,T*26
$PYRTM,2024,126.334972194201,17.444619604340
$GNGGA,080221.50,3413.26742082,N,12031.14201104,W,2,11,0.9,7.021,M,-37.211,M,7.4,0131*6F
$PYRTM,2024,126.334972194201,17.444619604340
$GNHDT,107.136,T*29
$PYRTM,2024,126.334980295984,17.444627706123
$GNGGA,080222.00,3413.26695142,N,12031.14084351,W,2,11,0.9,7.011,M,-37.211,M,7.0,0131*65
$PYRTM,2024,126.334980295984,17.444627706123
$GNHDT,107.167,T*2D
$PYRTM,2024,126.334986592326,17.444634002465
$GNGGA,080222.50,3413.26649227,N,12031.13963220,W,2,11,0.9,7.053,M,-37.211,M,7.4,0131*63
$PYRTM,2024,126.334986592326,17.444634002465
$GNHDT,106.938,T*2E
$PYRTM,2024,126.334991221991,17.444638632130
$GNGGA,080223.00,3413.26606728,N,12031.13835601,W,2,11,0.9,7.151,M,-37.211,M,7.0,0131*64
$PYRTM,2024,126.334991221991,17.444638632130
$GNHDT,106.772,T*2E
$PYRTM,2024,126.334997564525,17.444644974664
$GNGGA,080223.50,3413.26567346,N,12031.13703560,W,2,11,0.9,7.281,M,-37.211,M,7.4,0131*6D
$PYRTM,2024,126.334997564525,17.444644974664
$GNHDT,106.143,T*2A
$PYRTM,2024,126.335003351597,17.444650761736
$GNGGA,080224.00,3413.26529142,N,12031.13568406,W,2,11,0.9,7.419,M,-37.211,M,4.0,0131*6D
$PYRTM,2024,126.335003351597,17.444650761736
$GNHDT,105.739,T*22
$PYRTM,2024,126.335009647824,17.444657057963
$GNGGA,080224.50,3413.26490629,N,12031.13433384,W,2,11,0.9,7.599,M,-37.211,M,4.4,0131*6E
$PYRTM,2024,126.335009647824,17.444657057963
$GNHDT,105.542,T*2C
$PYRTM,2024,126.335014277454,17.444661687593
$GNGGA,080225.00,3413.26450334,N,12031.13300389,W,2,11,0.9,7.762,M,-37.211,M,5.0,0131*66
$PYRTM,2024,126.335014277454,17.444661687593
$GNHDT,105.273,T*29
$PYRTM,2024,126.335020620069,17.444668030208
$GNGGA,080225.50,3413.26408220,N,12031.13169437,W,2,11,0.9,7.893,M,-37.211,M,5.4,0131*60
$PYRTM,2024,126.335020620069,17.444668030208
$GNHDT,105.071,T*29
$PYRTM,2024,126.335026407130,17.444673817269
$GNGGA,080226.00,3413.26364832,N,12031.13041231,W,2,11,0.9,7.947,M,-37.211,M,6.0,0131*66
$PYRTM,2024,126.335026407130,17.444673817269
$GNHDT,104.994,T*2A
$PYRTM,2024,126.335030388565,17.444677798704
$GNGGA,080226.50,3413.26320941,N,12031.12914878,W,2,11,0.9,7.890,M,-37.211,M,6.4,0131*66
$PYRTM,2024,126.335030388565,17.444677798704
$GNHDT,104.935,T*21
$PYRTM,2024,126.335035018194,17.444682428333
$GNGGA,080227.00,3413.26275791,N,12031.12791700,W,2,11,0.9,7.714,M,-37.211,M,7.0,0131*65
$PYRTM,2024,126.335035018194,17.444682428333
$GNHDT,105.018,T*26
$PYRTM,2024,126.335041218160,17.444688628310
$GNGGA,080227.50,3413.26230277,N,12031.12672128,W,2,11,0.9,7.465,M,-37.211,M,7.4,0131*6D
$PYRTM,2024,126.335041218160,17.444688628310
$GNHDT,105.225,T*2A
$PYRTM,2024,126.335048351574,17.444695761713
$GNGGA,080228.00,3413.26185385,N,12031.12556309,W,2,11,0.9,7.188,M,-37.211,M,7.0,0131*60
$PYRTM,2024,126.335048351574,17.444695761713
$GNHDT,105.335,T*2A
$PYRTM,2024,126.335054601574,17.444702011713
$GNGGA,080228.50,3413.26142427,N,12031.12443170,W,2,11,0.9,6.944,M,-37.211,M,7.4,0131*65
$PYRTM,2024,126.335054601574,17.444702011713
$GNHDT,105.499,T*2B
$PYRTM,2024,126.335059231181,17.444706641319
