$PYRTM,2024,121.833333405023,12.942980815162
$GNGGA,200000.00,3253.06724574,N,11748.71541043,W,2,11,1.0,6.867,M,-37.035,M,5.0,0135*60
$PYRTM,2024,121.833333405023,12.942980815162
$GNHDT,295.817,T*2B
$PYRTM,2024,121.833339128368,12.942986538507
$GNGGA,200000.50,3253.06764790,N,11748.71659589,W,2,11,1.0,6.708,M,-37.036,M,5.4,0135*61
$PYRTM,2024,121.833339128368,12.942986538507
$GNHDT,296.106,T*21
$PYRTM,2024,121.833344967581,12.942992377720
$GNGGA,200001.00,3253.06803577,N,11748.71773097,W,2,11,1.0,6.691,M,-37.036,M,6.0,0135*65
$PYRTM,2024,121.833344967581,12.942992377720
$GNHDT,295.961,T*2B
$PYRTM,2024,121.833350704410,12.942998114549
$GNGGA,200001.50,3253.06846261,N,11748.71884244,W,2,11,1.0,6.824,M,-37.036,M,6.4,0135*6E
$PYRTM,2024,121.833350704410,12.942998114549
$GNHDT,296.183,T*2C
$PYRTM,2024,121.833356540729,12.943003950868
$GNGGA,200002.00,3253.06895788,N,11748.71993562,W,2,11,1.0,7.040,M,-37.036,M,7.0,0135*6E
$PYRTM,2024,121.833356540729,12.943003950868
$GNHDT,296.236,T*21
$PYRTM,2024,121.833362279039,12.943009689178
$GNGGA,200002.50,3253.06953099,N,11748.72102429,W,2,11,1.0,7.219,M,-37.036,M,7.4,0135*60
$PYRTM,2024,121.833362279039,12.943009689178
$GNHDT,295.634,T*24
$PYRTM,2024,121.833368116806,12.943015526944
$GNGGA,200003.00,3253.07016194,N,11748.72210341,W,2,11,1.0,7.347,M,-37.036,M,7.0,0135*66
$PYRTM,2024,121.833368116806,12.943015526944
$GNHDT,295.303,T*25
$PYRTM,2024,121.833373847975,12.943021258125
$GNGGA,200003.50,3253.07080496,N,11748.72318739,W,2,11,1.0,7.415,M,-37.036,M,7.4,0135*6D
$PYRTM,2024,121.833373847975,12.943021258125
$GNHDT,295.409,T*28
$PYRTM,2024,121.833379693079,12.943027103218
$GNGGA,200004.00,3253.07140801,N,11748.72428629,W,2,11,1.0,7.482,M,-37.036,M,7.0,0135*6E
$PYRTM,2024,121.833379693079,12.943027103218
$GNHDT,295.070,T*22
$PYRTM,2024,121.833385424294,12.943032834444
$GNGGA,200004.50,3253.07195085,N,11748.72539063,W,2,11,1.0,7.570,M,-37.036,M,7.4,0135*66
$PYRTM,2024,121.833385424294,12.943032834444
$GNHDT,295.256,T*24
$PYRTM,2024,121.833391262708,12.943038672847
$GNGGA,200005.00,3253.07241519,N,11748.72652647,W,2,11,1.0,7.672,M,-37.036,M,4.0,0135*60
$PYRTM,2024,121.833391262708,12.943038672847
$GNHDT,295.215,T*23
$PYRTM,2024,121.833396995868,12.943044406007
$GNGGA,200005.50,3253.07285502,N,11748.72766630,W,2,11,1.0,7.712,M,-37.036,M,4.4,0135*62
$PYRTM,2024,121.833396995868,12.943044406007
$GNHDT,294.805,T*29
$PYRTM,2024,121.833402838090,12.943050248229
$GNGGA,200006.00,3253.07328591,N,11748.72881333,W,2,11,1.0,7.670,M,-37.036,M,5.0,0135*68
$PYRTM,2024,121.833402838090,12.943050248229
$GNHDT,294.992,T*26
$PYRTM,2024,121.833408569178,12.943055979317
$GNGGA,200006.50,3253.07373941,N,11748.72996257,W,2,11,1.0,7.599,M,-37.036,M,5.4,0135*66
$PYRTM,2024,121.833408569178,12.943055979317
$GNHDT,295.229,T*2C
$PYRTM,2024,121.833414413727,12.943061823866
$GNGGA,200007.00,3253.07424396,N,11748.73107132,W,2,11,1.0,7.483,M,-37.036,M,6.0,0135*6B
$PYRTM,2024,121.833414413727,12.943061823866
$GNHDT,295.476,T*20
$PYRTM,2024,121.833420152350,12.943067562488
$GNGGA,200007.50,3253.07481100,N,11748.73212380,W,2,11,1.0,7.360,M,-37.036,M,6.4,0135*6E
$PYRTM,2024,121.833420152350,12.943067562488
$GNHDT,295.437,T*25
$PYRTM,2024,121.833425984722,12.943073394861
$GNGGA,200008.00,3253.07542238,N,11748.73316307,W,2,11,1.0,7.223,M,-37.036,M,7.0,0135*6B
$PYRTM,2024,121.833425984722,12.943073394861
$GNHDT,295.493,T*2B
$PYRTM,2024,121.833431716771,12.943079126910
$GNGGA,200008.50,3253.07606631,N,11748.73421920,W,2,11,1.0,7.045,M,-37.036,M,7.4,0135*6A
$PYRTM,2024,121.833431716771,12.943079126910
$GNHDT,295.886,T*23
$PYRTM,2024,121.833437567222,12.943084977361
$GNGGA,200009.00,3253.07669574,N,11748.73533400,W,2,11,1.0,6.817,M,-37.036,M,7.0,0135*62
$PYRTM,2024,121.833437567222,12.943084977361
$GNHDT,295.793,T*28
$PYRTM,2024,121.833443292419,12.943090702558
$GNGGA,200009.50,3253.07727463,N,11748.73648396,W,2,11,1.0,6.658,M,-37.036,M,7.4,0135*6D
$PYRTM,2024,121.833443292419,12.943090702558
$GNHDT,295.847,T*2E
$PYRTM,2024,121.833449133414,12.943096543553
$GNGGA,200010.00,3253.07777966,N,11748.73764868,W,2,11,1.0,6.643,M,-37.036,M,7.0,0135*66
$PYRTM,2024,121.833449133414,12.943096543553
$GNHDT,295.919,T*24
$PYRTM,2024,121.833454867743,12.943102277882
$GNGGA,200010.50,3253.07823084,N,11748.73882077,W,2,11,1.0,6.781,M,-37.036,M,7.4,0135*62
$PYRTM,2024,121.833454867743,12.943102277882
$GNHDT,295.771,T*24
$PYRTM,2024,121.833460709942,12.943108120081
$GNGGA,200011.00,3253.07866100,N,11748.73999929,W,2,11,1.0,7.027,M,-37.036,M,4.0,0135*6E
$PYRTM,2024,121.833460709942,12.943108120081
$GNHDT,295.982,T*26
$PYRTM,2024,121.833466439826,12.943113849965
$GNGGA,200011.50,3253.07909794,N,11748.74117340,W,2,11,1.0,7.282,M,-37.036,M,4.4,0135*6D
$PYRTM,2024,121.833466439826,12.943113849965
$GNHDT,295.642,T*25
$PYRTM,2024,121.833472280880,12.943119691019
$GNGGA,200012.00,3253.07957460,N,11748.74231492,W,2,11,1.0,7.515,M,-37.036,M,5.0,0135*6B
$PYRTM,2024,121.833472280880,12.943119691019
$GNHDT,295.469,T*2E
$PYRTM,2024,121.833478013356,12.943125423495
$GNGGA,200012.50,3253.08010231,N,11748.74342030,W,2,11,1.0,7.669,M,-37.036,M,5.4,0135*6C
$PYRTM,2024,121.833478013356,12.943125423495
$GNHDT,295.544,T*20
$PYRTM,2024,121.833483854306,12.943131264444
$GNGGA,200013.00,3253.08067319,N,11748.74450209,W,2,11,1.0,7.712,M,-37.036,M,6.0,0135*65
$PYRTM,2024,121.833483854306,12.943131264444
$GNHDT,295.446,T*23
$PYRTM,2024,121.833489593924,12.943137004062
$GNGGA,200013.50,3253.08125997,N,11748.74557106,W,2,11,1.0,7.645,M,-37.036,M,6.4,0135*66
$PYRTM,2024,121.833489593924,12.943137004062
$GNHDT,295.325,T*21
$PYRTM,2024,121.833495428472,12.943142838611
$GNGGA,200014.00,3253.08184629,N,11748.74664510,W,2,11,1.0,7.487,M,-37.036,M,7.0,0135*6C
$PYRTM,2024,121.833495428472,12.943142838611
$GNHDT,295.372,T*23
$PYRTM,2024,121.833501163218,12.943148573368
$GNGGA,200014.50,3253.08241182,N,11748.74774982,W,2,11,1.0,7.306,M,-37.036,M,7.4,0135*68
$PYRTM,2024,121.833501163218,12.943148573368
$GNHDT,295.304,T*22
$PYRTM,2024,121.833507007616,12.943154417766
$GNGGA,200015.00,3253.08294345,N,11748.74889485,W,2,11,1.0,7.102,M,-37.036,M,7.0,0135*68
$PYRTM,2024,121.833507007616,12.943154417766
$GNHDT,295.300,T*26
$PYRTM,2024,121.833512740139,12.943160150278
$GNGGA,200015.50,3253.08344415,N,11748.75008935,W,2,11,1.0,6.919,M,-37.036,M,7.4,0135*62
$PYRTM,2024,121.833512740139,12.943160150278
$GNHDT,294.972,T*28
$PYRTM,2024,121.833518577211,12.943165987350
$GNGGA,200016.00,3253.08390935,N,11748.75131451,W,2,11,1.0,6.794,M,-37.036,M,7.0,0135*69
$PYRTM,2024,121.833518577211,12.943165987350
$GNHDT,294.918,T*24
$PYRTM,2024,121.833524314225,12.943171724363
$GNGGA,200016.50,3253.08437411,N,11748.75248798,W,2,11,1.0,6.817,M,-37.036,M,7.4,0135*66
$PYRTM,2024,121.833524314225,12.943171724363
$GNHDT,294.948,T*21
$PYRTM,2024,121.833530153773,12.943177563912
$GNGGA,200017.00,3253.08485235,N,11748.75359608,W,2,11,1.0,7.026,M,-37.036,M,4.0,0135*6E
$PYRTM,2024,121.833530153773,12.943177563912
$GNHDT,295.390,T*2F
$PYRTM,2024,121.833535892801,12.943183302940
$GNGGA,200017.50,3253.08535983,N,11748.75465335,W,2,11,1.0,7.332,M,-37.036,M,4.4,0135*66
$PYRTM,2024,121.833535892801,12.943183302940
$GNHDT,295.466,T*21
$PYRTM,2024,121.833541729329,12.943189139468
$GNGGA,200018.00,3253.08591467,N,11748.75569292,W,2,11,1.0,7.632,M,-37.036,M,5.0,0135*64
$PYRTM,2024,121.833541729329,12.943189139468
$GNHDT,295.469,T*2E
$PYRTM,2024,121.833547462731,12.943194872870
$GNGGA,200018.50,3253.08653423,N,11748.75676799,W,2,11,1.0,7.750,M,-37.036,M,5.4,0135*6E
$PYRTM,2024,121.833547462731,12.943194872870
$GNHDT,295.514,T*25
$PYRTM,2024,121.833553303727,12.943200713866
$GNGGA,200019.00,3253.08718122,N,11748.75791048,W,2,11,1.0,7.583,M,-37.036,M,6.0,0135*68
$PYRTM,2024,121.833553303727,12.943200713866
$GNHDT,295.214,T*22
$PYRTM,2024,121.833559035127,12.943206445266
$GNGGA,200019.50,3253.08779994,N,11748.75911169,W,2,11,1.0,7.222,M,-37.036,M,6.4,0135*63
$PYRTM,2024,121.833559035127,12.943206445266
$GNHDT,295.582,T*2A
$PYRTM,2024,121.833564872153,12.943212282292
$GNGGA,200020.00,3253.08835772,N,11748.76034630,W,2,11,1.0,6.790,M,-37.036,M,7.0,0135*63
$PYRTM,2024,121.833564872153,12.943212282292
$GNHDT,295.472,T*24
$PYRTM,2024,121.833570610567,12.943218020718
$GNGGA,200020.50,3253.08884521,N,11748.76156762,W,2,11,1.0,6.490,M,-37.036,M,7.4,0135*6C
$PYRTM,2024,121.833570610567,12.943218020718
$GNHDT,295.418,T*28
$PYRTM,2024,121.833576449653,12.943223859792
$GNGGA,200021.00,3253.08927447,N,11748.76273038,W,2,11,1.0,6.468,M,-37.036,M,7.0,0135*6E
$PYRTM,2024,121.833576449653,12.943223859792
$GNHDT,295.401,T*20
$PYRTM,2024,121.833582186875,12.943229597014
$GNGGA,200021.50,3253.08970468,N,11748.76383528,W,2,11,1.0,6.728,M,-37.036,M,7.4,0135*6D
$PYRTM,2024,121.833582186875,12.943229597014
$GNHDT,295.562,T*24
$PYRTM,2024,121.833588024398,12.943235434549
$GNGGA,200022.00,3253.09015876,N,11748.76489826,W,2,11,1.0,7.139,M,-37.036,M,7.0,0135*6E
$PYRTM,2024,121.833588024398,12.943235434549
$GNHDT,295.746,T*20
$PYRTM,2024,121.833593759722,12.943241169861
$GNGGA,200022.50,3253.09067319,N,11748.76594686,W,2,11,1.0,7.554,M,-37.036,M,7.4,0135*6E
$PYRTM,2024,121.833593759722,12.943241169861
$GNHDT,295.796,T*2D
$PYRTM,2024,121.833599601713,12.943247011852
$GNGGA,200023.00,3253.09124646,N,11748.76702531,W,2,11,1.0,7.799,M,-37.036,M,4.0,0135*65
$PYRTM,2024,121.833599601713,12.943247011852
$GNHDT,295.839,T*27
$PYRTM,2024,121.833605331806,12.943252741944
$GNGGA,200023.50,3253.09186232,N,11748.76813017,W,2,11,1.0,7.802,M,-37.036,M,4.4,0135*68
$PYRTM,2024,121.833605331806,12.943252741944
$GNHDT,295.772,T*27
$PYRTM,2024,121.833611175822,12.943258585961
$GNGGA,200024.00,3253.09247096,N,11748.76925804,W,2,11,1.0,7.624,M,-37.036,M,5.0,0135*69
$PYRTM,2024,121.833611175822,12.943258585961
$GNHDT,295.773,T*26
$PYRTM,2024,121.833616904769,12.943264314907
$GNGGA,200024.50,3253.09304110,N,11748.77040364,W,2,11,1.0,7.323,M,-37.036,M,5.4,0135*65
$PYRTM,2024,121.833616904769,12.943264314907
$GNHDT,295.808,T*25
$PYRTM,2024,121.833622744780,12.943270154919
$GNGGA,200025.00,3253.09355620,N,11748.77157191,W,2,11,1.0,7.039,M,-37.036,M,6.0,0135*61
$PYRTM,2024,121.833622744780,12.943270154919
$GNHDT,295.832,T*2C
$PYRTM,2024,121.833628479653,12.943275889792
$GNGGA,200025.50,3253.09403669,N,11748.77273091,W,2,11,1.0,6.861,M,-37.036,M,6.4,0135*69
$PYRTM,2024,121.833628479653,12.943275889792
$GNHDT,295.731,T*20
$PYRTM,2024,121.833634319097,12.943281729236
$GNGGA,200026.00,3253.09449483,N,11748.77386427,W,2,11,1.0,6.819,M,-37.036,M,7.0,0135*6F
$PYRTM,2024,121.833634319097,12.943281729236
$GNHDT,295.694,T*2E
$PYRTM,2024,121.833640062037,12.943287472176
$GNGGA,200026.50,3253.09495350,N,11748.77497927,W,2,11,1.0,6.917,M,-37.036,M,7.4,0135*63
$PYRTM,2024,121.833640062037,12.943287472176
$GNHDT,295.556,T*23
$PYRTM,2024,121.833645899132,12.943293309271
$GNGGA,200027.00,3253.09542838,N,11748.77608441,W,2,11,1.0,7.116,M,-37.036,M,7.0,0135*6C
$PYRTM,2024,121.833645899132,12.943293309271
$GNHDT,295.545,T*21
$PYRTM,2024,121.833651626389,12.943299036528
$GNGGA,200027.50,3253.09593554,N,11748.77717433,W,2,11,1.0,7.292,M,-37.036,M,7.4,0135*63
$PYRTM,2024,121.833651626389,12.943299036528
$GNHDT,295.452,T*26
$PYRTM,2024,121.833657468461,12.943304878611
$GNGGA,200028.00,3253.09648118,N,11748.77825884,W,2,11,1.0,7.431,M,-37.036,M,7.0,0135*65
$PYRTM,2024,121.833657468461,12.943304878611
$GNHDT,295.377,T*26
$PYRTM,2024,121.833663210139,12.943310620278
$GNGGA,200028.50,3253.09705730,N,11748.77937325,W,2,11,1.0,7.449,M,-37.036,M,7.4,0135*6D
$PYRTM,2024,121.833663210139,12.943310620278
$GNHDT,295.626,T*27
$PYRTM,2024,121.833669044479,12.943316454618
$GNGGA,200029.00,3253.09764926,N,11748.78053344,W,2,11,1.0,7.301,M,-37.036,M,4.0,0135*68
$PYRTM,2024,121.833669044479,12.943316454618
$GNHDT,295.573,T*24
$PYRTM,2024,121.833674774549,12.943322184699
$GNGGA,200029.50,3253.09823989,N,11748.78172061,W,2,11,1.0,7.070,M,-37.036,M,4.4,0135*63
$PYRTM,2024,121.833674774549,12.943322184699
$GNHDT,295.547,T*23
$PYRTM,2024,121.833680615185,12.943328025324
$GNGGA,200030.00,3253.09879395,N,11748.78288704,W,2,11,1.0,6.893,M,-37.036,M,5.0,0135*65
$PYRTM,2024,121.833680615185,12.943328025324
$GNHDT,295.493,T*2B
$PYRTM,2024,121.833686348449,12.943333758600
$GNGGA,200030.50,3253.09931423,N,11748.78400836,W,2,11,1.0,6.875,M,-37.036,M,5.4,0135*63
$PYRTM,2024,121.833686348449,12.943333758600
$GNHDT,295.680,T*2B
$PYRTM,2024,121.833692191389,12.943339601528
$GNGGA,200031.00,3253.09979116,N,11748.78511576,W,2,11,1.0,7.003,M,-37.036,M,6.0,0135*6F
$PYRTM,2024,121.833692191389,12.943339601528
$GNHDT,295.776,T*23
$PYRTM,2024,121.833697923877,12.943345334016
$GNGGA,200031.50,3253.10025867,N,11748.78624819,W,2,11,1.0,7.204,M,-37.036,M,6.4,0135*6D
$PYRTM,2024,121.833697923877,12.943345334016
$GNHDT,295.548,T*2C
$PYRTM,2024,121.833703762755,12.943351172894
$GNGGA,200032.00,3253.10074119,N,11748.78743482,W,2,11,1.0,7.322,M,-37.036,M,7.0,0135*61
$PYRTM,2024,121.833703762755,12.943351172894
$GNHDT,295.493,T*2B
$PYRTM,2024,121.833709504375,12.943356914514
$GNGGA,200032.50,3253.10125943,N,11748.78866160,W,2,11,1.0,7.289,M,-37.036,M,7.4,0135*63
$PYRTM,2024,121.833709504375,12.943356914514
$GNHDT,295.276,T*26
$PYRTM,2024,121.833715338808,12.943362748947
$GNGGA,200033.00,3253.10180481,N,11748.78989987,W,2,11,1.0,7.135,M,-37.036,M,7.0,0135*6A
$PYRTM,2024,121.833715338808,12.943362748947
$GNHDT,295.188,T*24
$PYRTM,2024,121.833721074109,12.943368484248
$GNGGA,200033.50,3253.10237525,N,11748.79109845,W,2,11,1.0,6.995,M,-37.036,M,7.4,0135*66
$PYRTM,2024,121.833721074109,12.943368484248
$GNHDT,295.369,T*29
$PYRTM,2024,121.833726916898,12.943374327037
$GNGGA,200034.00,3253.10295191,N,11748.79224427,W,2,11,1.0,6.949,M,-37.037,M,7.0,0135*67
$PYRTM,2024,121.833726916898,12.943374327037
$GNHDT,295.336,T*23
$PYRTM,2024,121.833732647326,12.943380057465
$GNGGA,200034.50,3253.10352305,N,11748.79333082,W,2,11,1.0,7.069,M,-37.037,M,7.4,0135*65
$PYRTM,2024,121.833732647326,12.943380057465
$GNHDT,295.262,T*23
$PYRTM,2024,121.833738486343,12.943385896481
$GNGGA,200035.00,3253.10408371,N,11748.79437456,W,2,11,1.0,7.344,M,-37.037,M,4.0,0135*6F
$PYRTM,2024,121.833738486343,12.943385896481
$GNHDT,295.410,T*20
$PYRTM,2024,121.833744219363,12.943391629514
$GNGGA,200035.50,3253.10462061,N,11748.79542038,W,2,11,1.0,7.664,M,-37.037,M,4.4,0135*68
$PYRTM,2024,121.833744219363,12.943391629514
$GNHDT,295.574,T*23
$PYRTM,2024,121.833750059769,12.943397469907
$GNGGA,200036.00,3253.10513778,N,11748.79650329,W,2,11,1.0,7.919,M,-37.037,M,5.0,0135*65
$PYRTM,2024,121.833750059769,12.943397469907
$GNHDT,295.625,T*24
$PYRTM,2024,121.833755795509,12.943403205648
$GNGGA,200036.50,3253.10563985,N,11748.79764063,W,2,11,1.0,8.015,M,-37.037,M,5.4,0135*6E
$PYRTM,2024,121.833755795509,12.943403205648
$GNHDT,295.337,T*22
$PYRTM,2024,121.833761631227,12.943409041366
$GNGGA,200037.00,3253.10612192,N,11748.79881713,W,2,11,1.0,7.917,M,-37.037,M,6.0,0135*66
$PYRTM,2024,121.833761631227,12.943409041366
$GNHDT,295.261,T*20
$PYRTM,2024,121.833767368958,12.943414779097
$GNGGA,200037.50,3253.10659129,N,11748.80000466,W,2,11,1.0,7.698,M,-37.037,M,6.4,0135*66
$PYRTM,2024,121.833767368958,12.943414779097
$GNHDT,295.099,T*25
$PYRTM,2024,121.833773211493,12.943420621632
$GNGGA,200038.00,3253.10706878,N,11748.80118199,W,2,11,1.0,7.399,M,-37.037,M,7.0,0135*66
$PYRTM,2024,121.833773211493,12.943420621632
$GNHDT,295.140,T*20
$PYRTM,2024,121.833778941331,12.943426351470
$GNGGA,200038.50,3253.10756304,N,11748.80234286,W,2,11,1.0,7.112,M,-37.037,M,7.4,0135*63
$PYRTM,2024,121.833778941331,12.943426351470
$GNHDT,295.043,T*22
$PYRTM,2024,121.833784787407,12.943432197546
$GNGGA,200039.00,3253.10808453,N,11748.80347674,W,2,11,1.0,6.908,M,-37.037,M,7.0,0135*6C
$PYRTM,2024,121.833784787407,12.943432197546
$GNHDT,294.886,T*22
$PYRTM,2024,121.833790515880,12.943437926019
$GNGGA,200039.50,3253.10862641,N,11748.80457164,W,2,11,1.0,6.852,M,-37.037,M,7.4,0135*6E
$PYRTM,2024,121.833790515880,12.943437926019
$GNHDT,295.006,T*23
$PYRTM,2024,121.833796356308,12.943443766447
$GNGGA,200040.00,3253.10918290,N,11748.80563271,W,2,11,1.0,6.957,M,-37.037,M,7.0,0135*60
$PYRTM,2024,121.833796356308,12.943443766447
$GNHDT,295.185,T*29
$PYRTM,2024,121.833802091562,12.943449501701
$GNGGA,200040.50,3253.10976485,N,11748.80667591,W,2,11,1.0,7.149,M,-37.037,M,7.4,0135*63
$PYRTM,2024,121.833802091562,12.943449501701
$GNHDT,295.302,T*24
$PYRTM,2024,121.833807930544,12.943455340683
$GNGGA,200041.00,3253.11036222,N,11748.80776578,W,2,11,1.0,7.329,M,-37.037,M,4.0,0135*65
$PYRTM,2024,121.833807930544,12.943455340683
$GNHDT,295.664,T*21
$PYRTM,2024,121.833813663171,12.943461073310
$GNGGA,200041.50,3253.11097768,N,11748.80891884,W,2,11,1.0,7.401,M,-37.037,M,4.4,0135*61
$PYRTM,2024,121.833813663171,12.943461073310
$GNHDT,295.743,T*25
$PYRTM,2024,121.833819513576,12.943466923715
$GNGGA,200042.00,3253.11156743,N,11748.81013345,W,2,11,1.0,7.351,M,-37.037,M,5.0,0135*60
$PYRTM,2024,121.833819513576,12.943466923715
$GNHDT,295.744,T*22
$PYRTM,2024,121.833825238646,12.943472648785
$GNGGA,200042.50,3253.11209836,N,11748.81136618,W,2,11,1.0,7.282,M,-37.037,M,5.4,0135*61
$PYRTM,2024,121.833825238646,12.943472648785
$GNHDT,295.318,T*2F
$PYRTM,2024,121.833831075868,12.943478486007
$GNGGA,200043.00,3253.11256115,N,11748.81257611,W,2,11,1.0,7.308,M,-37.037,M,6.0,0135*6E
$PYRTM,2024,121.833831075868,12.943478486007
$GNHDT,294.937,T*29
$PYRTM,2024,121.833836812905,12.943484223044
$GNGGA,200043.50,3253.11299021,N,11748.81374598,W,2,11,1.0,7.461,M,-37.037,M,6.4,0135*60
$PYRTM,2024,121.833836812905,12.943484223044
$GNHDT,295.014,T*20
$PYRTM,2024,121.833842649514,12.943490059653
$GNGGA,200044.00,3253.11342016,N,11748.81487431,W,2,11,1.0,7.654,M,-37.037,M,7.0,0135*69
$PYRTM,2024,121.833842649514,12.943490059653
$GNHDT,294.857,T*2E
$PYRTM,2024,121.833848384792,12.943495794931
$GNGGA,200044.50,3253.11390078,N,11748.81599535,W,2,11,1.0,7.791,M,-37.037,M,7.4,0135*6C
$PYRTM,2024,121.833848384792,12.943495794931
$GNHDT,295.086,T*2B
$PYRTM,2024,121.833854230729,12.943501640868
$GNGGA,200045.00,3253.11444908,N,11748.81711585,W,2,11,1.0,7.792,M,-37.037,M,7.0,0135*66
$PYRTM,2024,121.833854230729,12.943501640868
$GNHDT,295.105,T*21
$PYRTM,2024,121.833859962812,12.943507372951
$GNGGA,200045.50,3253.11504359,N,11748.81823189,W,2,11,1.0,7.659,M,-37.037,M,7.4,0135*6C
$PYRTM,2024,121.833859962812,12.943507372951
$GNHDT,294.853,T*2A
$PYRTM,2024,121.833865797477,12.943513207616
$GNGGA,200046.00,3253.11565125,N,11748.81933220,W,2,11,1.0,7.461,M,-37.037,M,7.0,0135*69
$PYRTM,2024,121.833865797477,12.943513207616
$GNHDT,295.227,T*22
$PYRTM,2024,121.833871541620,12.943518951759
$GNGGA,200046.50,3253.11626948,N,11748.82038617,W,2,11,1.0,7.254,M,-37.037,M,7.4,0135*6E
$PYRTM,2024,121.833871541620,12.943518951759
$GNHDT,295.277,T*27
$PYRTM,2024,121.833877374792,12.943524784931
$GNGGA,200047.00,3253.11685313,N,11748.82144880,W,2,11,1.0,7.129,M,-37.037,M,4.0,0135*63
$PYRTM,2024,121.833877374792,12.943524784931
$GNHDT,295.434,T*26
$PYRTM,2024,121.833883111528,12.943530521667
$GNGGA,200047.50,3253.11739010,N,11748.82256304,W,2,11,1.0,7.091,M,-37.037,M,4.4,0135*61
$PYRTM,2024,121.833883111528,12.943530521667
$GNHDT,295.502,T*22
$PYRTM,2024,121.833888956782,12.943536366921
$GNGGA,200048.00,3253.11786331,N,11748.82376288,W,2,11,1.0,7.096,M,-37.037,M,5.0,0135*6B
$PYRTM,2024,121.833888956782,12.943536366921
$GNHDT,295.512,T*23
$PYRTM,2024,121.833894684618,12.943542094757
$GNGGA,200048.50,3253.11828996,N,11748.82501444,W,2,11,1.0,7.092,M,-37.037,M,5.4,0135*62
$PYRTM,2024,121.833894684618,12.943542094757
$GNHDT,295.031,T*27
$PYRTM,2024,121.833900524039,12.943547934178
$GNGGA,200049.00,3253.11870455,N,11748.82626030,W,2,11,1.0,7.131,M,-37.037,M,6.0,0135*67
$PYRTM,2024,121.833900524039,12.943547934178
$GNHDT,294.921,T*2E
$PYRTM,2024,121.833906257257,12.943553667396
$GNGGA,200049.50,3253.11913563,N,11748.82747112,W,2,11,1.0,7.291,M,-37.037,M,6.4,0135*68
$PYRTM,2024,121.833906257257,12.943553667396
$GNHDT,295.492,T*2A
$PYRTM,2024,121.833912101944,12.943559512083
$GNGGA,200050.00,3253.11962191,N,11748.82859040,W,2,11,1.0,7.539,M,-37.037,M,7.0,0135*6C
$PYRTM,2024,121.833912101944,12.943559512083
$GNHDT,295.411,T*21
$PYRTM,2024,121.833917831863,12.943565242014
$GNGGA,200050.50,3253.12018447,N,11748.82963639,W,2,11,1.0,7.799,M,-37.037,M,7.4,0135*6C
$PYRTM,2024,121.833917831863,12.943565242014
$GNHDT,295.567,T*21
$PYRTM,2024,121.833923673507,12.943571083646
$GNGGA,200051.00,3253.12079556,N,11748.83067318,W,2,11,1.0,8.027,M,-37.037,M,7.0,0135*6D
$PYRTM,2024,121.833923673507,12.943571083646
$GNHDT,295.514,T*25
$PYRTM,2024,121.833929403056,12.943576813194
$GNGGA,200051.50,3253.12142454,N,11748.83174416,W,2,11,1.0,8.093,M,-37.037,M,7.4,0135*63
$PYRTM,2024,121.833929403056,12.943576813194
$GNHDT,295.417,T*27
$PYRTM,2024,121.833935245417,12.943582655556
$GNGGA,200052.00,3253.12203656,N,11748.83287237,W,2,11,1.0,7.991,M,-37.037,M,7.0,0135*69
$PYRTM,2024,121.833935245417,12.943582655556
$GNHDT,295.307,T*21
$PYRTM,2024,121.833940982361,12.943588392500
$GNGGA,200052.50,3253.12262081,N,11748.83405974,W,2,11,1.0,7.671,M,-37.037,M,7.4,0135*62
$PYRTM,2024,121.833940982361,12.943588392500
$GNHDT,295.277,T*27
$PYRTM,2024,121.833946835532,12.943594245671
$GNGGA,200053.00,3253.12317372,N,11748.83528202,W,2,11,1.0,7.204,M,-37.037,M,4.0,0135*6F
$PYRTM,2024,121.833946835532,12.943594245671
$GNHDT,295.087,T*2A
$PYRTM,2024,121.833952556725,12.943599966863
$GNGGA,200053.50,3253.12366374,N,11748.83654336,W,2,11,1.0,6.782,M,-37.037,M,4.4,0135*6A
$PYRTM,2024,121.833952556725,12.943599966863
$GNHDT,295.171,T*22
$PYRTM,2024,121.833958396539,12.943605806678
$GNGGA,200054.00,3253.12412530,N,11748.83775237,W,2,11,1.0,6.571,M,-37.037,M,5.0,0135*63
$PYRTM,2024,121.833958396539,12.943605806678
$GNHDT,295.317,T*20
$PYRTM,2024,121.833964129699,12.943611539838
$GNGGA,200054.50,3253.12456880,N,11748.83889104,W,2,11,1.0,6.665,M,-37.037,M,5.4,0135*6D
$PYRTM,2024,121.833964129699,12.943611539838
$GNHDT,295.254,T*26
$PYRTM,2024,121.833969967755,12.943617377894
$GNGGA,200055.00,3253.12504121,N,11748.83995531,W,2,11,1.0,7.011,M,-37.037,M,6.0,0135*60
$PYRTM,2024,121.833969967755,12.943617377894
$GNHDT,295.494,T*2C
$PYRTM,2024,121.833975703495,12.943623113634
$GNGGA,200055.50,3253.12557380,N,11748.84099130,W,2,11,1.0,7.433,M,-37.037,M,6.4,0135*6D
$PYRTM,2024,121.833975703495,12.943623113634
$GNHDT,295.531,T*22
$PYRTM,2024,121.833981544398,12.943628954537
$GNGGA,200056.00,3253.12616986,N,11748.84205077,W,2,11,1.0,7.797,M,-37.037,M,7.0,0135*6C
$PYRTM,2024,121.833981544398,12.943628954537
$GNHDT,295.464,T*23
$PYRTM,2024,121.833987278553,12.943634688692
$GNGGA,200056.50,3253.12679973,N,11748.84315600,W,2,11,1.0,7.937,M,-37.037,M,7.4,0135*6C
$PYRTM,2024,121.833987278553,12.943634688692
$GNHDT,295.484,T*2D
$PYRTM,2024,121.833993118183,12.943640528322
$GNGGA,200057.00,3253.12742312,N,11748.84429420,W,2,11,1.0,7.890,M,-37.037,M,7.0,0135*6C
$PYRTM,2024,121.833993118183,12.943640528322
$GNHDT,295.527,T*25
$PYRTM,2024,121.833998847627,12.943646257766
$GNGGA,200057.50,3253.12800442,N,11748.84544830,W,2,11,1.0,7.722,M,-37.037,M,7.4,0135*67
$PYRTM,2024,121.833998847627,12.943646257766
$GNHDT,295.658,T*2E
$PYRTM,2024,121.834004688461,12.943652098600
$GNGGA,200058.00,3253.12852307,N,11748.84660166,W,2,11,1.0,7.539,M,-37.037,M,7.0,0135*6F
$PYRTM,2024,121.834004688461,12.943652098600
$GNHDT,295.640,T*27
$PYRTM,2024,121.834010424028,12.943657834167
$GNGGA,200058.50,3253.12898451,N,11748.84773889,W,2,11,1.0,7.486,M,-37.037,M,7.4,0135*62
$PYRTM,2024,121.834010424028,12.943657834167
$GNHDT,295.449,T*2C
$PYRTM,2024,121.834016261528,12.943663671667
$GNGGA,200059.00,3253.12942101,N,11748.84882883,W,2,11,1.0,7.521,M,-37.037,M,4.0,0135*60
$PYRTM,2024,121.834016261528,12.943663671667
$GNHDT,295.540,T*24
$PYRTM,2024,121.834021996343,12.943669406493
$GNGGA,200059.50,3253.12984339,N,11748.84992519,W,2,11,1.0,7.656,M,-37.037,M,4.4,0135*6F
$PYRTM,2024,121.834021996343,12.943669406493
$GNHDT,295.331,T*24
$PYRTM,2024,121.834027840660,12.943675250799
$GNGGA,200100.00,3253.13026982,N,11748.85103034,W,2,11,1.0,7.823,M,-37.037,M,5.0,0135*6F
$PYRTM,2024,121.834027840660,12.943675250799
$GNHDT,295.099,T*25
$PYRTM,2024,121.834033571296,12.943680981435
$GNGGA,200100.50,3253.13075356,N,11748.85212163,W,2,11,1.0,7.908,M,-37.037,M,5.4,0135*63
$PYRTM,2024,121.834033571296,12.943680981435
$GNHDT,295.231,T*25
$PYRTM,2024,121.834039416123,12.943686826262
$GNGGA,200101.00,3253.13132317,N,11748.85320558,W,2,11,1.0,7.817,M,-37.037,M,6.0,0135*64
$PYRTM,2024,121.834039416123,12.943686826262
$GNHDT,295.085,T*28
$PYRTM,2024,121.834045152234,12.943692562373
$GNGGA,200101.50,3253.13193936,N,11748.85432986,W,2,11,1.0,7.564,M,-37.037,M,6.4,0135*65
$PYRTM,2024,121.834045152234,12.943692562373
$GNHDT,294.984,T*21
$PYRTM,2024,121.834050987789,12.943698397928
$GNGGA,200102.00,3253.13258816,N,11748.85549990,W,2,11,1.0,7.167,M,-37.037,M,7.0,0135*6C
$PYRTM,2024,121.834050987789,12.943698397928
$GNHDT,295.071,T*23
$PYRTM,2024,121.834056719178,12.943704129329
$GNGGA,200102.50,3253.13324028,N,11748.85668980,W,2,11,1.0,6.744,M,-37.037,M,7.4,0135*65
$PYRTM,2024,121.834056719178,12.943704129329
$GNHDT,295.151,T*20
$PYRTM,2024,121.834062560162,12.943709970301
$GNGGA,200103.00,3253.13383301,N,11748.85787490,W,2,11,1.0,6.476,M,-37.037,M,7.0,0135*6E
$PYRTM,2024,121.834062560162,12.943709970301
$GNHDT,294.822,T*2C
$PYRTM,2024,121.834068292581,12.943715702720
$GNGGA,200103.50,3253.13433223,N,11748.85902497,W,2,11,1.0,6.573,M,-37.037,M,7.4,0135*62
$PYRTM,2024,121.834068292581,12.943715702720
$GNHDT,294.723,T*22
$PYRTM,2024,121.834074139595,12.943721549734
$GNGGA,200104.00,3253.13474805,N,11748.86015899,W,2,11,1.0,6.981,M,-37.037,M,7.0,0135*66
$PYRTM,2024,121.834074139595,12.943721549734
$GNHDT,294.709,T*2A
$PYRTM,2024,121.834079877986,12.943727288113
$GNGGA,200104.50,3253.13514388,N,11748.86125500,W,2,11,1.0,7.532,M,-37.037,M,7.4,0135*64
$PYRTM,2024,121.834079877986,12.943727288113
$GNHDT,294.904,T*29
$PYRTM,2024,121.834085710382,12.943733120521
$GNGGA,200105.00,3253.13557212,N,11748.86236046,W,2,11,1.0,7.994,M,-37.037,M,4.0,0135*64
$PYRTM,2024,121.834085710382,12.943733120521
$GNHDT,294.777,T*23
$PYRTM,2024,121.834091446921,12.943738857060
$GNGGA,200105.50,3253.13604303,N,11748.86354756,W,2,11,1.0,8.207,M,-37.037,M,4.4,0135*6C
$PYRTM,2024,121.834091446921,12.943738857060
$GNHDT,294.744,T*23
$PYRTM,2024,121.834097289271,12.943744699410
$GNGGA,200106.00,3253.13657306,N,11748.86475792,W,2,11,1.0,8.086,M,-37.037,M,5.0,0135*6B
$PYRTM,2024,121.834097289271,12.943744699410
$GNHDT,294.860,T*2A
$PYRTM,2024,121.834103018576,12.943750428704
$GNGGA,200106.50,3253.13715337,N,11748.86594305,W,2,11,1.0,7.716,M,-37.037,M,5.4,0135*6A
$PYRTM,2024,121.834103018576,12.943750428704
$GNHDT,294.869,T*23
$PYRTM,2024,121.834108855752,12.943756265891
$GNGGA,200107.00,3253.13773726,N,11748.86711157,W,2,11,1.0,7.264,M,-37.037,M,6.0,0135*67
$PYRTM,2024,121.834108855752,12.943756265891
$GNHDT,295.005,T*20
$PYRTM,2024,121.834114590127,12.943762000266
$GNGGA,200107.50,3253.13830702,N,11748.86824246,W,2,11,1.0,6.831,M,-37.037,M,6.4,0135*69
$PYRTM,2024,121.834114590127,12.943762000266
$GNHDT,295.074,T*26
$PYRTM,2024,121.834120430799,12.943767840938
$GNGGA,200108.00,3253.13883465,N,11748.86935692,W,2,11,1.0,6.620,M,-37.037,M,7.0,0135*6E
$PYRTM,2024,121.834120430799,12.943767840938
$GNHDT,294.916,T*2A
$PYRTM,2024,121.834126170579,12.943773580718
$GNGGA,200108.50,3253.13931630,N,11748.87044839,W,2,11,1.0,6.701,M,-37.037,M,7.4,0135*66
$PYRTM,2024,121.834126170579,12.943773580718
$GNHDT,295.065,T*26
$PYRTM,2024,121.834132003669,12.943779413808
$GNGGA,200109.00,3253.13975366,N,11748.87152038,W,2,11,1.0,7.058,M,-37.037,M,7.0,0135*65
$PYRTM,2024,121.834132003669,12.943779413808
$GNHDT,295.070,T*22
$PYRTM,2024,121.834137737095,12.943785147234
$GNGGA,200109.50,3253.14017695,N,11748.87258166,W,2,11,1.0,7.552,M,-37.037,M,7.4,0135*6B
$PYRTM,2024,121.834137737095,12.943785147234
$GNHDT,295.185,T*29
$PYRTM,2024,121.834143581343,12.943790991481
$GNGGA,200110.00,3253.14061615,N,11748.87365967,W,2,11,1.0,8.027,M,-37.037,M,7.0,0135*65
$PYRTM,2024,121.834143581343,12.943790991481
$GNHDT,295.130,T*27
$PYRTM,2024,121.834149318600,12.943796728738
$GNGGA,200110.50,3253.14111471,N,11748.87481067,W,2,11,1.0,8.223,M,-37.038,M,7.4,0135*6F
$PYRTM,2024,121.834149318600,12.943796728738
$GNHDT,295.409,T*28
$PYRTM,2024,121.834155156389,12.943802566528
$GNGGA,200111.00,3253.14168110,N,11748.87601389,W,2,11,1.0,8.087,M,-37.038,M,4.0,0135*65
$PYRTM,2024,121.834155156389,12.943802566528
$GNHDT,295.451,T*25
$PYRTM,2024,121.834160889433,12.943808299572
$GNGGA,200111.50,3253.14227206,N,11748.87720997,W,2,11,1.0,7.731,M,-37.038,M,4.4,0135*6A
$PYRTM,2024,121.834160889433,12.943808299572
$GNHDT,295.388,T*26
$PYRTM,2024,121.834166726493,12.943814136632
$GNGGA,200112.00,3253.14286376,N,11748.87837100,W,2,11,1.0,7.355,M,-37.038,M,5.0,0135*6D
$PYRTM,2024,121.834166726493,12.943814136632
$GNHDT,295.512,T*23
$PYRTM,2024,121.834172459259,12.943819869398
$GNGGA,200112.50,3253.14343408,N,11748.87946860,W,2,11,1.0,7.106,M,-37.038,M,5.4,0135*66
$PYRTM,2024,121.834172459259,12.943819869398
$GNHDT,295.252,T*20
$PYRTM,2024,121.834178304433,12.943825714572
$GNGGA,200113.00,3253.14397008,N,11748.88051400,W,2,11,1.0,7.089,M,-37.038,M,6.0,0135*64
$PYRTM,2024,121.834178304433,12.943825714572
$GNHDT,295.190,T*2D
$PYRTM,2024,121.834184035891,12.943831446030
$GNGGA,200113.50,3253.14448560,N,11748.88155605,W,2,11,1.0,7.255,M,-37.038,M,6.4,0135*6A
$PYRTM,2024,121.834184035891,12.943831446030
$GNHDT,295.036,T*20
$PYRTM,2024,121.834189874190,12.943837284329
$GNGGA,200114.00,3253.14499706,N,11748.88262317,W,2,11,1.0,7.494,M,-37.038,M,7.0,0135*69
$PYRTM,2024,121.834189874190,12.943837284329
$GNHDT,294.949,T*20
$PYRTM,2024,121.834195610000,12.943843020139
$GNGGA,200114.50,3253.14551900,N,11748.88374691,W,2,11,1.0,7.657,M,-37.038,M,7.4,0135*65
$PYRTM,2024,121.834195610000,12.943843020139
$GNHDT,294.942,T*2B
$PYRTM,2024,121.834201455914,12.943848866053
$GNGGA,200115.00,3253.14606092,N,11748.88488796,W,2,11,1.0,7.697,M,-37.038,M,7.0,0135*68
$PYRTM,2024,121.834201455914,12.943848866053
$GNHDT,295.221,T*24
$PYRTM,2024,121.834207182234,12.943854592373
$GNGGA,200115.50,3253.14660091,N,11748.88604600,W,2,11,1.0,7.641,M,-37.038,M,7.4,0135*69
$PYRTM,2024,121.834207182234,12.943854592373
$GNHDT,295.377,T*26
$PYRTM,2024,121.834213028056,12.943860438194
$GNGGA,200116.00,3253.14713759,N,11748.88718481,W,2,11,1.0,7.525,M,-37.038,M,7.0,0135*6B
$PYRTM,2024,121.834213028056,12.943860438194
$GNHDT,295.590,T*29
$PYRTM,2024,121.834218756817,12.943866166956
$GNGGA,200116.50,3253.14766034,N,11748.88829996,W,2,11,1.0,7.451,M,-37.038,M,7.4,0135*60
$PYRTM,2024,121.834218756817,12.943866166956
$GNHDT,295.420,T*23
$PYRTM,2024,121.834224594225,12.943872004363
$GNGGA,200117.00,3253.14817054,N,11748.88938587,W,2,11,1.0,7.430,M,-37.038,M,4.0,0135*66
$PYRTM,2024,121.834224594225,12.943872004363
$GNHDT,295.331,T*24
$PYRTM,2024,121.834230330174,12.943877740313
$GNGGA,200117.50,3253.14866282,N,11748.89047003,W,2,11,1.0,7.466,M,-37.038,M,4.4,0135*62
$PYRTM,2024,121.834230330174,12.943877740313
$GNHDT,295.295,T*2B
$PYRTM,2024,121.834236172396,12.943883582535
$GNGGA,200118.00,3253.14915722,N,11748.89154257,W,2,11,1.0,7.503,M,-37.038,M,5.0,0135*65
$PYRTM,2024,121.834236172396,12.943883582535
$GNHDT,295.469,T*2E
$PYRTM,2024,121.834241903657,12.943889313808
$GNGGA,200118.50,3253.14966054,N,11748.89262113,W,2,11,1.0,7.532,M,-37.038,M,5.4,0135*61
$PYRTM,2024,121.834241903657,12.943889313808
$GNHDT,295.538,T*2B
$PYRTM,2024,121.834247748542,12.943895158681
$GNGGA,200119.00,3253.15019081,N,11748.89370895,W,2,11,1.0,7.468,M,-37.038,M,6.0,0135*61
$PYRTM,2024,121.834247748542,12.943895158681
$GNHDT,295.613,T*21
$PYRTM,2024,121.834253479502,12.943900889653
$GNGGA,200119.50,3253.15073875,N,11748.89483489,W,2,11,1.0,7.306,M,-37.038,M,6.4,0135*6A
$PYRTM,2024,121.834253479502,12.943900889653
$GNHDT,295.485,T*2C
$PYRTM,2024,121.834259320081,12.943906730220
$GNGGA,200120.00,3253.15128627,N,11748.89599950,W,2,11,1.0,7.061,M,-37.038,M,7.0,0135*67
$PYRTM,2024,121.834259320081,12.943906730220
$GNHDT,295.300,T*26
$PYRTM,2024,121.834265059363,12.943912469514
$GNGGA,200120.50,3253.15180813,N,11748.89719114,W,2,11,1.0,6.850,M,-37.038,M,7.4,0135*64
$PYRTM,2024,121.834265059363,12.943912469514
$GNHDT,295.349,T*2B
$PYRTM,2024,121.834270893958,12.943918304109
$GNGGA,200121.00,3253.15230378,N,11748.89838508,W,2,11,1.0,6.733,M,-37.038,M,7.0,0135*65
$PYRTM,2024,121.834270893958,12.943918304109
$GNHDT,295.152,T*23
$PYRTM,2024,121.834276625556,12.943924035694
$GNGGA,200121.50,3253.15278410,N,11748.89956092,W,2,11,1.0,6.753,M,-37.038,M,7.4,0135*68
$PYRTM,2024,121.834276625556,12.943924035694
$GNHDT,295.112,T*27
$PYRTM,2024,121.834282466296,12.943929876447
$GNGGA,200122.00,3253.15326563,N,11748.90073333,W,2,11,1.0,6.884,M,-37.038,M,7.0,0135*6E
$PYRTM,2024,121.834282466296,12.943929876447
$GNHDT,294.946,T*2F
$PYRTM,2024,121.834288201088,12.943935611227
$GNGGA,200122.50,3253.15377894,N,11748.90190338,W,2,11,1.0,7.074,M,-37.038,M,7.4,0135*6F
$PYRTM,2024,121.834288201088,12.943935611227
$GNHDT,295.063,T*20
$PYRTM,2024,121.834294039537,12.943941449676
$GNGGA,200123.00,3253.15432815,N,11748.90307797,W,2,11,1.0,7.241,M,-37.038,M,4.0,0135*6A
$PYRTM,2024,121.834294039537,12.943941449676
$GNHDT,295.179,T*2A
$PYRTM,2024,121.834299780880,12.943947191019
$GNGGA,200123.50,3253.15490548,N,11748.90424543,W,2,11,1.0,7.377,M,-37.038,M,4.4,0135*6F
$PYRTM,2024,121.834299780880,12.943947191019
$GNHDT,295.026,T*21
$PYRTM,2024,121.834305618762,12.943953028900
$GNGGA,200124.00,3253.15548703,N,11748.90538219,W,2,11,1.0,7.528,M,-37.038,M,5.0,0135*69
$PYRTM,2024,121.834305618762,12.943953028900
$GNHDT,295.077,T*25
$PYRTM,2024,121.834311348275,12.943958758414
$GNGGA,200124.50,3253.15605557,N,11748.90647383,W,2,11,1.0,7.720,M,-37.038,M,5.4,0135*62
$PYRTM,2024,121.834311348275,12.943958758414
$GNHDT,295.045,T*24
$PYRTM,2024,121.834317189144,12.943964599282
$GNGGA,200125.00,3253.15660140,N,11748.90753344,W,2,11,1.0,7.923,M,-37.038,M,6.0,0135*62
$PYRTM,2024,121.834317189144,12.943964599282
$GNHDT,295.149,T*29
$PYRTM,2024,121.834322924491,12.943970334641
$GNGGA,200125.50,3253.15712093,N,11748.90861555,W,2,11,1.0,8.081,M,-37.038,M,6.4,0135*6E
$PYRTM,2024,121.834322924491,12.943970334641
$GNHDT,295.163,T*21
$PYRTM,2024,121.834328763576,12.943976173727
$GNGGA,200126.00,3253.15762924,N,11748.90973765,W,2,11,1.0,8.110,M,-37.038,M,7.0,0135*65
$PYRTM,2024,121.834328763576,12.943976173727
$GNHDT,295.343,T*21
$PYRTM,2024,121.834334499861,12.943981910000
$GNGGA,200126.50,3253.15815006,N,11748.91089275,W,2,11,1.0,7.943,M,-37.038,M,7.4,0135*6A
$PYRTM,2024,121.834334499861,12.943981910000
$GNHDT,295.470,T*26
$PYRTM,2024,121.834340339491,12.943987749630
$GNGGA,200127.00,3253.15867765,N,11748.91205632,W,2,11,1.0,7.630,M,-37.038,M,7.0,0135*67
$PYRTM,2024,121.834340339491,12.943987749630
$GNHDT,295.502,T*22
$PYRTM,2024,121.834346073553,12.943993483692
$GNGGA,200127.50,3253.15919814,N,11748.91320714,W,2,11,1.0,7.315,M,-37.038,M,7.4,0135*66
$PYRTM,2024,121.834346073553,12.943993483692
$GNHDT,295.567,T*21
$PYRTM,2024,121.834351911979,12.943999322118
$GNGGA,200128.00,3253.15969757,N,11748.91433613,W,2,11,1.0,7.061,M,-37.038,M,7.0,0135*64
$PYRTM,2024,121.834351911979,12.943999322118
$GNHDT,295.556,T*23
$PYRTM,2024,121.834357652326,12.944005062465
$GNGGA,200128.50,3253.16019251,N,11748.91544538,W,2,11,1.0,6.962,M,-37.038,M,7.4,0135*6B
$PYRTM,2024,121.834357652326,12.944005062465
$GNHDT,295.701,T*23
$PYRTM,2024,121.834363485231,12.944010895370
$GNGGA,200129.00,3253.16071361,N,11748.91654064,W,2,11,1.0,6.989,M,-37.038,M,4.0,0135*6F
$PYRTM,2024,121.834363485231,12.944010895370
$GNHDT,295.942,T*2A
$PYRTM,2024,121.834369218252,12.944016628391
$GNGGA,200129.50,3253.16127905,N,11748.91762597,W,2,11,1.0,7.093,M,-37.038,M,4.4,0135*6A
$PYRTM,2024,121.834369218252,12.944016628391
$GNHDT,295.940,T*28
$PYRTM,2024,121.834375061690,12.944022471829
$GNGGA,200130.00,3253.16186114,N,11748.91871264,W,2,11,1.0,7.231,M,-37.038,M,5.0,0135*6D
$PYRTM,2024,121.834375061690,12.944022471829
$GNHDT,295.775,T*20
$PYRTM,2024,121.834380797998,12.944028208137
$GNGGA,200130.50,3253.16243976,N,11748.91980592,W,2,11,1.0,7.384,M,-37.038,M,5.4,0135*64
$PYRTM,2024,121.834380797998,12.944028208137
$GNHDT,295.955,T*2C
$PYRTM,2024,121.834386633345,12.944034043484
$GNGGA,200131.00,3253.16298164,N,11748.92092599,W,2,11,1.0,7.536,M,-37.038,M,6.0,0135*67
$PYRTM,2024,121.834386633345,12.944034043484
$GNHDT,295.863,T*28
$PYRTM,2024,121.834392369560,12.944039779699
$GNGGA,200131.50,3253.16349854,N,11748.92205880,W,2,11,1.0,7.615,M,-37.038,M,6.4,0135*6A
$PYRTM,2024,121.834392369560,12.944039779699
$GNHDT,295.619,T*2B
$PYRTM,2024,121.834398208565,12.944045618704
$GNGGA,200132.00,3253.16397980,N,11748.92324196,W,2,11,1.0,7.595,M,-37.038,M,7.0,0135*65
$PYRTM,2024,121.834398208565,12.944045618704
$GNHDT,295.473,T*25
$PYRTM,2024,121.834403943495,12.944051353634
$GNGGA,200132.50,3253.16444751,N,11748.92446102,W,2,11,1.0,7.451,M,-37.038,M,7.4,0135*68
$PYRTM,2024,121.834403943495,12.944051353634
$GNHDT,295.426,T*25
$PYRTM,2024,121.834409787025,12.944057197164
$GNGGA,200133.00,3253.16493866,N,11748.92568425,W,2,11,1.0,7.207,M,-37.038,M,7.0,0135*61
$PYRTM,2024,121.834409787025,12.944057197164
$GNHDT,295.503,T*23
$PYRTM,2024,121.834415516053,12.944062926192
$GNGGA,200133.50,3253.16545355,N,11748.92690528,W,2,11,1.0,6.950,M,-37.038,M,7.4,0135*61
$PYRTM,2024,121.834415516053,12.944062926192
$GNHDT,295.713,T*20
$PYRTM,2024,121.834421355741,12.944068765880
$GNGGA,200134.00,3253.16599517,N,11748.92809001,W,2,11,1.0,6.770,M,-37.038,M,7.0,0135*6A
$PYRTM,2024,121.834421355741,12.944068765880
$GNHDT,295.703,T*21
$PYRTM,2024,121.834427093947,12.944074504086
$GNGGA,200134.50,3253.16655623,N,11748.92920419,W,2,11,1.0,6.769,M,-37.038,M,7.4,0135*63
$PYRTM,2024,121.834427093947,12.944074504086
$GNHDT,295.662,T*27
$PYRTM,2024,121.834432931563,12.944080341701
$GNGGA,200135.00,3253.16712392,N,11748.93026139,W,2,11,1.0,7.026,M,-37.038,M,4.0,0135*69
$PYRTM,2024,121.834432931563,12.944080341701
$GNHDT,295.809,T*24
$PYRTM,2024,121.834438672049,12.944086082188
$GNGGA,200135.50,3253.16768604,N,11748.93130374,W,2,11,1.0,7.438,M,-37.038,M,4.4,0135*69
$PYRTM,2024,121.834438672049,12.944086082188
$GNHDT,295.726,T*26
$PYRTM,2024,121.834444509977,12.944091920116
$GNGGA,200136.00,3253.16823562,N,11748.93237927,W,2,11,1.0,7.888,M,-37.038,M,5.0,0135*66
$PYRTM,2024,121.834444509977,12.944091920116
$GNHDT,295.527,T*25
$PYRTM,2024,121.834450245683,12.944097655822
$GNGGA,200136.50,3253.16878334,N,11748.93351391,W,2,11,1.0,8.216,M,-37.038,M,5.4,0135*68
$PYRTM,2024,121.834450245683,12.944097655822
$GNHDT,295.671,T*25
$PYRTM,2024,121.834456079514,12.944103489653
$GNGGA,200137.00,3253.16932130,N,11748.93470615,W,2,11,1.0,8.323,M,-37.038,M,6.0,0135*68
$PYRTM,2024,121.834456079514,12.944103489653
$GNHDT,295.260,T*21
$PYRTM,2024,121.834461816169,12.944109226308
$GNGGA,200137.50,3253.16984636,N,11748.93590437,W,2,11,1.0,8.238,M,-37.038,M,6.4,0135*63
$PYRTM,2024,121.834461816169,12.944109226308
$GNHDT,295.844,T*2D
$PYRTM,2024,121.834467656505,12.944115066644
$GNGGA,200138.00,3253.17035695,N,11748.93706984,W,2,11,1.0,8.052,M,-37.038,M,7.0,0135*61
$PYRTM,2024,121.834467656505,12.944115066644
$GNHDT,295.855,T*2D
$PYRTM,2024,121.834473385752,12.944120795891
$GNGGA,200138.50,3253.17086441,N,11748.93818567,W,2,11,1.0,7.863,M,-37.038,M,7.4,0135*67
$PYRTM,2024,121.834473385752,12.944120795891
$GNHDT,296.048,T*2A
$PYRTM,2024,121.834479225810,12.944126635949
$GNGGA,200139.00,3253.17137269,N,11748.93925881,W,2,11,1.0,7.734,M,-37.038,M,7.0,0135*67
$PYRTM,2024,121.834479225810,12.944126635949
$GNHDT,295.916,T*2B
$PYRTM,2024,121.834484960799,12.944132370949
$GNGGA,200139.50,3253.17189858,N,11748.94032740,W,2,11,1.0,7.645,M,-37.038,M,7.4,0135*66
$PYRTM,2024,121.834484960799,12.944132370949
$GNHDT,295.906,T*2A
$PYRTM,2024,121.834490798924,12.944138209063
$GNGGA,200140.00,3253.17245396,N,11748.94142782,W,2,11,1.0,7.523,M,-37.038,M,7.0,0135*68
$PYRTM,2024,121.834490798924,12.944138209063
$GNHDT,295.753,T*24
$PYRTM,2024,121.834496543218,12.944143953356
$GNGGA,200140.50,3253.17302292,N,11748.94259286,W,2,11,1.0,7.306,M,-37.038,M,7.4,0135*67
$PYRTM,2024,121.834496543218,12.944143953356
$GNHDT,295.547,T*23
$PYRTM,2024,121.834502373692,12.944149783831
$GNGGA,200141.00,3253.17358874,N,11748.94379984,W,2,11,1.0,7.008,M,-37.038,M,4.0,0135*6E
$PYRTM,2024,121.834502373692,12.944149783831
$GNHDT,295.380,T*2E
$PYRTM,2024,121.834508098021,12.944155508160
$GNGGA,200141.50,3253.17414034,N,11748.94501183,W,2,11,1.0,6.773,M,-37.038,M,4.4,0135*60
$PYRTM,2024,121.834508098021,12.944155508160
$GNHDT,295.208,T*2F
$PYRTM,2024,121.834513934687,12.944161344838
$GNGGA,200142.00,3253.17466944,N,11748.94619014,W,2,11,1.0,6.670,M,-37.038,M,5.0,0135*6F
$PYRTM,2024,121.834513934687,12.944161344838
$GNHDT,295.148,T*28
$PYRTM,2024,121.834519670278,12.944167080417
$GNGGA,200142.50,3253.17519243,N,11748.94733238,W,2,11,1.0,6.782,M,-37.038,M,5.4,0135*62
$PYRTM,2024,121.834519670278,12.944167080417
$GNHDT,295.292,T*2C
$PYRTM,2024,121.834525507361,12.944172917500
$GNGGA,200143.00,3253.17571960,N,11748.94844449,W,2,11,1.0,7.053,M,-37.038,M,6.0,0135*60
$PYRTM,2024,121.834525507361,12.944172917500
$GNHDT,295.527,T*25
$PYRTM,2024,121.834531244850,12.944178654988
$GNGGA,200143.50,3253.17625951,N,11748.94954731,W,2,11,1.0,7.391,M,-37.038,M,6.4,0135*60
$PYRTM,2024,121.834531244850,12.944178654988
$GNHDT,295.689,T*22
$PYRTM,2024,121.834537084942,12.944184495081
$GNGGA,200144.00,3253.17680159,N,11748.95064783,W,2,11,1.0,7.686,M,-37.038,M,7.0,0135*69
$PYRTM,2024,121.834537084942,12.944184495081
$GNHDT,295.745,T*23
$PYRTM,2024,121.834542822060,12.944190232199
$GNGGA,200144.50,3253.17731998,N,11748.95176807,W,2,11,1.0,7.911,M,-37.039,M,7.4,0135*67
$PYRTM,2024,121.834542822060,12.944190232199
$GNHDT,295.545,T*21
$PYRTM,2024,121.834548661111,12.944196071250
$GNGGA,200145.00,3253.17779736,N,11748.95290962,W,2,11,1.0,8.042,M,-37.039,M,7.0,0135*68
$PYRTM,2024,121.834548661111,12.944196071250
$GNHDT,295.573,T*24
$PYRTM,2024,121.834554392118,12.944201802269
$GNGGA,200145.50,3253.17826415,N,11748.95404027,W,2,11,1.0,8.052,M,-37.039,M,7.4,0135*6C
$PYRTM,2024,121.834554392118,12.944201802269
$GNHDT,295.668,T*2D
$PYRTM,2024,121.834560229259,12.944207639410
$GNGGA,200146.00,3253.17872382,N,11748.95517545,W,2,11,1.0,7.950,M,-37.039,M,7.0,0135*60
$PYRTM,2024,121.834560229259,12.944207639410
$GNHDT,295.558,T*2D
$PYRTM,2024,121.834565970023,12.944213380162
$GNGGA,200146.50,3253.17920690,N,11748.95631017,W,2,11,1.0,7.773,M,-37.039,M,7.4,0135*6B
$PYRTM,2024,121.834565970023,12.944213380162
$GNHDT,295.517,T*26
$PYRTM,2024,121.834571803715,12.944219213866
$GNGGA,200147.00,3253.17972344,N,11748.95745875,W,2,11,1.0,7.523,M,-37.039,M,4.0,0135*6A
$PYRTM,2024,121.834571803715,12.944219213866
$GNHDT,295.494,T*2C
$PYRTM,2024,121.834577544444,12.944224954583
$GNGGA,200147.50,3253.18028747,N,11748.95859606,W,2,11,1.0,7.274,M,-37.039,M,4.4,0135*68
$PYRTM,2024,121.834577544444,12.944224954583
$GNHDT,295.786,T*2C
$PYRTM,2024,121.834583378889,12.944230789028
$GNGGA,200148.00,3253.18088009,N,11748.95972244,W,2,11,1.0,7.063,M,-37.039,M,5.0,0135*6E
$PYRTM,2024,121.834583378889,12.944230789028
$GNHDT,295.894,T*20
$PYRTM,2024,121.834589117384,12.944236527523
$GNGGA,200148.50,3253.18148136,N,11748.96084118,W,2,11,1.0,6.963,M,-37.039,M,5.4,0135*6E
$PYRTM,2024,121.834589117384,12.944236527523
$GNHDT,295.620,T*21
$PYRTM,2024,121.834594953241,12.944242363380
$GNGGA,200149.00,3253.18206057,N,11748.96196525,W,2,11,1.0,7.015,M,-37.039,M,6.0,0135*63
$PYRTM,2024,121.834594953241,12.944242363380
$GNHDT,295.621,T*20
$PYRTM,2024,121.834600695961,12.944248106100
$GNGGA,200149.50,3253.18261314,N,11748.96310824,W,2,11,1.0,7.209,M,-37.039,M,6.4,0135*68
$PYRTM,2024,121.834600695961,12.944248106100
$GNHDT,295.455,T*21
$PYRTM,2024,121.834606526181,12.944253936319
$GNGGA,200150.00,3253.18312683,N,11748.96427854,W,2,11,1.0,7.503,M,-37.039,M,7.0,0135*67
$PYRTM,2024,121.834606526181,12.944253936319
$GNHDT,295.137,T*20
$PYRTM,2024,121.834612267060,12.944259677199
$GNGGA,200150.50,3253.18363281,N,11748.96545626,W,2,11,1.0,7.823,M,-37.039,M,7.4,0135*67
$PYRTM,2024,121.834612267060,12.944259677199
$GNHDT,295.269,T*28
$PYRTM,2024,121.834618101736,12.944265511875
$GNGGA,200151.00,3253.18413660,N,11748.96663824,W,2,11,1.0,8.081,M,-37.039,M,7.0,0135*68
$PYRTM,2024,121.834618101736,12.944265511875
$GNHDT,295.178,T*2B
$PYRTM,2024,121.834623840764,12.944271250903
$GNGGA,200151.50,3253.18466346,N,11748.96781796,W,2,11,1.0,8.214,M,-37.039,M,7.4,0135*6F
$PYRTM,2024,121.834623840764,12.944271250903
$GNHDT,295.088,T*25
$PYRTM,2024,121.834629673993,12.944277084132
$GNGGA,200152.00,3253.18521966,N,11748.96899044,W,2,11,1.0,8.226,M,-37.039,M,7.0,0135*68
$PYRTM,2024,121.834629673993,12.944277084132
$GNHDT,295.154,T*25
$PYRTM,2024,121.834635412674,12.944282822813
$GNGGA,200152.50,3253.18579562,N,11748.97012828,W,2,11,1.0,8.132,M,-37.039,M,7.4,0135*62
$PYRTM,2024,121.834635412674,12.944282822813
$GNHDT,295.014,T*20
$PYRTM,2024,121.834641250891,12.944288661030
$GNGGA,200153.00,3253.18636835,N,11748.97122890,W,2,11,1.0,7.993,M,-37.039,M,4.0,0135*6B
$PYRTM,2024,121.834641250891,12.944288661030
$GNHDT,294.930,T*2E
$PYRTM,2024,121.834646988090,12.944294398229
$GNGGA,200153.50,3253.18692450,N,11748.97232260,W,2,11,1.0,7.844,M,-37.039,M,4.4,0135*67
$PYRTM,2024,121.834646988090,12.944294398229
$GNHDT,294.924,T*2B
$PYRTM,2024,121.834652824016,12.944300234155
$GNGGA,200154.00,3253.18746354,N,11748.97343599,W,2,11,1.0,7.677,M,-37.039,M,5.0,0135*63
$PYRTM,2024,121.834652824016,12.944300234155
$GNHDT,294.922,T*2D
$PYRTM,2024,121.834658559317,12.944305969468
$GNGGA,200154.50,3253.18799369,N,11748.97458047,W,2,11,1.0,7.497,M,-37.039,M,5.4,0135*69
$PYRTM,2024,121.834658559317,12.944305969468
$GNHDT,294.904,T*29
$PYRTM,2024,121.834664401042,12.944311811181
$GNGGA,200155.00,3253.18852175,N,11748.97575604,W,2,11,1.0,7.300,M,-37.039,M,6.0,0135*6B
$PYRTM,2024,121.834664401042,12.944311811181
$GNHDT,295.036,T*20
$PYRTM,2024,121.834670141331,12.944317551470
$GNGGA,200155.50,3253.18903993,N,11748.97696762,W,2,11,1.0,7.099,M,-37.039,M,6.4,0135*63
$PYRTM,2024,121.834670141331,12.944317551470
$GNHDT,295.103,T*27
$PYRTM,2024,121.834675971123,12.944323381262
$GNGGA,200156.00,3253.18955227,N,11748.97819693,W,2,11,1.0,6.945,M,-37.039,M,7.0,0135*68
$PYRTM,2024,121.834675971123,12.944323381262
$GNHDT,295.063,T*20
$PYRTM,2024,121.834681709688,12.944329119826
$GNGGA,200156.50,3253.19005706,N,11748.97940916,W,2,11,1.0,6.903,M,-37.039,M,7.4,0135*6F
$PYRTM,2024,121.834681709688,12.944329119826
$GNHDT,295.261,T*20
$PYRTM,2024,121.834687550208,12.944334960347
$GNGGA,200157.00,3253.19055207,N,11748.98059235,W,2,11,1.0,7.028,M,-37.039,M,7.0,0135*6B
$PYRTM,2024,121.834687550208,12.944334960347
$GNHDT,295.351,T*22
$PYRTM,2024,121.834693284398,12.944340694537
$GNGGA,200157.50,3253.19104151,N,11748.98173351,W,2,11,1.0,7.285,M,-37.039,M,7.4,0135*60
$PYRTM,2024,121.834693284398,12.944340694537
$GNHDT,295.247,T*24
$PYRTM,2024,121.834699122303,12.944346532442
$GNGGA,200158.00,3253.19153593,N,11748.98284143,W,2,11,1.0,7.629,M,-37.039,M,7.0,0135*6E
$PYRTM,2024,121.834699122303,12.944346532442
$GNHDT,295.098,T*24
$PYRTM,2024,121.834704859363,12.944352269502
$GNGGA,200158.50,3253.19205458,N,11748.98394702,W,2,11,1.0,7.930,M,-37.039,M,7.4,0135*6D
$PYRTM,2024,121.834704859363,12.944352269502
$GNHDT,295.268,T*29
$PYRTM,2024,121.834710697500,12.944358107639
$GNGGA,200159.00,3253.19260471,N,11748.98508670,W,2,11,1.0,8.043,M,-37.039,M,4.0,0135*63
$PYRTM,2024,121.834710697500,12.944358107639
$GNHDT,295.205,T*22
$PYRTM,2024,121.834716434560,12.944363844699
$GNGGA,200159.50,3253.19317297,N,11748.98627656,W,2,11,1.0,7.917,M,-37.039,M,4.4,0135*60
$PYRTM,2024,121.834716434560,12.944363844699
$GNHDT,295.130,T*27
$PYRTM,2024,121.834722276238,12.944369686377
$GNGGA,200200.00,3253.19373865,N,11748.98750849,W,2,11,1.0,7.609,M,-37.039,M,5.0,0135*6B
$PYRTM,2024,121.834722276238,12.944369686377
$GNHDT,294.890,T*25
$PYRTM,2024,121.834728006574,12.944375416713
$GNGGA,200200.50,3253.19427252,N,11748.98873121,W,2,11,1.0,7.287,M,-37.039,M,5.4,0135*69
$PYRTM,2024,121.834728006574,12.944375416713
$GNHDT,294.970,T*2A
$PYRTM,2024,121.834733840972,12.944381251111
$GNGGA,200201.00,3253.19475767,N,11748.98991150,W,2,11,1.0,7.098,M,-37.039,M,6.0,0135*69
$PYRTM,2024,121.834733840972,12.944381251111
$GNHDT,294.737,T*27
$PYRTM,2024,121.834739579757,12.944386989907
$GNGGA,200201.50,3253.19520527,N,11748.99103526,W,2,11,1.0,7.163,M,-37.039,M,6.4,0135*6D
$PYRTM,2024,121.834739579757,12.944386989907
$GNHDT,294.693,T*28
$PYRTM,2024,121.834745417303,12.944392827442
$GNGGA,200202.00,3253.19565041,N,11748.99211533,W,2,11,1.0,7.418,M,-37.039,M,7.0,0135*67
$PYRTM,2024,121.834745417303,12.944392827442
$GNHDT,294.976,T*2C
$PYRTM,2024,121.834751151157,12.944398561308
$GNGGA,200202.50,3253.19613889,N,11748.99318357,W,2,11,1.0,7.747,M,-37.039,M,7.4,0135*6D
$PYRTM,2024,121.834751151157,12.944398561308
$GNHDT,295.056,T*26
$PYRTM,2024,121.834756991759,12.944404401898
$GNGGA,200203.00,3253.19669276,N,11748.99426649,W,2,11,1.0,8.003,M,-37.039,M,7.0,0135*62
$PYRTM,2024,121.834756991759,12.944404401898
$GNHDT,295.166,T*24
$PYRTM,2024,121.834762728738,12.944410138877
$GNGGA,200203.50,3253.19730458,N,11748.99539186,W,2,11,1.0,8.051,M,-37.039,M,7.4,0135*68
$PYRTM,2024,121.834762728738,12.944410138877
$GNHDT,295.417,T*27
$PYRTM,2024,121.834768566771,12.944415976910
$GNGGA,200204.00,3253.19792587,N,11748.99656573,W,2,11,1.0,7.893,M,-37.039,M,7.0,0135*68
$PYRTM,2024,121.834768566771,12.944415976910
$GNHDT,295.579,T*2E
$PYRTM,2024,121.834774301759,12.944421711898
$GNGGA,200204.50,3253.19852247,N,11748.99775577,W,2,11,1.0,7.616,M,-37.039,M,7.4,0135*66
$PYRTM,2024,121.834774301759,12.944421711898
$GNHDT,295.223,T*26
$PYRTM,2024,121.834780136782,12.944427546921
$GNGGA,200205.00,3253.19906653,N,11748.99893571,W,2,11,1.0,7.402,M,-37.039,M,4.0,0135*62
$PYRTM,2024,121.834780136782,12.944427546921
$GNHDT,295.195,T*28
$PYRTM,2024,121.834785876574,12.944433286725
$GNGGA,200205.50,3253.19956013,N,11749.00006209,W,2,11,1.0,7.360,M,-37.039,M,4.4,0135*6A
$PYRTM,2024,121.834785876574,12.944433286725
$GNHDT,295.383,T*2D
$PYRTM,2024,121.834791716539,12.944439126678
$GNGGA,200206.00,3253.20001244,N,11749.00116402,W,2,11,1.0,7.495,M,-37.039,M,5.0,0135*68
$PYRTM,2024,121.834791716539,12.944439126678
$GNHDT,295.540,T*24
$PYRTM,2024,121.834797446690,12.944444856829
$GNGGA,200206.50,3253.20046970,N,11749.00226392,W,2,11,1.0,7.697,M,-37.039,M,5.4,0135*68
$PYRTM,2024,121.834797446690,12.944444856829
$GNHDT,295.743,T*25
$PYRTM,2024,121.834803285301,12.944450695451
$GNGGA,200207.00,3253.20094842,N,11749.00341856,W,2,11,1.0,7.835,M,-37.039,M,6.0,0135*61
$PYRTM,2024,121.834803285301,12.944450695451
$GNHDT,295.697,T*2D
$PYRTM,2024,121.834809023461,12.944456433600
$GNGGA,200207.50,3253.20147067,N,11749.00459932,W,2,11,1.0,7.801,M,-37.039,M,6.4,0135*6A
$PYRTM,2024,121.834809023461,12.944456433600
$GNHDT,295.689,T*22
$PYRTM,2024,121.834814863264,12.944462273403
$GNGGA,200208.00,3253.20202205,N,11749.00577307,W,2,11,1.0,7.648,M,-37.039,M,7.0,0135*63
$PYRTM,2024,121.834814863264,12.944462273403
$GNHDT,295.638,T*28
$PYRTM,2024,121.834820595394,12.944468005532
$GNGGA,200208.50,3253.20258241,N,11749.00691966,W,2,11,1.0,7.481,M,-37.039,M,7.4,0135*6C
$PYRTM,2024,121.834820595394,12.944468005532
$GNHDT,295.793,T*28
$PYRTM,2024,121.834826434167,12.944473844306
$GNGGA,200209.00,3253.20314358,N,11749.00804654,W,2,11,1.0,7.366,M,-37.039,M,7.0,0135*6E
$PYRTM,2024,121.834826434167,12.944473844306
$GNHDT,295.939,T*26
$PYRTM,2024,121.834832171157,12.944479581296
$GNGGA,200209.50,3253.20370782,N,11749.00916354,W,2,11,1.0,7.330,M,-37.039,M,7.4,0135*6A
$PYRTM,2024,121.834832171157,12.944479581296
$GNHDT,295.735,T*24
$PYRTM,2024,121.834838007431,12.944485417581
$GNGGA,200210.00,3253.20427551,N,11749.01028387,W,2,11,1.0,7.323,M,-37.039,M,7.0,0135*63
$PYRTM,2024,121.834838007431,12.944485417581
$GNHDT,295.638,T*28
$PYRTM,2024,121.834843748056,12.944491158206
$GNGGA,200210.50,3253.20481582,N,11749.01145299,W,2,11,1.0,7.320,M,-37.039,M,7.4,0135*67
$PYRTM,2024,121.834843748056,12.944491158206
$GNHDT,295.421,T*22
$PYRTM,2024,121.834849583495,12.944496993634
$GNGGA,200211.00,3253.20532684,N,11749.01265128,W,2,11,1.0,7.319,M,-37.039,M,4.0,0135*6A
$PYRTM,2024,121.834849583495,12.944496993634
$GNHDT,295.374,T*25
$PYRTM,2024,121.834855320347,12.944502730486
$GNGGA,200211.50,3253.20582748,N,11749.01383438,W,2,11,1.0,7.394,M,-37.039,M,4.4,0135*69
$PYRTM,2024,121.834855320347,12.944502730486
$GNHDT,295.518,T*29
$PYRTM,2024,121.834861160718,12.944508570856
$GNGGA,200212.00,3253.20633480,N,11749.01497526,W,2,11,1.0,7.541,M,-37.039,M,5.0,0135*66
$PYRTM,2024,121.834861160718,12.944508570856
$GNHDT,295.676,T*22
$PYRTM,2024,121.834866895440,12.944514305579
$GNGGA,200212.50,3253.20686845,N,11749.01607125,W,2,11,1.0,7.748,M,-37.039,M,5.4,0135*6B
$PYRTM,2024,121.834866895440,12.944514305579
$GNHDT,295.724,T*24
$PYRTM,2024,121.834872729433,12.944520139572
$GNGGA,200213.00,3253.20741910,N,11749.01714891,W,2,11,1.0,7.947,M,-37.039,M,6.0,0135*67
$PYRTM,2024,121.834872729433,12.944520139572
$GNHDT,295.610,T*22
$PYRTM,2024,121.834878466551,12.944525876690
$GNGGA,200213.50,3253.20798076,N,11749.01823768,W,2,11,1.0,8.062,M,-37.039,M,6.4,0135*68
$PYRTM,2024,121.834878466551,12.944525876690
$GNHDT,295.656,T*20
$PYRTM,2024,121.834884308472,12.944531718611
$GNGGA,200214.00,3253.20853701,N,11749.01936752,W,2,11,1.0,8.038,M,-37.039,M,7.0,0135*63
$PYRTM,2024,121.834884308472,12.944531718611
$GNHDT,295.591,T*28
$PYRTM,2024,121.834890039549,12.944537449699
$GNGGA,200214.50,3253.20908799,N,11749.02052568,W,2,11,1.0,7.864,M,-37.039,M,7.4,0135*61
$PYRTM,2024,121.834890039549,12.944537449699
$GNHDT,295.563,T*25
$PYRTM,2024,121.834895879352,12.944543289491
$GNGGA,200215.00,3253.20962209,N,11749.02169871,W,2,11,1.0,7.585,M,-37.039,M,7.0,0135*6F
$PYRTM,2024,121.834895879352,12.944543289491
$GNHDT,295.541,T*25
$PYRTM,2024,121.834901617836,12.944549027975
$GNGGA,200215.50,3253.21014448,N,11749.02286901,W,2,11,1.0,7.289,M,-37.039,M,7.4,0135*6B
$PYRTM,2024,121.834901617836,12.944549027975
$GNHDT,295.337,T*22
$PYRTM,2024,121.834907454676,12.944554864815
$GNGGA,200216.00,3253.21065703,N,11749.02404087,W,2,11,1.0,7.049,M,-37.039,M,7.0,0135*66
$PYRTM,2024,121.834907454676,12.944554864815
$GNHDT,295.194,T*29
$PYRTM,2024,121.834913190081,12.944560600220
$GNGGA,200216.50,3253.21116212,N,11749.02521078,W,2,11,1.0,6.928,M,-37.039,M,7.4,0135*6E
$PYRTM,2024,121.834913190081,12.944560600220
$GNHDT,295.254,T*26
$PYRTM,2024,121.834919026377,12.944566436516
$GNGGA,200217.00,3253.21166673,N,11749.02635888,W,2,11,1.0,6.961,M,-37.039,M,4.0,0135*65
$PYRTM,2024,121.834919026377,12.944566436516
$GNHDT,295.297,T*29
$PYRTM,2024,121.834924765058,12.944572175197
$GNGGA,200217.50,3253.21216742,N,11749.02749036,W,2,11,1.0,7.127,M,-37.039,M,4.4,0135*6F
$PYRTM,2024,121.834924765058,12.944572175197
$GNHDT,295.456,T*22
$PYRTM,2024,121.834930606644,12.944578016782
$GNGGA,200218.00,3253.21266294,N,11749.02862511,W,2,11,1.0,7.376,M,-37.039,M,5.0,0135*69
$PYRTM,2024,121.834930606644,12.944578016782
$GNHDT,295.381,T*2F
$PYRTM,2024,121.834936341516,12.944583751655
$GNGGA,200218.50,3253.21317378,N,11749.02978418,W,2,11,1.0,7.581,M,-37.039,M,5.4,0135*60
$PYRTM,2024,121.834936341516,12.944583751655
$GNHDT,295.271,T*21
$PYRTM,2024,121.834942178009,12.944589588148
$GNGGA,200219.00,3253.21370933,N,11749.03096999,W,2,11,1.0,7.668,M,-37.039,M,6.0,0135*6F
$PYRTM,2024,121.834942178009,12.944589588148
$GNHDT,295.196,T*2B
$PYRTM,2024,121.834947913611,12.944595323750
$GNGGA,200219.50,3253.21426181,N,11749.03217094,W,2,11,1.0,7.625,M,-37.039,M,6.4,0135*6D
$PYRTM,2024,121.834947913611,12.944595323750
$GNHDT,295.238,T*2C
$PYRTM,2024,121.834953750590,12.944601160729
$GNGGA,200220.00,3253.21478851,N,11749.03337995,W,2,11,1.0,7.504,M,-37.040,M,7.0,0135*6D
$PYRTM,2024,121.834953750590,12.944601160729
$GNHDT,295.118,T*2D
$PYRTM,2024,121.834959488449,12.944606898588
$GNGGA,200220.50,3253.21528978,N,11749.03457919,W,2,11,1.0,7.388,M,-37.040,M,7.4,0135*65
$PYRTM,2024,121.834959488449,12.944606898588
$GNHDT,294.784,T*2F
$PYRTM,2024,121.834965325856,12.944612736007
$GNGGA,200221.00,3253.21577896,N,11749.03576644,W,2,11,1.0,7.323,M,-37.040,M,7.0,0135*6A
$PYRTM,2024,121.834965325856,12.944612736007
$GNHDT,294.749,T*2E
$PYRTM,2024,121.834971058669,12.944618468808
$GNGGA,200221.50,3253.21627323,N,11749.03693257,W,2,11,1.0,7.332,M,-37.040,M,7.4,0135*66
$PYRTM,2024,121.834971058669,12.944618468808
$GNHDT,294.720,T*21
$PYRTM,2024,121.834976896817,12.944624306956
$GNGGA,200222.00,3253.21677643,N,11749.03807759,W,2,11,1.0,7.419,M,-37.040,M,7.0,0135*64
$PYRTM,2024,121.834976896817,12.944624306956
$GNHDT,294.699,T*22
$PYRTM,2024,121.834982633843,12.944630043981
$GNGGA,200222.50,3253.21729486,N,11749.03920014,W,2,11,1.0,7.602,M,-37.040,M,7.4,0135*66
$PYRTM,2024,121.834982633843,12.944630043981
$GNHDT,294.801,T*2D
$PYRTM,2024,121.834988470509,12.944635880648
$GNGGA,200223.00,3253.21781939,N,11749.04030539,W,2,11,1.0,7.839,M,-37.040,M,4.0,0135*6D
$PYRTM,2024,121.834988470509,12.944635880648
$GNHDT,294.797,T*2D
$PYRTM,2024,121.834994209850,12.944641619988
$GNGGA,200223.50,3253.21835255,N,11749.04141047,W,2,11,1.0,8.051,M,-37.040,M,4.4,0135*6F
$PYRTM,2024,121.834994209850,12.944641619988
$GNHDT,294.504,T*25
$PYRTM,2024,121.835000047616,12.944647457755
$GNGGA,200224.00,3253.21888505,N,11749.04255604,W,2,11,1.0,8.163,M,-37.040,M,5.0,0135*6B
$PYRTM,2024,121.835000047616,12.944647457755
$GNHDT,294.464,T*22
$PYRTM,2024,121.835005784306,12.944653194444
$GNGGA,200224.50,3253.21941904,N,11749.04375475,W,2,11,1.0,8.110,M,-37.040,M,5.4,0135*60
$PYRTM,2024,121.835005784306,12.944653194444
$GNHDT,294.462,T*24
$PYRTM,2024,121.835011617431,12.944659027569
$GNGGA,200225.00,3253.21994932,N,11749.04498379,W,2,11,1.0,7.926,M,-37.040,M,6.0,0135*63
$PYRTM,2024,121.835011617431,12.944659027569
$GNHDT,294.527,T*24
$PYRTM,2024,121.835017358924,12.944664769063
$GNGGA,200225.50,3253.22047866,N,11749.04619468,W,2,11,1.0,7.719,M,-37.040,M,6.4,0135*68
$PYRTM,2024,121.835017358924,12.944664769063
$GNHDT,294.869,T*23
$PYRTM,2024,121.835023192326,12.944670602465
$GNGGA,200226.00,3253.22100386,N,11749.04736270,W,2,11,1.0,7.556,M,-37.040,M,7.0,0135*66
$PYRTM,2024,121.835023192326,12.944670602465
$GNHDT,294.879,T*22
$PYRTM,2024,121.835028928194,12.944676338345
$GNGGA,200226.50,3253.22153825,N,11749.04849567,W,2,11,1.0,7.500,M,-37.040,M,7.4,0135*66
$PYRTM,2024,121.835028928194,12.944676338345
$GNHDT,295.454,T*20
$PYRTM,2024,121.835034767315,12.944682177454
$GNGGA,200227.00,3253.22208405,N,11749.04961740,W,2,11,1.0,7.533,M,-37.040,M,7.0,0135*69
$PYRTM,2024,121.835034767315,12.944682177454
$GNHDT,295.654,T*22
$PYRTM,2024,121.835040503067,12.944687913206
$GNGGA,200227.50,3253.22263499,N,11749.05074632,W,2,11,1.0,7.619,M,-37.040,M,7.4,0135*63
$PYRTM,2024,121.835040503067,12.944687913206
$GNHDT,295.650,T*26
$PYRTM,2024,121.835046342917,12.944693753056
$GNGGA,200228.00,3253.22318043,N,11749.05187728,W,2,11,1.0,7.743,M,-37.040,M,7.0,0135*6A
$PYRTM,2024,121.835046342917,12.944693753056
$GNHDT,295.694,T*2E
$PYRTM,2024,121.835052081366,12.944699491505
$GNGGA,200228.50,3253.22371723,N,11749.05302331,W,2,11,1.0,7.853,M,-37.040,M,7.4,0135*68
$PYRTM,2024,121.835052081366,12.944699491505
$GNHDT,295.587,T*2F
$PYRTM,2024,121.835057914861,12.944705325000
