$PYRTM,2024,123.583333673438,14.692981083576
$GNGGA,140000.00,3420.57924491,N,12049.04426959,W,2,13,0.9,7.741,M,-37.584,M,5.0,0135*6F
$PYRTM,2024,123.583333673438,14.692981083576
$GNHDT,308.520,T*27
$PYRTM,2024,123.583339382431,14.692986792581
$GNGGA,140000.50,3420.57979516,N,12049.04492863,W,2,13,0.9,6.877,M,-37.584,M,5.4,0135*64
$PYRTM,2024,123.583339382431,14.692986792581
$GNHDT,308.587,T*2A
$PYRTM,2024,123.583345231181,14.692992641319
$GNGGA,140001.00,3420.58025391,N,12049.04558827,W,2,13,0.9,6.147,M,-37.584,M,6.0,0135*6C
$PYRTM,2024,123.583345231181,14.692992641319
$GNHDT,308.042,T*26
$PYRTM,2024,123.583350953426,14.692998363565
$GNGGA,140001.50,3420.58056459,N,12049.04621345,W,2,13,0.9,5.946,M,-37.584,M,6.4,0135*62
$PYRTM,2024,123.583350953426,14.692998363565
$GNHDT,308.048,T*2C
$PYRTM,2024,123.583356808727,14.693004218866
$GNGGA,140002.00,3420.58075277,N,12049.04679317,W,2,13,0.9,6.370,M,-37.584,M,7.0,0135*6C
$PYRTM,2024,123.583356808727,14.693004218866
$GNHDT,308.304,T*27
$PYRTM,2024,123.583362548102,14.693009958241
$GNGGA,140002.50,3420.58089823,N,12049.04731570,W,2,13,0.9,7.088,M,-37.584,M,7.4,0135*6A
$PYRTM,2024,123.583362548102,14.693009958241
$GNHDT,308.199,T*21
$PYRTM,2024,123.583368380718,14.693015790856
$GNGGA,140003.00,3420.58109155,N,12049.04784602,W,2,13,0.9,7.795,M,-37.584,M,7.0,0135*68
$PYRTM,2024,123.583368380718,14.693015790856
$GNHDT,308.693,T*2C
$PYRTM,2024,123.583374102257,14.693021512396
$GNGGA,140003.50,3420.58140677,N,12049.04843448,W,2,13,0.9,8.199,M,-37.584,M,7.4,0135*6E
$PYRTM,2024,123.583374102257,14.693021512396
$GNHDT,308.398,T*22
$PYRTM,2024,123.583379947778,14.693027357928
$GNGGA,140004.00,3420.58182842,N,12049.04908964,W,2,13,0.9,8.164,M,-37.584,M,7.0,0135*61
$PYRTM,2024,123.583379947778,14.693027357928
$GNHDT,308.559,T*29
$PYRTM,2024,123.583385682894,14.693033093032
$GNGGA,140004.50,3420.58227944,N,12049.04976462,W,2,13,0.9,7.840,M,-37.584,M,7.4,0135*69
$PYRTM,2024,123.583385682894,14.693033093032
$GNHDT,307.936,T*23
$PYRTM,2024,123.583391526100,14.693038936238
$GNGGA,140005.00,3420.58270793,N,12049.05041661,W,2,13,0.9,7.349,M,-37.584,M,4.0,0135*63
$PYRTM,2024,123.583391526100,14.693038936238
$GNHDT,307.774,T*2B
$PYRTM,2024,123.583397250405,14.693044660544
$GNGGA,140005.50,3420.58308775,N,12049.05100849,W,2,13,0.9,6.965,M,-37.584,M,4.4,0135*61
$PYRTM,2024,123.583397250405,14.693044660544
$GNHDT,307.924,T*20
$PYRTM,2024,123.583403095405,14.693050505544
$GNGGA,140006.00,3420.58342566,N,12049.05154990,W,2,13,0.9,6.743,M,-37.584,M,5.0,0135*62
$PYRTM,2024,123.583403095405,14.693050505544
$GNHDT,308.254,T*23
$PYRTM,2024,123.583408826354,14.693056236493
$GNGGA,140006.50,3420.58375737,N,12049.05204992,W,2,13,0.9,6.689,M,-37.584,M,5.4,0135*62
$PYRTM,2024,123.583408826354,14.693056236493
$GNHDT,308.856,T*2B
$PYRTM,2024,123.583414676296,14.693062086435
$GNGGA,140007.00,3420.58411701,N,12049.05255446,W,2,13,0.9,6.731,M,-37.584,M,6.0,0135*63
$PYRTM,2024,123.583414676296,14.693062086435
$GNHDT,309.308,T*2A
$PYRTM,2024,123.583420401030,14.693067811169
$GNGGA,140007.50,3420.58452307,N,12049.05311638,W,2,13,0.9,6.765,M,-37.584,M,6.4,0135*6C
$PYRTM,2024,123.583420401030,14.693067811169
$GNHDT,309.203,T*20
$PYRTM,2024,123.583426247419,14.693073657558
$GNGGA,140008.00,3420.58495268,N,12049.05374264,W,2,13,0.9,6.787,M,-37.584,M,7.0,0135*62
$PYRTM,2024,123.583426247419,14.693073657558
$GNHDT,309.148,T*2C
$PYRTM,2024,123.583431973275,14.693079383414
$GNGGA,140008.50,3420.58535936,N,12049.05440020,W,2,13,0.9,6.849,M,-37.584,M,7.4,0135*67
$PYRTM,2024,123.583431973275,14.693079383414
$GNHDT,309.171,T*26
$PYRTM,2024,123.583437818484,14.693085228623
$GNGGA,140009.00,3420.58570741,N,12049.05506529,W,2,13,0.9,7.019,M,-37.584,M,7.0,0135*6B
$PYRTM,2024,123.583437818484,14.693085228623
$GNHDT,308.819,T*20
$PYRTM,2024,123.583443549363,14.693090959502
$GNGGA,140009.50,3420.58600413,N,12049.05572390,W,2,13,0.9,7.298,M,-37.584,M,7.4,0135*66
$PYRTM,2024,123.583443549363,14.693090959502
$GNHDT,308.579,T*2B
$PYRTM,2024,123.583449394583,14.693096804722
$GNGGA,140010.00,3420.58629749,N,12049.05635650,W,2,13,0.9,7.585,M,-37.584,M,7.0,0135*6A
$PYRTM,2024,123.583449394583,14.693096804722
$GNHDT,308.570,T*22
$PYRTM,2024,123.583455127072,14.693102537211
$GNGGA,140010.50,3420.58664660,N,12049.05694202,W,2,13,0.9,7.814,M,-37.584,M,7.4,0135*65
$PYRTM,2024,123.583455127072,14.693102537211
$GNHDT,308.747,T*24
$PYRTM,2024,123.583460963183,14.693108373322
$GNGGA,140011.00,3420.58704946,N,12049.05748995,W,2,13,0.9,7.894,M,-37.584,M,4.0,0135*67
$PYRTM,2024,123.583460963183,14.693108373322
$GNHDT,308.655,T*26
$PYRTM,2024,123.583466701053,14.693114111192
$GNGGA,140011.50,3420.58748145,N,12049.05803229,W,2,13,0.9,7.805,M,-37.584,M,4.4,0135*61
$PYRTM,2024,123.583466701053,14.693114111192
$GNHDT,308.773,T*23
$PYRTM,2024,123.583472536759,14.693119946898
$GNGGA,140012.00,3420.58791752,N,12049.05858093,W,2,13,0.9,7.555,M,-37.584,M,5.0,0135*63
$PYRTM,2024,123.583472536759,14.693119946898
$GNHDT,308.560,T*23
$PYRTM,2024,123.583478272616,14.693125682766
$GNGGA,140012.50,3420.58833110,N,12049.05914844,W,2,13,0.9,7.233,M,-37.584,M,5.4,0135*69
$PYRTM,2024,123.583478272616,14.693125682766
$GNHDT,308.393,T*29
$PYRTM,2024,123.583484113472,14.693131523611
$GNGGA,140013.00,3420.58870829,N,12049.05975805,W,2,13,0.9,6.889,M,-37.584,M,6.0,0135*66
$PYRTM,2024,123.583484113472,14.693131523611
$GNHDT,308.312,T*20
$PYRTM,2024,123.583489848461,14.693137258600
$GNGGA,140013.50,3420.58905393,N,12049.06043176,W,2,13,0.9,6.608,M,-37.584,M,6.4,0135*6B
$PYRTM,2024,123.583489848461,14.693137258600
$GNHDT,308.260,T*24
$PYRTM,2024,123.583495689977,14.693143100116
$GNGGA,140014.00,3420.58939450,N,12049.06118112,W,2,13,0.9,6.394,M,-37.584,M,7.0,0135*66
$PYRTM,2024,123.583495689977,14.693143100116
$GNHDT,308.023,T*21
$PYRTM,2024,123.583501416782,14.693148826921
$GNGGA,140014.50,3420.58975808,N,12049.06199040,W,2,13,0.9,6.210,M,-37.584,M,7.4,0135*6C
$PYRTM,2024,123.583501416782,14.693148826921
$GNHDT,307.719,T*20
$PYRTM,2024,123.583507272326,14.693154682465
$GNGGA,140015.00,3420.59014798,N,12049.06280399,W,2,13,0.9,6.117,M,-37.584,M,7.0,0135*6D
$PYRTM,2024,123.583507272326,14.693154682465
$GNHDT,307.713,T*2A
$PYRTM,2024,123.583512997650,14.693160407789
$GNGGA,140015.50,3420.59053532,N,12049.06351286,W,2,13,0.9,6.276,M,-37.584,M,7.4,0135*6B
$PYRTM,2024,123.583512997650,14.693160407789
$GNHDT,307.793,T*22
$PYRTM,2024,123.583518842731,14.693166252870
$GNGGA,140016.00,3420.59090085,N,12049.06406853,W,2,13,0.9,6.811,M,-37.584,M,7.0,0135*63
$PYRTM,2024,123.583518842731,14.693166252870
$GNHDT,307.461,T*2C
$PYRTM,2024,123.583524570266,14.693171980405
$GNGGA,140016.50,3420.59124653,N,12049.06452159,W,2,13,0.9,7.508,M,-37.584,M,7.4,0135*67
$PYRTM,2024,123.583524570266,14.693171980405
$GNHDT,307.509,T*23
$PYRTM,2024,123.583530412269,14.693177822407
$GNGGA,140017.00,3420.59158968,N,12049.06495582,W,2,13,0.9,8.241,M,-37.584,M,4.0,0135*64
$PYRTM,2024,123.583530412269,14.693177822407
$GNHDT,307.192,T*25
$PYRTM,2024,123.583536140324,14.693183550463
$GNGGA,140017.50,3420.59196347,N,12049.06546095,W,2,13,0.9,8.680,M,-37.584,M,4.4,0135*65
$PYRTM,2024,123.583536140324,14.693183550463
$GNHDT,306.956,T*24
$PYRTM,2024,123.583541991701,14.693189401852
$GNGGA,140018.00,3420.59237126,N,12049.06608274,W,2,13,0.9,8.614,M,-37.584,M,5.0,0135*6E
$PYRTM,2024,123.583541991701,14.693189401852
$GNHDT,307.075,T*2D
$PYRTM,2024,123.583547729595,14.693195139734
$GNGGA,140018.50,3420.59278224,N,12049.06679369,W,2,13,0.9,8.096,M,-37.584,M,5.4,0135*62
$PYRTM,2024,123.583547729595,14.693195139734
$GNHDT,307.238,T*26
$PYRTM,2024,123.583553562639,14.693200972778
$GNGGA,140019.00,3420.59316780,N,12049.06754450,W,2,13,0.9,7.307,M,-37.584,M,6.0,0135*64
$PYRTM,2024,123.583553562639,14.693200972778
$GNHDT,306.913,T*25
$PYRTM,2024,123.583559295509,14.693206705648
$GNGGA,140019.50,3420.59351439,N,12049.06830504,W,2,13,0.9,6.475,M,-37.584,M,6.4,0135*69
$PYRTM,2024,123.583559295509,14.693206705648
$GNHDT,307.347,T*2F
$PYRTM,2024,123.583565135498,14.693212545637
$GNGGA,140020.00,3420.59380947,N,12049.06906054,W,2,13,0.9,5.880,M,-37.584,M,7.0,0135*6A
$PYRTM,2024,123.583565135498,14.693212545637
$GNHDT,306.793,T*23
$PYRTM,2024,123.583570869190,14.693218279340
$GNGGA,140020.50,3420.59405518,N,12049.06979079,W,2,13,0.9,5.728,M,-37.584,M,7.4,0135*6D
$PYRTM,2024,123.583570869190,14.693218279340
$GNHDT,306.642,T*2E
$PYRTM,2024,123.583576719745,14.693224129884
$GNGGA,140021.00,3420.59428404,N,12049.07044179,W,2,13,0.9,6.058,M,-37.584,M,7.0,0135*6A
$PYRTM,2024,123.583576719745,14.693224129884
$GNHDT,306.616,T*2F
$PYRTM,2024,123.583582454688,14.693229864826
$GNGGA,140021.50,3420.59453156,N,12049.07098777,W,2,13,0.9,6.687,M,-37.584,M,7.4,0135*68
$PYRTM,2024,123.583582454688,14.693229864826
$GNHDT,305.774,T*29
$PYRTM,2024,123.583588284109,14.693235694248
$GNGGA,140022.00,3420.59484117,N,12049.07147249,W,2,13,0.9,7.405,M,-37.584,M,7.0,0135*67
$PYRTM,2024,123.583588284109,14.693235694248
$GNHDT,305.562,T*2C
$PYRTM,2024,123.583594014873,14.693241425023
$GNGGA,140022.50,3420.59522874,N,12049.07197163,W,2,13,0.9,7.981,M,-37.584,M,7.4,0135*60
$PYRTM,2024,123.583594014873,14.693241425023
$GNHDT,305.551,T*2C
$PYRTM,2024,123.583599858333,14.693247268472
$GNGGA,140023.00,3420.59568593,N,12049.07255206,W,2,13,0.9,8.245,M,-37.584,M,4.0,0135*68
$PYRTM,2024,123.583599858333,14.693247268472
$GNHDT,305.359,T*22
$PYRTM,2024,123.583605594873,14.693253005012
$GNGGA,140023.50,3420.59614639,N,12049.07323537,W,2,13,0.9,8.054,M,-37.584,M,4.4,0135*65
$PYRTM,2024,123.583605594873,14.693253005012
$GNHDT,306.055,T*2E
$PYRTM,2024,123.583611425370,14.693258835509
$GNGGA,140024.00,3420.59655968,N,12049.07400293,W,2,13,0.9,7.534,M,-37.584,M,5.0,0135*6F
$PYRTM,2024,123.583611425370,14.693258835509
$GNHDT,305.956,T*27
$PYRTM,2024,123.583617172153,14.693264582292
$GNGGA,140024.50,3420.59690358,N,12049.07479353,W,2,13,0.9,6.929,M,-37.584,M,5.4,0135*6C
$PYRTM,2024,123.583617172153,14.693264582292
$GNHDT,305.381,T*27
$PYRTM,2024,123.583623009444,14.693270419595
$GNGGA,140025.00,3420.59718375,N,12049.07554190,W,2,13,0.9,6.420,M,-37.584,M,6.0,0135*66
$PYRTM,2024,123.583623009444,14.693270419595
$GNHDT,305.496,T*26
$PYRTM,2024,123.583628732836,14.693276142975
$GNGGA,140025.50,3420.59741434,N,12049.07617557,W,2,13,0.9,6.256,M,-37.584,M,6.4,0135*65
$PYRTM,2024,123.583628732836,14.693276142975
$GNHDT,306.398,T*2C
$PYRTM,2024,123.583634582662,14.693281992801
$GNGGA,140026.00,3420.59762403,N,12049.07668097,W,2,13,0.9,6.487,M,-37.584,M,7.0,0135*68
$PYRTM,2024,123.583634582662,14.693281992801
$GNHDT,306.769,T*26
$PYRTM,2024,123.583640318553,14.693287728692
$GNGGA,140026.50,3420.59784368,N,12049.07710286,W,2,13,0.9,6.935,M,-37.584,M,7.4,0135*63
$PYRTM,2024,123.583640318553,14.693287728692
$GNHDT,306.603,T*2B
$PYRTM,2024,123.583646156331,14.693293566470
$GNGGA,140027.00,3420.59810178,N,12049.07752215,W,2,13,0.9,7.459,M,-37.584,M,7.0,0135*68
$PYRTM,2024,123.583646156331,14.693293566470
$GNHDT,306.352,T*2A
$PYRTM,2024,123.583651882662,14.693299292801
$GNGGA,140027.50,3420.59844099,N,12049.07800950,W,2,13,0.9,7.855,M,-37.584,M,7.4,0135*64
$PYRTM,2024,123.583651882662,14.693299292801
$GNHDT,306.687,T*27
$PYRTM,2024,123.583657727639,14.693305137778
$GNGGA,140028.00,3420.59885347,N,12049.07861998,W,2,13,0.9,7.914,M,-37.584,M,7.0,0135*60
$PYRTM,2024,123.583657727639,14.693305137778
$GNHDT,306.317,T*2B
$PYRTM,2024,123.583663467639,14.693310877778
$GNGGA,140028.50,3420.59928511,N,12049.07934065,W,2,13,0.9,7.607,M,-37.584,M,7.4,0135*65
$PYRTM,2024,123.583663467639,14.693310877778
$GNHDT,306.118,T*26
$PYRTM,2024,123.583669301956,14.693316712095
$GNGGA,140029.00,3420.59966878,N,12049.08009260,W,2,13,0.9,7.125,M,-37.584,M,4.0,0135*66
$PYRTM,2024,123.583669301956,14.693316712095
$GNHDT,305.805,T*20
$PYRTM,2024,123.583675030868,14.693322441007
$GNGGA,140029.50,3420.59996751,N,12049.08082238,W,2,13,0.9,6.669,M,-37.584,M,4.4,0135*6C
$PYRTM,2024,123.583675030868,14.693322441007
$GNHDT,305.775,T*28
$PYRTM,2024,123.583680874086,14.693328284225
$GNGGA,140030.00,3420.60018445,N,12049.08151357,W,2,13,0.9,6.446,M,-37.584,M,5.0,0135*6F
$PYRTM,2024,123.583680874086,14.693328284225
$GNHDT,306.060,T*28
$PYRTM,2024,123.583686602697,14.693334012847
$GNGGA,140030.50,3420.60036420,N,12049.08215024,W,2,13,0.9,6.504,M,-37.584,M,5.4,0135*62
$PYRTM,2024,123.583686602697,14.693334012847
$GNHDT,306.103,T*2C
$PYRTM,2024,123.583692452176,14.693339862315
$GNGGA,140031.00,3420.60055829,N,12049.08275125,W,2,13,0.9,6.725,M,-37.584,M,6.0,0135*66
$PYRTM,2024,123.583692452176,14.693339862315
$GNHDT,306.318,T*24
$PYRTM,2024,123.583698180278,14.693345590417
$GNGGA,140031.50,3420.60081899,N,12049.08332529,W,2,13,0.9,6.947,M,-37.585,M,6.4,0135*64
$PYRTM,2024,123.583698180278,14.693345590417
$GNHDT,306.679,T*26
$PYRTM,2024,123.583704022963,14.693351433113
$GNGGA,140032.00,3420.60117465,N,12049.08390174,W,2,13,0.9,7.076,M,-37.585,M,7.0,0135*68
$PYRTM,2024,123.583704022963,14.693351433113
$GNHDT,306.945,T*26
$PYRTM,2024,123.583709754120,14.693357164259
$GNGGA,140032.50,3420.60161180,N,12049.08448770,W,2,13,0.9,7.045,M,-37.585,M,7.4,0135*66
$PYRTM,2024,123.583709754120,14.693357164259
$GNHDT,306.924,T*21
$PYRTM,2024,123.583715593634,14.693363003773
$GNGGA,140033.00,3420.60207506,N,12049.08507099,W,2,13,0.9,6.969,M,-37.585,M,7.0,0135*63
$PYRTM,2024,123.583715593634,14.693363003773
$GNHDT,306.931,T*25
$PYRTM,2024,123.583721324826,14.693368734977
$GNGGA,140033.50,3420.60250762,N,12049.08564785,W,2,13,0.9,6.955,M,-37.585,M,7.4,0135*60
$PYRTM,2024,123.583721324826,14.693368734977
$GNHDT,307.011,T*2F
$PYRTM,2024,123.583727173657,14.693374583796
$GNGGA,140034.00,3420.60288378,N,12049.08622367,W,2,13,0.9,7.040,M,-37.585,M,7.0,0135*69
$PYRTM,2024,123.583727173657,14.693374583796
$GNHDT,307.227,T*28
$PYRTM,2024,123.583732902593,14.693380312731
$GNGGA,140034.50,3420.60321094,N,12049.08682789,W,2,13,0.9,7.185,M,-37.585,M,7.4,0135*6D
$PYRTM,2024,123.583732902593,14.693380312731
$GNHDT,307.210,T*2C
$PYRTM,2024,123.583738739259,14.693386149398
$GNGGA,140035.00,3420.60349939,N,12049.08748344,W,2,13,0.9,7.327,M,-37.585,M,4.0,0135*66
$PYRTM,2024,123.583738739259,14.693386149398
$GNHDT,307.168,T*20
$PYRTM,2024,123.583744473472,14.693391883611
$GNGGA,140035.50,3420.60377250,N,12049.08818073,W,2,13,0.9,7.397,M,-37.585,M,4.4,0135*68
$PYRTM,2024,123.583744473472,14.693391883611
$GNHDT,307.115,T*2A
$PYRTM,2024,123.583750323900,14.693397734051
$GNGGA,140036.00,3420.60404927,N,12049.08890168,W,2,13,0.9,7.372,M,-37.585,M,5.0,0135*63
$PYRTM,2024,123.583750323900,14.693397734051
$GNHDT,306.903,T*24
$PYRTM,2024,123.583756047882,14.693403458021
$GNGGA,140036.50,3420.60434715,N,12049.08958730,W,2,13,0.9,7.317,M,-37.585,M,5.4,0135*63
$PYRTM,2024,123.583756047882,14.693403458021
$GNHDT,306.904,T*23
$PYRTM,2024,123.583761892662,14.693409302801
$GNGGA,140037.00,3420.60466003,N,12049.09020753,W,2,13,0.9,7.280,M,-37.585,M,6.0,0135*6A
$PYRTM,2024,123.583761892662,14.693409302801
$GNHDT,306.855,T*26
$PYRTM,2024,123.583767630289,14.693415040440
$GNGGA,140037.50,3420.60499494,N,12049.09076713,W,2,13,0.9,7.290,M,-37.585,M,6.4,0135*67
$PYRTM,2024,123.583767630289,14.693415040440
$GNHDT,307.125,T*29
$PYRTM,2024,123.583773461991,14.693420872130
$GNGGA,140038.00,3420.60536768,N,12049.09130508,W,2,13,0.9,7.281,M,-37.585,M,7.0,0135*67
$PYRTM,2024,123.583773461991,14.693420872130
$GNHDT,307.083,T*24
$PYRTM,2024,123.583779197153,14.693426607292
$GNGGA,140038.50,3420.60578338,N,12049.09187580,W,2,13,0.9,7.157,M,-37.585,M,7.4,0135*69
$PYRTM,2024,123.583779197153,14.693426607292
$GNHDT,307.289,T*2C
$PYRTM,2024,123.583785048183,14.693432458322
$GNGGA,140039.00,3420.60621711,N,12049.09250020,W,2,13,0.9,6.956,M,-37.585,M,7.0,0135*67
$PYRTM,2024,123.583785048183,14.693432458322
$GNHDT,307.501,T*2B
$PYRTM,2024,123.583790770243,14.693438180382
$GNGGA,140039.50,3420.60660420,N,12049.09316651,W,2,13,0.9,6.795,M,-37.585,M,7.4,0135*60
$PYRTM,2024,123.583790770243,14.693438180382
$GNHDT,307.247,T*2E
$PYRTM,2024,123.583796611123,14.693444021262
$GNGGA,140040.00,3420.60692429,N,12049.09386192,W,2,13,0.9,6.729,M,-37.585,M,7.0,0135*6D
$PYRTM,2024,123.583796611123,14.693444021262
$GNHDT,307.093,T*25
$PYRTM,2024,123.583802341771,14.693449751910
$GNGGA,140040.50,3420.60720197,N,12049.09458938,W,2,13,0.9,6.727,M,-37.585,M,7.4,0135*66
$PYRTM,2024,123.583802341771,14.693449751910
$GNHDT,307.223,T*2C
$PYRTM,2024,123.583808190961,14.693455601100
$GNGGA,140041.00,3420.60749014,N,12049.09534207,W,2,13,0.9,6.700,M,-37.585,M,4.0,0135*69
$PYRTM,2024,123.583808190961,14.693455601100
$GNHDT,307.198,T*2F
$PYRTM,2024,123.583813916563,14.693461326701
$GNGGA,140041.50,3420.60783708,N,12049.09608816,W,2,13,0.9,6.570,M,-37.585,M,4.4,0135*67
$PYRTM,2024,123.583813916563,14.693461326701
$GNHDT,307.280,T*25
$PYRTM,2024,123.583819762951,14.693467173090
$GNGGA,140042.00,3420.60823966,N,12049.09680265,W,2,13,0.9,6.400,M,-37.585,M,5.0,0135*6F
$PYRTM,2024,123.583819762951,14.693467173090
$GNHDT,307.438,T*20
$PYRTM,2024,123.583825490810,14.693472900949
$GNGGA,140042.50,3420.60866026,N,12049.09746423,W,2,13,0.9,6.360,M,-37.585,M,5.4,0135*6C
$PYRTM,2024,123.583825490810,14.693472900949
$GNHDT,307.488,T*2B
$PYRTM,2024,123.583831333715,14.693478743854
$GNGGA,140043.00,3420.60904119,N,12049.09807207,W,2,13,0.9,6.643,M,-37.585,M,6.0,0135*69
$PYRTM,2024,123.583831333715,14.693478743854
$GNHDT,307.242,T*2B
$PYRTM,2024,123.583837065150,14.693484475301
$GNGGA,140043.50,3420.60935655,N,12049.09863998,W,2,13,0.9,7.157,M,-37.585,M,6.4,0135*69
$PYRTM,2024,123.583837065150,14.693484475301
$GNHDT,307.127,T*2B
$PYRTM,2024,123.583842913484,14.693490323623
$GNGGA,140044.00,3420.60961648,N,12049.09918171,W,2,13,0.9,7.796,M,-37.585,M,7.0,0135*6A
$PYRTM,2024,123.583842913484,14.693490323623
$GNHDT,306.798,T*28
$PYRTM,2024,123.583848642083,14.693496052222
$GNGGA,140044.50,3420.60986326,N,12049.09971359,W,2,13,0.9,8.348,M,-37.585,M,7.4,0135*60
$PYRTM,2024,123.583848642083,14.693496052222
$GNHDT,306.521,T*28
$PYRTM,2024,123.583854481192,14.693501891331
$GNGGA,140045.00,3420.61015657,N,12049.10028591,W,2,13,0.9,8.529,M,-37.585,M,7.0,0135*6F
$PYRTM,2024,123.583854481192,14.693501891331
$GNHDT,306.909,T*2E
$PYRTM,2024,123.583860221493,14.693507631644
$GNGGA,140045.50,3420.61052458,N,12049.10094542,W,2,13,0.9,8.163,M,-37.585,M,7.4,0135*63
$PYRTM,2024,123.583860221493,14.693507631644
$GNHDT,306.971,T*21
$PYRTM,2024,123.583866065521,14.693513475660
$GNGGA,140046.00,3420.61095909,N,12049.10167235,W,2,13,0.9,7.299,M,-37.585,M,7.0,0135*60
$PYRTM,2024,123.583866065521,14.693513475660
$GNHDT,306.683,T*23
$PYRTM,2024,123.583871790752,14.693519200891
$GNGGA,140046.50,3420.61140496,N,12049.10243911,W,2,13,0.9,6.209,M,-37.585,M,7.4,0135*63
$PYRTM,2024,123.583871790752,14.693519200891
$GNHDT,306.685,T*25
$PYRTM,2024,123.583877636736,14.693525046875
$GNGGA,140047.00,3420.61179906,N,12049.10318779,W,2,13,0.9,5.357,M,-37.585,M,4.0,0135*68
$PYRTM,2024,123.583877636736,14.693525046875
$GNHDT,306.469,T*25
$PYRTM,2024,123.583883362975,14.693530773113
$GNGGA,140047.50,3420.61210539,N,12049.10388179,W,2,13,0.9,5.113,M,-37.585,M,4.4,0135*68
$PYRTM,2024,123.583883362975,14.693530773113
$GNHDT,306.231,T*2E
$PYRTM,2024,123.583889206551,14.693536616690
$GNGGA,140048.00,3420.61231649,N,12049.10450960,W,2,13,0.9,5.517,M,-37.585,M,5.0,0135*62
$PYRTM,2024,123.583889206551,14.693536616690
$GNHDT,306.095,T*22
$PYRTM,2024,123.583894944282,14.693542354421
$GNGGA,140048.50,3420.61248256,N,12049.10507359,W,2,13,0.9,6.302,M,-37.585,M,5.4,0135*65
$PYRTM,2024,123.583894944282,14.693542354421
$GNHDT,305.968,T*2A
$PYRTM,2024,123.583900791088,14.693548201227
$GNGGA,140049.00,3420.61270273,N,12049.10563211,W,2,13,0.9,7.234,M,-37.585,M,6.0,0135*60
$PYRTM,2024,123.583900791088,14.693548201227
$GNHDT,306.237,T*28
$PYRTM,2024,123.583906515729,14.693553925868
$GNGGA,140049.50,3420.61301500,N,12049.10621584,W,2,13,0.9,7.975,M,-37.585,M,6.4,0135*65
$PYRTM,2024,123.583906515729,14.693553925868
$GNHDT,306.598,T*2A
$PYRTM,2024,123.583912356400,14.693559766539
$GNGGA,140050.00,3420.61343102,N,12049.10686409,W,2,13,0.9,8.299,M,-37.585,M,7.0,0135*62
$PYRTM,2024,123.583912356400,14.693559766539
$GNHDT,306.471,T*2C
$PYRTM,2024,123.583918091389,14.693565501528
$GNGGA,140050.50,3420.61390568,N,12049.10755684,W,2,13,0.9,8.131,M,-37.585,M,7.4,0135*6C
$PYRTM,2024,123.583918091389,14.693565501528
$GNHDT,306.761,T*2E
$PYRTM,2024,123.583923936968,14.693571347095
$GNGGA,140051.00,3420.61436709,N,12049.10824162,W,2,13,0.9,7.639,M,-37.585,M,7.0,0135*64
$PYRTM,2024,123.583923936968,14.693571347095
$GNHDT,306.771,T*2F
$PYRTM,2024,123.583929655532,14.693577065671
$GNGGA,140051.50,3420.61476591,N,12049.10889559,W,2,13,0.9,7.091,M,-37.585,M,7.4,0135*6D
$PYRTM,2024,123.583929655532,14.693577065671
$GNHDT,306.473,T*2E
$PYRTM,2024,123.583935499595,14.693582909734
$GNGGA,140052.00,3420.61507595,N,12049.10951803,W,2,13,0.9,6.706,M,-37.585,M,7.0,0135*62
$PYRTM,2024,123.583935499595,14.693582909734
$GNHDT,306.478,T*25
$PYRTM,2024,123.583941229097,14.693588639236
$GNGGA,140052.50,3420.61529087,N,12049.11013648,W,2,13,0.9,6.662,M,-37.585,M,7.4,0135*65
$PYRTM,2024,123.583941229097,14.693588639236
$GNHDT,306.620,T*2A
$PYRTM,2024,123.583947076412,14.693594486551
$GNGGA,140053.00,3420.61544483,N,12049.11076586,W,2,13,0.9,6.912,M,-37.585,M,4.0,0135*67
$PYRTM,2024,123.583947076412,14.693594486551
$GNHDT,306.335,T*2B
$PYRTM,2024,123.583952808079,14.693600218218
$GNGGA,140053.50,3420.61561869,N,12049.11141013,W,2,13,0.9,7.178,M,-37.585,M,4.4,0135*60
$PYRTM,2024,123.583952808079,14.693600218218
$GNHDT,306.356,T*2E
$PYRTM,2024,123.583958651030,14.693606061169
$GNGGA,140054.00,3420.61589079,N,12049.11208672,W,2,13,0.9,7.308,M,-37.585,M,5.0,0135*62
$PYRTM,2024,123.583958651030,14.693606061169
$GNHDT,306.357,T*2F
$PYRTM,2024,123.583964379942,14.693611790081
$GNGGA,140054.50,3420.61631003,N,12049.11279102,W,2,13,0.9,7.113,M,-37.585,M,5.4,0135*60
$PYRTM,2024,123.583964379942,14.693611790081
$GNHDT,306.681,T*21
$PYRTM,2024,123.583970225069,14.693617635208
$GNGGA,140055.00,3420.61683728,N,12049.11349574,W,2,13,0.9,6.676,M,-37.585,M,6.0,0135*66
$PYRTM,2024,123.583970225069,14.693617635208
$GNHDT,306.689,T*29
$PYRTM,2024,123.583975958576,14.693623368715
$GNGGA,140055.50,3420.61739172,N,12049.11417500,W,2,13,0.9,6.232,M,-37.585,M,6.4,0135*65
$PYRTM,2024,123.583975958576,14.693623368715
$GNHDT,306.635,T*2E
$PYRTM,2024,123.583981792569,14.693629202697
$GNGGA,140056.00,3420.61785672,N,12049.11481160,W,2,13,0.9,6.119,M,-37.585,M,7.0,0135*61
$PYRTM,2024,123.583981792569,14.693629202697
$GNHDT,306.636,T*2D
$PYRTM,2024,123.583987531944,14.693634942083
$GNGGA,140056.50,3420.61816635,N,12049.11540471,W,2,13,0.9,6.460,M,-37.585,M,7.4,0135*64
$PYRTM,2024,123.583987531944,14.693634942083
$GNHDT,306.639,T*22
$PYRTM,2024,123.583993376956,14.693640787095
$GNGGA,140057.00,3420.61833516,N,12049.11597853,W,2,13,0.9,7.183,M,-37.585,M,7.0,0135*6E
$PYRTM,2024,123.583993376956,14.693640787095
$GNHDT,306.319,T*25
$PYRTM,2024,123.583999096238,14.693646506377
$GNGGA,140057.50,3420.61843788,N,12049.11657844,W,2,13,0.9,7.985,M,-37.585,M,7.4,0135*6A
$PYRTM,2024,123.583999096238,14.693646506377
$GNHDT,306.318,T*24
$PYRTM,2024,123.584004941204,14.693652351354
$GNGGA,140058.00,3420.61856649,N,12049.11722479,W,2,13,0.9,8.528,M,-37.585,M,7.0,0135*69
$PYRTM,2024,123.584004941204,14.693652351354
$GNHDT,306.339,T*27
$PYRTM,2024,123.584010675486,14.693658085625
$GNGGA,140058.50,3420.61881248,N,12049.11791813,W,2,13,0.9,8.508,M,-37.585,M,7.4,0135*6D
$PYRTM,2024,123.584010675486,14.693658085625
$GNHDT,306.357,T*2F
$PYRTM,2024,123.584016532963,14.693663943102
$GNGGA,140059.00,3420.61917781,N,12049.11861402,W,2,13,0.9,7.942,M,-37.585,M,4.0,0135*61
$PYRTM,2024,123.584016532963,14.693663943102
$GNHDT,306.708,T*21
$PYRTM,2024,123.584022262014,14.693669672153
$GNGGA,140059.50,3420.61961134,N,12049.11925645,W,2,13,0.9,7.098,M,-37.585,M,4.4,0135*67
$PYRTM,2024,123.584022262014,14.693669672153
$GNHDT,306.672,T*2D
$PYRTM,2024,123.584028100602,14.693675510752
$GNGGA,140100.00,3420.62003192,N,12049.11980665,W,2,13,0.9,6.294,M,-37.585,M,5.0,0135*6A
$PYRTM,2024,123.584028100602,14.693675510752
$GNHDT,307.082,T*25
$PYRTM,2024,123.584033827350,14.693681237488
$GNGGA,140100.50,3420.62038965,N,12049.12029916,W,2,13,0.9,5.858,M,-37.585,M,5.4,0135*68
$PYRTM,2024,123.584033827350,14.693681237488
$GNHDT,306.632,T*29
$PYRTM,2024,123.584039666921,14.693687077060
$GNGGA,140101.00,3420.62065655,N,12049.12078753,W,2,13,0.9,5.920,M,-37.585,M,6.0,0135*6A
$PYRTM,2024,123.584039666921,14.693687077060
$GNHDT,306.220,T*2E
$PYRTM,2024,123.584045404132,14.693692814271
$GNGGA,140101.50,3420.62083972,N,12049.12136037,W,2,13,0.9,6.280,M,-37.585,M,6.4,0135*65
$PYRTM,2024,123.584045404132,14.693692814271
$GNHDT,306.026,T*2A
$PYRTM,2024,123.584051244769,14.693698654907
$GNGGA,140102.00,3420.62101010,N,12049.12208711,W,2,13,0.9,6.664,M,-37.585,M,7.0,0135*63
$PYRTM,2024,123.584051244769,14.693698654907
$GNHDT,305.820,T*27
$PYRTM,2024,123.584056972581,14.693704382731
$GNGGA,140102.50,3420.62122674,N,12049.12294599,W,2,13,0.9,6.785,M,-37.585,M,7.4,0135*6E
$PYRTM,2024,123.584056972581,14.693704382731
$GNHDT,305.615,T*2F
$PYRTM,2024,123.584062817431,14.693710227569
$GNGGA,140103.00,3420.62151762,N,12049.12385420,W,2,13,0.9,6.690,M,-37.585,M,7.0,0135*6B
$PYRTM,2024,123.584062817431,14.693710227569
$GNHDT,305.647,T*28
$PYRTM,2024,123.584068547269,14.693715957419
$GNGGA,140103.50,3420.62185464,N,12049.12469348,W,2,13,0.9,6.548,M,-37.585,M,7.4,0135*6C
$PYRTM,2024,123.584068547269,14.693715957419
$GNHDT,305.872,T*20
$PYRTM,2024,123.584074390069,14.693721800208
$GNGGA,140104.00,3420.62219482,N,12049.12532428,W,2,13,0.9,6.632,M,-37.585,M,7.0,0135*64
$PYRTM,2024,123.584074390069,14.693721800208
$GNHDT,306.026,T*2A
$PYRTM,2024,123.584080125417,14.693727535567
$GNGGA,140104.50,3420.62252083,N,12049.12573836,W,2,13,0.9,7.045,M,-37.585,M,7.4,0135*6E
$PYRTM,2024,123.584080125417,14.693727535567
$GNHDT,306.677,T*28
$PYRTM,2024,123.584085978403,14.693733388542
$GNGGA,140105.00,3420.62284438,N,12049.12602766,W,2,13,0.9,7.642,M,-37.585,M,4.0,0135*6C
$PYRTM,2024,123.584085978403,14.693733388542
$GNHDT,307.370,T*2B
$PYRTM,2024,123.584091700880,14.693739111030
$GNGGA,140105.50,3420.62317477,N,12049.12630857,W,2,13,0.9,8.257,M,-37.585,M,4.4,0135*6E
$PYRTM,2024,123.584091700880,14.693739111030
$GNHDT,307.082,T*25
$PYRTM,2024,123.584097536076,14.693744946215
$GNGGA,140106.00,3420.62351446,N,12049.12669050,W,2,13,0.9,8.598,M,-37.585,M,5.0,0135*6A
$PYRTM,2024,123.584097536076,14.693744946215
$GNHDT,307.409,T*22
$PYRTM,2024,123.584103273160,14.693750683299
$GNGGA,140106.50,3420.62385614,N,12049.12725375,W,2,13,0.9,8.437,M,-37.585,M,5.4,0135*6E
$PYRTM,2024,123.584103273160,14.693750683299
$GNHDT,307.580,T*22
$PYRTM,2024,123.584109118877,14.693756529016
$GNGGA,140107.00,3420.62419260,N,12049.12797974,W,2,13,0.9,7.731,M,-37.585,M,6.0,0135*60
$PYRTM,2024,123.584109118877,14.693756529016
$GNHDT,307.941,T*23
$PYRTM,2024,123.584114847234,14.693762257373
$GNGGA,140107.50,3420.62449767,N,12049.12881435,W,2,13,0.9,6.691,M,-37.585,M,6.4,0135*6C
$PYRTM,2024,123.584114847234,14.693762257373
$GNHDT,308.191,T*29
$PYRTM,2024,123.584120692998,14.693768103137
$GNGGA,140108.00,3420.62476820,N,12049.12959280,W,2,13,0.9,5.817,M,-37.585,M,7.0,0135*6C
$PYRTM,2024,123.584120692998,14.693768103137
$GNHDT,308.733,T*27
$PYRTM,2024,123.584126417685,14.693773827824
$GNGGA,140108.50,3420.62499743,N,12049.13019482,W,2,13,0.9,5.534,M,-37.586,M,7.4,0135*61
$PYRTM,2024,123.584126417685,14.693773827824
$GNHDT,308.632,T*27
$PYRTM,2024,123.584132261725,14.693779671863
$GNGGA,140109.00,3420.62518554,N,12049.13057456,W,2,13,0.9,5.899,M,-37.586,M,7.0,0135*64
$PYRTM,2024,123.584132261725,14.693779671863
$GNHDT,308.797,T*29
$PYRTM,2024,123.584138005741,14.693785415880
$GNGGA,140109.50,3420.62536553,N,12049.13077164,W,2,13,0.9,6.732,M,-37.586,M,7.4,0135*65
$PYRTM,2024,123.584138005741,14.693785415880
$GNHDT,309.125,T*27
$PYRTM,2024,123.584143840174,14.693791250313
$GNGGA,140110.00,3420.62559075,N,12049.13098323,W,2,13,0.9,7.639,M,-37.586,M,7.0,0135*6F
$PYRTM,2024,123.584143840174,14.693791250313
$GNHDT,309.083,T*2A
$PYRTM,2024,123.584149560313,14.693796970451
$GNGGA,140110.50,3420.62588922,N,12049.13133470,W,2,13,0.9,8.283,M,-37.586,M,7.4,0135*62
$PYRTM,2024,123.584149560313,14.693796970451
$GNHDT,308.354,T*22
$PYRTM,2024,123.584155408958,14.693802819097
$GNGGA,140111.00,3420.62623063,N,12049.13187986,W,2,13,0.9,8.482,M,-37.586,M,4.0,0135*63
$PYRTM,2024,123.584155408958,14.693802819097
$GNHDT,308.084,T*2C
$PYRTM,2024,123.584161139213,14.693808549363
$GNGGA,140111.50,3420.62655078,N,12049.13251379,W,2,13,0.9,8.219,M,-37.586,M,4.4,0135*6F
$PYRTM,2024,123.584161139213,14.693808549363
$GNHDT,308.044,T*20
$PYRTM,2024,123.584166984873,14.693814395012
$GNGGA,140112.00,3420.62682326,N,12049.13314261,W,2,13,0.9,7.691,M,-37.586,M,5.0,0135*6D
$PYRTM,2024,123.584166984873,14.693814395012
$GNHDT,308.242,T*24
$PYRTM,2024,123.584172718067,14.693820128218
$GNGGA,140112.50,3420.62706529,N,12049.13366844,W,2,13,0.9,7.051,M,-37.586,M,5.4,0135*6A
$PYRTM,2024,123.584172718067,14.693820128218
$GNHDT,309.089,T*20
$PYRTM,2024,123.584178557442,14.693825967593
$GNGGA,140113.00,3420.62729127,N,12049.13412537,W,2,13,0.9,6.543,M,-37.586,M,6.0,0135*64
$PYRTM,2024,123.584178557442,14.693825967593
$GNHDT,309.788,T*26
$PYRTM,2024,123.584184286065,14.693831696204
$GNGGA,140113.50,3420.62754405,N,12049.13450054,W,2,13,0.9,6.190,M,-37.586,M,6.4,0135*66
$PYRTM,2024,123.584184286065,14.693831696204
$GNHDT,311.426,T*28
$PYRTM,2024,123.584190132685,14.693837542824
$GNGGA,140114.00,3420.62783580,N,12049.13483786,W,2,13,0.9,6.041,M,-37.586,M,7.0,0135*6C
$PYRTM,2024,123.584190132685,14.693837542824
$GNHDT,311.494,T*21
$PYRTM,2024,123.584195858322,14.693843268461
$GNGGA,140114.50,3420.62816947,N,12049.13519057,W,2,13,0.9,6.052,M,-37.586,M,7.4,0135*62
$PYRTM,2024,123.584195858322,14.693843268461
$GNHDT,311.592,T*26
$PYRTM,2024,123.584201713970,14.693849124109
$GNGGA,140115.00,3420.62852346,N,12049.13560943,W,2,13,0.9,6.186,M,-37.586,M,7.0,0135*63
$PYRTM,2024,123.584201713970,14.693849124109
$GNHDT,310.982,T*2A
$PYRTM,2024,123.584207435127,14.693854845266
$GNGGA,140115.50,3420.62885861,N,12049.13611109,W,2,13,0.9,6.409,M,-37.586,M,7.4,0135*67
$PYRTM,2024,123.584207435127,14.693854845266
$GNHDT,310.923,T*21
$PYRTM,2024,123.584213280787,14.693860690926
$GNGGA,140116.00,3420.62914489,N,12049.13666793,W,2,13,0.9,6.772,M,-37.586,M,7.0,0135*6C
$PYRTM,2024,123.584213280787,14.693860690926
$GNHDT,310.400,T*2D
$PYRTM,2024,123.584219011053,14.693866421192
$GNGGA,140116.50,3420.62936891,N,12049.13725041,W,2,13,0.9,7.240,M,-37.586,M,7.4,0135*63
$PYRTM,2024,123.584219011053,14.693866421192
$GNHDT,310.169,T*27
$PYRTM,2024,123.584224852627,14.693872262766
$GNGGA,140117.00,3420.62954161,N,12049.13782245,W,2,13,0.9,7.716,M,-37.586,M,4.0,0135*6F
$PYRTM,2024,123.584224852627,14.693872262766
$GNHDT,310.105,T*2D
$PYRTM,2024,123.584230578148,14.693877988287
$GNGGA,140117.50,3420.62971431,N,12049.13837109,W,2,13,0.9,8.051,M,-37.586,M,4.4,0135*68
$PYRTM,2024,123.584230578148,14.693877988287
$GNHDT,310.473,T*29
$PYRTM,2024,123.584236430891,14.693883841030
$GNGGA,140118.00,3420.62993928,N,12049.13890554,W,2,13,0.9,8.038,M,-37.586,M,5.0,0135*60
$PYRTM,2024,123.584236430891,14.693883841030
$GNHDT,310.764,T*2C
$PYRTM,2024,123.584242161956,14.693889572095
$GNGGA,140118.50,3420.63024428,N,12049.13944424,W,2,13,0.9,7.640,M,-37.586,M,5.4,0135*60
$PYRTM,2024,123.584242161956,14.693889572095
$GNHDT,310.672,T*2A
$PYRTM,2024,123.584248012731,14.693895422870
$GNGGA,140119.00,3420.63061000,N,12049.13999637,W,2,13,0.9,6.896,M,-37.586,M,6.0,0135*68
$PYRTM,2024,123.584248012731,14.693895422870
$GNHDT,310.932,T*21
$PYRTM,2024,123.584253727905,14.693901138044
$GNGGA,140119.50,3420.63099732,N,12049.14054011,W,2,13,0.9,6.100,M,-37.586,M,6.4,0135*63
$PYRTM,2024,123.584253727905,14.693901138044
$GNHDT,310.938,T*2B
$PYRTM,2024,123.584259572245,14.693906982384
$GNGGA,140120.00,3420.63135788,N,12049.14106995,W,2,13,0.9,5.514,M,-37.586,M,7.0,0135*6E
$PYRTM,2024,123.584259572245,14.693906982384
$GNHDT,311.086,T*26
$PYRTM,2024,123.584265302164,14.693912712315
$GNGGA,140120.50,3420.63165699,N,12049.14156650,W,2,13,0.9,5.401,M,-37.586,M,7.4,0135*6D
$PYRTM,2024,123.584265302164,14.693912712315
$GNHDT,311.308,T*23
$PYRTM,2024,123.584271151806,14.693918561944
$GNGGA,140121.00,3420.63189355,N,12049.14203097,W,2,13,0.9,5.784,M,-37.586,M,7.0,0135*6A
$PYRTM,2024,123.584271151806,14.693918561944
$GNHDT,311.043,T*2F
$PYRTM,2024,123.584276879850,14.693924289988
$GNGGA,140121.50,3420.63211439,N,12049.14248431,W,2,13,0.9,6.433,M,-37.586,M,7.4,0135*6F
$PYRTM,2024,123.584276879850,14.693924289988
$GNHDT,311.070,T*2F
$PYRTM,2024,123.584282727083,14.693930137222
$GNGGA,140122.00,3420.63235607,N,12049.14295692,W,2,13,0.9,7.146,M,-37.586,M,7.0,0135*69
$PYRTM,2024,123.584282727083,14.693930137222
$GNHDT,310.853,T*27
$PYRTM,2024,123.584288447488,14.693935857627
$GNGGA,140122.50,3420.63263968,N,12049.14347919,W,2,13,0.9,7.735,M,-37.586,M,7.4,0135*6D
$PYRTM,2024,123.584288447488,14.693935857627
$GNHDT,310.561,T*2B
$PYRTM,2024,123.584294298715,14.693941708854
$GNGGA,140123.00,3420.63297585,N,12049.14405480,W,2,13,0.9,8.037,M,-37.586,M,4.0,0135*6C
$PYRTM,2024,123.584294298715,14.693941708854
$GNHDT,310.857,T*23
$PYRTM,2024,123.584300029850,14.693947440000
$GNGGA,140123.50,3420.63335990,N,12049.14465121,W,2,13,0.9,8.040,M,-37.586,M,4.4,0135*64
$PYRTM,2024,123.584300029850,14.693947440000
$GNHDT,311.020,T*2A
$PYRTM,2024,123.584305872454,14.693953282593
$GNGGA,140124.00,3420.63377461,N,12049.14522229,W,2,13,0.9,7.789,M,-37.586,M,5.0,0135*62
$PYRTM,2024,123.584305872454,14.693953282593
$GNHDT,310.742,T*28
$PYRTM,2024,123.584311605833,14.693959015972
$GNGGA,140124.50,3420.63418390,N,12049.14575341,W,2,13,0.9,7.406,M,-37.586,M,5.4,0135*6D
$PYRTM,2024,123.584311605833,14.693959015972
$GNHDT,310.504,T*28
$PYRTM,2024,123.584317447245,14.693964857384
$GNGGA,140125.00,3420.63454526,N,12049.14626231,W,2,13,0.9,7.068,M,-37.586,M,6.0,0135*62
$PYRTM,2024,123.584317447245,14.693964857384
$GNHDT,310.294,T*26
$PYRTM,2024,123.584323171181,14.693970581319
$GNGGA,140125.50,3420.63483328,N,12049.14677111,W,2,13,0.9,6.926,M,-37.586,M,6.4,0135*66
$PYRTM,2024,123.584323171181,14.693970581319
$GNHDT,310.114,T*2D
$PYRTM,2024,123.584329016493,14.693976426632
$GNGGA,140126.00,3420.63507187,N,12049.14727957,W,2,13,0.9,7.015,M,-37.586,M,7.0,0135*69
$PYRTM,2024,123.584329016493,14.693976426632
$GNHDT,309.921,T*2B
$PYRTM,2024,123.584334750231,14.693982160370
$GNGGA,140126.50,3420.63531586,N,12049.14778253,W,2,13,0.9,7.209,M,-37.586,M,7.4,0135*62
$PYRTM,2024,123.584334750231,14.693982160370
$GNHDT,310.029,T*22
$PYRTM,2024,123.584340593461,14.693988003600
$GNGGA,140127.00,3420.63558768,N,12049.14831327,W,2,13,0.9,7.397,M,-37.586,M,7.0,0135*69
$PYRTM,2024,123.584340593461,14.693988003600
$GNHDT,310.116,T*2F
$PYRTM,2024,123.584346325012,14.693993735150
$GNGGA,140127.50,3420.63590940,N,12049.14887540,W,2,13,0.9,7.496,M,-37.586,M,7.4,0135*64
$PYRTM,2024,123.584346325012,14.693993735150
$GNHDT,309.980,T*20
$PYRTM,2024,123.584352163681,14.693999573819
$GNGGA,140128.00,3420.63628214,N,12049.14947182,W,2,13,0.9,7.460,M,-37.586,M,7.0,0135*6E
$PYRTM,2024,123.584352163681,14.693999573819
$GNHDT,309.836,T*2C
$PYRTM,2024,123.584357897697,14.694005307836
$GNGGA,140128.50,3420.63669572,N,12049.15011350,W,2,13,0.9,7.274,M,-37.586,M,7.4,0135*68
$PYRTM,2024,123.584357897697,14.694005307836
$GNHDT,309.399,T*22
$PYRTM,2024,123.584363740197,14.694011150336
$GNGGA,140129.00,3420.63710945,N,12049.15080002,W,2,13,0.9,6.996,M,-37.586,M,4.0,0135*66
$PYRTM,2024,123.584363740197,14.694011150336
$GNHDT,308.916,T*2E
$PYRTM,2024,123.584369471528,14.694016881667
$GNGGA,140129.50,3420.63747404,N,12049.15149606,W,2,13,0.9,6.780,M,-37.586,M,4.4,0135*62
$PYRTM,2024,123.584369471528,14.694016881667
$GNHDT,308.832,T*29
$PYRTM,2024,123.584375315139,14.694022725278
$GNGGA,140130.00,3420.63776192,N,12049.15214400,W,2,13,0.9,6.752,M,-37.586,M,5.0,0135*62
$PYRTM,2024,123.584375315139,14.694022725278
$GNHDT,308.740,T*23
$PYRTM,2024,123.584381046609,14.694028456748
$GNGGA,140130.50,3420.63800922,N,12049.15270120,W,2,13,0.9,6.917,M,-37.586,M,5.4,0135*64
$PYRTM,2024,123.584381046609,14.694028456748
$GNHDT,309.307,T*25
$PYRTM,2024,123.584386884144,14.694034294282
$GNGGA,140131.00,3420.63827039,N,12049.15317672,W,2,13,0.9,7.196,M,-37.586,M,6.0,0135*61
$PYRTM,2024,123.584386884144,14.694034294282
$GNHDT,309.550,T*21
$PYRTM,2024,123.584392618565,14.694040028704
$GNGGA,140131.50,3420.63860111,N,12049.15365759,W,2,13,0.9,7.340,M,-37.586,M,6.4,0135*6C
$PYRTM,2024,123.584392618565,14.694040028704
$GNHDT,309.784,T*2A
$PYRTM,2024,123.584398465000,14.694045875139
$GNGGA,140132.00,3420.63901174,N,12049.15422731,W,2,13,0.9,7.222,M,-37.586,M,7.0,0135*65
$PYRTM,2024,123.584398465000,14.694045875139
$GNHDT,309.526,T*20
$PYRTM,2024,123.584404193981,14.694051604120
$GNGGA,140132.50,3420.63946274,N,12049.15483521,W,2,13,0.9,6.936,M,-37.586,M,7.4,0135*63
$PYRTM,2024,123.584404193981,14.694051604120
$GNHDT,309.293,T*29
$PYRTM,2024,123.584410036840,14.694057446979
$GNGGA,140133.00,3420.63991057,N,12049.15542654,W,2,13,0.9,6.645,M,-37.586,M,7.0,0135*6C
$PYRTM,2024,123.584410036840,14.694057446979
$GNHDT,309.407,T*22
$PYRTM,2024,123.584415766852,14.694063176991
$GNGGA,140133.50,3420.64031358,N,12049.15598774,W,2,13,0.9,6.485,M,-37.586,M,7.4,0135*6F
$PYRTM,2024,123.584415766852,14.694063176991
$GNHDT,309.343,T*25
$PYRTM,2024,123.584421607801,14.694069017940
$GNGGA,140134.00,3420.64065495,N,12049.15652148,W,2,13,0.9,6.571,M,-37.586,M,7.0,0135*68
$PYRTM,2024,123.584421607801,14.694069017940
$GNHDT,309.616,T*20
$PYRTM,2024,123.584427337257,14.694074747396
$GNGGA,140134.50,3420.64094200,N,12049.15706782,W,2,13,0.9,6.839,M,-37.586,M,7.4,0135*6C
$PYRTM,2024,123.584427337257,14.694074747396
$GNHDT,309.311,T*22
$PYRTM,2024,123.584433179421,14.694080589560
$GNGGA,140135.00,3420.64118904,N,12049.15765636,W,2,13,0.9,7.226,M,-37.586,M,4.0,0135*6B
$PYRTM,2024,123.584433179421,14.694080589560
$GNHDT,309.376,T*23
$PYRTM,2024,123.584438913912,14.694086324051
$GNGGA,140135.50,3420.64142046,N,12049.15828623,W,2,13,0.9,7.562,M,-37.586,M,4.4,0135*6F
$PYRTM,2024,123.584438913912,14.694086324051
$GNHDT,309.100,T*20
$PYRTM,2024,123.584444761759,14.694092171898
$GNGGA,140136.00,3420.64167957,N,12049.15895807,W,2,13,0.9,7.745,M,-37.586,M,5.0,0135*6B
$PYRTM,2024,123.584444761759,14.694092171898
$GNHDT,309.171,T*26
$PYRTM,2024,123.584450491215,14.694097901354
$GNGGA,140136.50,3420.64199389,N,12049.15966450,W,2,13,0.9,7.652,M,-37.586,M,5.4,0135*66
$PYRTM,2024,123.584450491215,14.694097901354
$GNHDT,308.823,T*29
$PYRTM,2024,123.584456334352,14.694103744491
$GNGGA,140137.00,3420.64237636,N,12049.16035061,W,2,13,0.9,7.369,M,-37.586,M,6.0,0135*64
$PYRTM,2024,123.584456334352,14.694103744491
$GNHDT,308.650,T*23
$PYRTM,2024,123.584462066759,14.694109476898
$GNGGA,140137.50,3420.64282484,N,12049.16096881,W,2,13,0.9,6.984,M,-37.586,M,6.4,0135*67
$PYRTM,2024,123.584462066759,14.694109476898
$GNHDT,309.051,T*25
$PYRTM,2024,123.584467909931,14.694115320069
$GNGGA,140138.00,3420.64331484,N,12049.16150403,W,2,13,0.9,6.630,M,-37.586,M,7.0,0135*6C
$PYRTM,2024,123.584467909931,14.694115320069
$GNHDT,309.232,T*22
$PYRTM,2024,123.584473643426,14.694121053565
$GNGGA,140138.50,3420.64379178,N,12049.16199028,W,2,13,0.9,6.512,M,-37.586,M,7.4,0135*6C
$PYRTM,2024,123.584473643426,14.694121053565
$GNHDT,309.314,T*27
$PYRTM,2024,123.584479489352,14.694126899491
$GNGGA,140139.00,3420.64422934,N,12049.16245269,W,2,13,0.9,6.722,M,-37.586,M,7.0,0135*61
$PYRTM,2024,123.584479489352,14.694126899491
$GNHDT,309.590,T*2D
$PYRTM,2024,123.584485214144,14.694132624282
$GNGGA,140139.50,3420.64460400,N,12049.16294710,W,2,13,0.9,7.160,M,-37.586,M,7.4,0135*6A
$PYRTM,2024,123.584485214144,14.694132624282
$GNHDT,309.733,T*26
$PYRTM,2024,123.584491058380,14.694138468519
$GNGGA,140140.00,3420.64492189,N,12049.16349430,W,2,13,0.9,7.723,M,-37.586,M,7.0,0135*6D
$PYRTM,2024,123.584491058380,14.694138468519
$GNHDT,310.081,T*20
$PYRTM,2024,123.584496792025,14.694144202164
$GNGGA,140140.50,3420.64518854,N,12049.16411592,W,2,13,0.9,8.220,M,-37.586,M,7.4,0135*6C
$PYRTM,2024,123.584496792025,14.694144202164
$GNHDT,309.772,T*23
$PYRTM,2024,123.584502630787,14.694150040926
$GNGGA,140141.00,3420.64547369,N,12049.16477591,W,2,13,0.9,8.462,M,-37.586,M,4.0,0135*63
$PYRTM,2024,123.584502630787,14.694150040926
$GNHDT,309.586,T*2A
$PYRTM,2024,123.584508365197,14.694155775336
$GNGGA,140141.50,3420.64582710,N,12049.16543919,W,2,13,0.9,8.356,M,-37.586,M,4.4,0135*6B
$PYRTM,2024,123.584508365197,14.694155775336
$GNHDT,309.422,T*25
$PYRTM,2024,123.584514207986,14.694161618125
$GNGGA,140142.00,3420.64628423,N,12049.16606363,W,2,13,0.9,7.888,M,-37.586,M,5.0,0135*6A
$PYRTM,2024,123.584514207986,14.694161618125
$GNHDT,309.743,T*21
$PYRTM,2024,123.584519932419,14.694167342558
$GNGGA,140142.50,3420.64681070,N,12049.16663602,W,2,13,0.9,7.256,M,-37.586,M,5.4,0135*62
$PYRTM,2024,123.584519932419,14.694167342558
$GNHDT,309.983,T*23
$PYRTM,2024,123.584525774190,14.694173184329
$GNGGA,140143.00,3420.64734651,N,12049.16719190,W,2,13,0.9,6.582,M,-37.586,M,6.0,0135*64
$PYRTM,2024,123.584525774190,14.694173184329
$GNHDT,309.681,T*2E
$PYRTM,2024,123.584531510833,14.694178920972
$GNGGA,140143.50,3420.64785042,N,12049.16778506,W,2,13,0.9,6.059,M,-37.586,M,6.4,0135*64
$PYRTM,2024,123.584531510833,14.694178920972
$GNHDT,309.618,T*2E
$PYRTM,2024,123.584537357407,14.694184767546
$GNGGA,140144.00,3420.64828963,N,12049.16846677,W,2,13,0.9,5.800,M,-37.586,M,7.0,0135*61
$PYRTM,2024,123.584537357407,14.694184767546
$GNHDT,309.090,T*28
$PYRTM,2024,123.584543078391,14.694190488530
$GNGGA,140144.50,3420.64866695,N,12049.16921562,W,2,13,0.9,5.824,M,-37.586,M,7.4,0135*6D
$PYRTM,2024,123.584543078391,14.694190488530
$GNHDT,308.434,T*23
$PYRTM,2024,123.584548918183,14.694196328333
$GNGGA,140145.00,3420.64897104,N,12049.17000334,W,2,13,0.9,6.131,M,-37.586,M,7.0,0135*6C
$PYRTM,2024,123.584548918183,14.694196328333
$GNHDT,307.897,T*29
$PYRTM,2024,123.584554655382,14.694202065521
$GNGGA,140145.50,3420.64921203,N,12049.17077619,W,2,13,0.9,6.670,M,-37.586,M,7.4,0135*6D
$PYRTM,2024,123.584554655382,14.694202065521
$GNHDT,307.443,T*2C
$PYRTM,2024,123.584560506910,14.694207917049
$GNGGA,140146.00,3420.64943611,N,12049.17149079,W,2,13,0.9,7.311,M,-37.586,M,7.0,0135*63
$PYRTM,2024,123.584560506910,14.694207917049
$GNHDT,307.238,T*26
$PYRTM,2024,123.584566227558,14.694213637697
$GNGGA,140146.50,3420.64970725,N,12049.17210045,W,2,13,0.9,7.959,M,-37.586,M,7.4,0135*62
$PYRTM,2024,123.584566227558,14.694213637697
$GNHDT,307.692,T*22
$PYRTM,2024,123.584572069259,14.694219479398
$GNGGA,140147.00,3420.65006993,N,12049.17262970,W,2,13,0.9,8.403,M,-37.586,M,4.0,0135*6C
$PYRTM,2024,123.584572069259,14.694219479398
$GNHDT,308.277,T*22
$PYRTM,2024,123.584577804560,14.694225214699
$GNGGA,140147.50,3420.65053157,N,12049.17315604,W,2,13,0.9,8.468,M,-37.586,M,4.4,0135*6D
$PYRTM,2024,123.584577804560,14.694225214699
$GNHDT,308.836,T*2D
$PYRTM,2024,123.584583649248,14.694231059387
$GNGGA,140148.00,3420.65103855,N,12049.17373994,W,2,13,0.9,8.140,M,-37.586,M,5.0,0135*64
$PYRTM,2024,123.584583649248,14.694231059387
$GNHDT,308.388,T*23
$PYRTM,2024,123.584589375394,14.694236785532
$GNGGA,140148.50,3420.65153569,N,12049.17437192,W,2,13,0.9,7.513,M,-37.586,M,5.4,0135*66
$PYRTM,2024,123.584589375394,14.694236785532
$GNHDT,308.415,T*20
$PYRTM,2024,123.584595220938,14.694242631076
$GNGGA,140149.00,3420.65196667,N,12049.17505254,W,2,13,0.9,6.830,M,-37.586,M,6.0,0135*65
$PYRTM,2024,123.584595220938,14.694242631076
$GNHDT,308.487,T*2B
$PYRTM,2024,123.584600950127,14.694248360266
$GNGGA,140149.50,3420.65233160,N,12049.17574845,W,2,13,0.9,6.224,M,-37.586,M,6.4,0135*6B
$PYRTM,2024,123.584600950127,14.694248360266
$GNHDT,308.685,T*2B
$PYRTM,2024,123.584606797569,14.694254207708
$GNGGA,140150.00,3420.65263261,N,12049.17644226,W,2,13,0.9,5.907,M,-37.586,M,7.0,0135*62
$PYRTM,2024,123.584606797569,14.694254207708
$GNHDT,308.458,T*29
$PYRTM,2024,123.584612528646,14.694259938785
$GNGGA,140150.50,3420.65289294,N,12049.17711428,W,2,13,0.9,5.876,M,-37.586,M,7.4,0135*63
$PYRTM,2024,123.584612528646,14.694259938785
$GNHDT,308.514,T*20
$PYRTM,2024,123.584618368241,14.694265778380
$GNGGA,140151.00,3420.65315615,N,12049.17778235,W,2,13,0.9,6.066,M,-37.586,M,7.0,0135*65
$PYRTM,2024,123.584618368241,14.694265778380
$GNHDT,308.383,T*28
$PYRTM,2024,123.584624098600,14.694271508738
$GNGGA,140151.50,3420.65347087,N,12049.17847989,W,2,13,0.9,6.329,M,-37.586,M,7.4,0135*69
$PYRTM,2024,123.584624098600,14.694271508738
$GNHDT,307.601,T*28
$PYRTM,2024,123.584629947153,14.694277357292
$GNGGA,140152.00,3420.65386676,N,12049.17924342,W,2,13,0.9,6.574,M,-37.586,M,7.0,0135*69
$PYRTM,2024,123.584629947153,14.694277357292
$GNHDT,307.405,T*2E
$PYRTM,2024,123.584635673310,14.694283083449
$GNGGA,140152.50,3420.65430859,N,12049.18002246,W,2,13,0.9,6.788,M,-37.586,M,7.4,0135*67
$PYRTM,2024,123.584635673310,14.694283083449
$GNHDT,307.620,T*2B
$PYRTM,2024,123.584641511875,14.694288922014
$GNGGA,140153.00,3420.65474266,N,12049.18075169,W,2,13,0.9,7.041,M,-37.586,M,4.0,0135*6F
$PYRTM,2024,123.584641511875,14.694288922014
$GNHDT,307.416,T*2C
$PYRTM,2024,123.584647254711,14.694294664850
$GNGGA,140153.50,3420.65513159,N,12049.18137213,W,2,13,0.9,7.322,M,-37.586,M,4.4,0135*6E
$PYRTM,2024,123.584647254711,14.694294664850
$GNHDT,307.350,T*29
$PYRTM,2024,123.584653089815,14.694300499954
$GNGGA,140154.00,3420.65545803,N,12049.18188939,W,2,13,0.9,7.641,M,-37.586,M,5.0,0135*6B
$PYRTM,2024,123.584653089815,14.694300499954
$GNHDT,307.458,T*26
$PYRTM,2024,123.584658821007,14.694306231157
$GNGGA,140154.50,3420.65574537,N,12049.18237221,W,2,13,0.9,7.914,M,-37.586,M,5.4,0135*68
$PYRTM,2024,123.584658821007,14.694306231157
$GNHDT,307.546,T*28
$PYRTM,2024,123.584664665394,14.694312075544
$GNGGA,140155.00,3420.65603634,N,12049.18287290,W,2,13,0.9,8.002,M,-37.586,M,6.0,0135*68
$PYRTM,2024,123.584664665394,14.694312075544
$GNHDT,307.777,T*28
$PYRTM,2024,123.584670394329,14.694317804468
$GNGGA,140155.50,3420.65637350,N,12049.18344235,W,2,13,0.9,7.788,M,-37.586,M,6.4,0135*62
$PYRTM,2024,123.584670394329,14.694317804468
$GNHDT,308.172,T*24
$PYRTM,2024,123.584676247650,14.694323657789
$GNGGA,140156.00,3420.65677561,N,12049.18408087,W,2,13,0.9,7.241,M,-37.586,M,7.0,0135*65
$PYRTM,2024,123.584676247650,14.694323657789
$GNHDT,308.528,T*2F
$PYRTM,2024,123.584681969363,14.694329379502
$GNGGA,140156.50,3420.65720443,N,12049.18480444,W,2,13,0.9,6.532,M,-37.586,M,7.4,0135*6F
$PYRTM,2024,123.584681969363,14.694329379502
$GNHDT,308.261,T*25
$PYRTM,2024,123.584687812083,14.694335222222
$GNGGA,140157.00,3420.65762241,N,12049.18555261,W,2,13,0.9,5.904,M,-37.586,M,7.0,0135*6F
$PYRTM,2024,123.584687812083,14.694335222222
$GNHDT,308.053,T*26
$PYRTM,2024,123.584693544687,14.694340954826
$GNGGA,140157.50,3420.65797725,N,12049.18624476,W,2,13,0.9,5.684,M,-37.586,M,7.4,0135*61
$PYRTM,2024,123.584693544687,14.694340954826
$GNHDT,308.017,T*26
$PYRTM,2024,123.584699393449,14.694346803588
$GNGGA,140158.00,3420.65825673,N,12049.18684313,W,2,13,0.9,5.983,M,-37.586,M,7.0,0135*6D
$PYRTM,2024,123.584699393449,14.694346803588
$GNHDT,308.076,T*21
$PYRTM,2024,123.584705130451,14.694352540590
$GNGGA,140158.50,3420.65849011,N,12049.18736552,W,2,13,0.9,6.664,M,-37.586,M,7.4,0135*6A
$PYRTM,2024,123.584705130451,14.694352540590
$GNHDT,307.406,T*2D
$PYRTM,2024,123.584710969514,14.694358379653
$GNGGA,140159.00,3420.65875473,N,12049.18788757,W,2,13,0.9,7.485,M,-37.587,M,4.0,0135*69
$PYRTM,2024,123.584710969514,14.694358379653
$GNHDT,307.699,T*29
$PYRTM,2024,123.584716692847,14.694364102986
$GNGGA,140159.50,3420.65910905,N,12049.18847100,W,2,13,0.9,8.100,M,-37.587,M,4.4,0135*69
$PYRTM,2024,123.584716692847,14.694364102986
$GNHDT,307.253,T*2B
$PYRTM,2024,123.584722532037,14.694369942187
$GNGGA,140200.00,3420.65956956,N,12049.18914613,W,2,13,0.9,8.254,M,-37.587,M,5.0,0135*62
$PYRTM,2024,123.584722532037,14.694369942187
$GNHDT,307.528,T*20
$PYRTM,2024,123.584728273310,14.694375683461
$GNGGA,140200.50,3420.66007327,N,12049.18988505,W,2,13,0.9,7.964,M,-37.587,M,5.4,0135*67
$PYRTM,2024,123.584728273310,14.694375683461
$GNHDT,307.779,T*26
$PYRTM,2024,123.584734111030,14.694381521169
$GNGGA,140201.00,3420.66054514,N,12049.19062542,W,2,13,0.9,7.387,M,-37.587,M,6.0,0135*6C
$PYRTM,2024,123.584734111030,14.694381521169
$GNHDT,308.047,T*23
$PYRTM,2024,123.584739838519,14.694387248657
$GNGGA,140201.50,3420.66094822,N,12049.19135063,W,2,13,0.9,6.760,M,-37.587,M,6.4,0135*60
$PYRTM,2024,123.584739838519,14.694387248657
$GNHDT,307.680,T*21
$PYRTM,2024,123.584745684734,14.694393094873
$GNGGA,140202.00,3420.66126960,N,12049.19204631,W,2,13,0.9,6.349,M,-37.587,M,7.0,0135*63
$PYRTM,2024,123.584745684734,14.694393094873
$GNHDT,307.562,T*2E
$PYRTM,2024,123.584751419213,14.694398829352
$GNGGA,140202.50,3420.66150447,N,12049.19271121,W,2,13,0.9,6.309,M,-37.587,M,7.4,0135*6B
$PYRTM,2024,123.584751419213,14.694398829352
$GNHDT,307.096,T*20
$PYRTM,2024,123.584757256725,14.694404666863
$GNGGA,140203.00,3420.66167529,N,12049.19334435,W,2,13,0.9,6.578,M,-37.587,M,7.0,0135*66
$PYRTM,2024,123.584757256725,14.694404666863
$GNHDT,307.335,T*2A
$PYRTM,2024,123.584762993102,14.694410403241
$GNGGA,140203.50,3420.66183629,N,12049.19393939,W,2,13,0.9,7.009,M,-37.587,M,7.4,0135*60
$PYRTM,2024,123.584762993102,14.694410403241
$GNHDT,306.986,T*29
$PYRTM,2024,123.584768830752,14.694416240891
$GNGGA,140204.00,3420.66205064,N,12049.19452337,W,2,13,0.9,7.452,M,-37.587,M,7.0,0135*60
$PYRTM,2024,123.584768830752,14.694416240891
$GNHDT,306.902,T*25
$PYRTM,2024,123.584774557350,14.694421967488
$GNGGA,140204.50,3420.66238378,N,12049.19512119,W,2,13,0.9,7.676,M,-37.587,M,7.4,0135*6E
$PYRTM,2024,123.584774557350,14.694421967488
$GNHDT,307.144,T*2E
$PYRTM,2024,123.584780399815,14.694427809954
$GNGGA,140205.00,3420.66283269,N,12049.19574884,W,2,13,0.9,7.541,M,-37.587,M,4.0,0135*66
$PYRTM,2024,123.584780399815,14.694427809954
$GNHDT,307.527,T*2F
$PYRTM,2024,123.584786137859,14.694433547998
$GNGGA,140205.50,3420.66333755,N,12049.19638741,W,2,13,0.9,7.090,M,-37.587,M,4.4,0135*63
$PYRTM,2024,123.584786137859,14.694433547998
$GNHDT,307.081,T*26
$PYRTM,2024,123.584791985995,14.694439396134
$GNGGA,140206.00,3420.66382781,N,12049.19701919,W,2,13,0.9,6.517,M,-37.587,M,5.0,0135*60
$PYRTM,2024,123.584791985995,14.694439396134
$GNHDT,307.312,T*2F
$PYRTM,2024,123.584797704780,14.694445114919
$GNGGA,140206.50,3420.66423781,N,12049.19764610,W,2,13,0.9,6.088,M,-37.587,M,5.4,0135*6B
$PYRTM,2024,123.584797704780,14.694445114919
$GNHDT,307.153,T*28
$PYRTM,2024,123.584803555972,14.694450966111
$GNGGA,140207.00,3420.66455400,N,12049.19828231,W,2,13,0.9,5.934,M,-37.587,M,6.0,0135*6E
$PYRTM,2024,123.584803555972,14.694450966111
$GNHDT,307.564,T*28
$PYRTM,2024,123.584809279039,14.694456689178
$GNGGA,140207.50,3420.66478655,N,12049.19893556,W,2,13,0.9,6.116,M,-37.587,M,6.4,0135*6F
$PYRTM,2024,123.584809279039,14.694456689178
$GNHDT,307.190,T*27
$PYRTM,2024,123.584815122326,14.694462532465
$GNGGA,140208.00,3420.66498807,N,12049.19960067,W,2,13,0.9,6.448,M,-37.587,M,7.0,0135*63
$PYRTM,2024,123.584815122326,14.694462532465
$GNHDT,307.264,T*2F
$PYRTM,2024,123.584820857303,14.694468267442
$GNGGA,140208.50,3420.66520125,N,12049.20028270,W,2,13,0.9,6.856,M,-37.587,M,7.4,0135*61
$PYRTM,2024,123.584820857303,14.694468267442
$GNHDT,307.058,T*22
$PYRTM,2024,123.584826702384,14.694474112523
$GNGGA,140209.00,3420.66545997,N,12049.20097633,W,2,13,0.9,7.273,M,-37.587,M,7.0,0135*68
$PYRTM,2024,123.584826702384,14.694474112523
$GNHDT,307.012,T*2C
$PYRTM,2024,123.584832431620,14.694479841759
$GNGGA,140209.50,3420.66578319,N,12049.20165066,W,2,13,0.9,7.600,M,-37.587,M,7.4,0135*61
$PYRTM,2024,123.584832431620,14.694479841759
$GNHDT,306.958,T*2A
$PYRTM,2024,123.584838277130,14.694485687269
$GNGGA,140210.00,3420.66616530,N,12049.20227523,W,2,13,0.9,7.808,M,-37.587,M,7.0,0135*69
$PYRTM,2024,123.584838277130,14.694485687269
$GNHDT,307.062,T*2B
$PYRTM,2024,123.584844001979,14.694491412118
$GNGGA,140210.50,3420.66656950,N,12049.20283807,W,2,13,0.9,7.883,M,-37.587,M,7.4,0135*60
$PYRTM,2024,123.584844001979,14.694491412118
$GNHDT,307.332,T*2D
$PYRTM,2024,123.584849844572,14.694497254711
$GNGGA,140211.00,3420.66695392,N,12049.20336765,W,2,13,0.9,7.826,M,-37.587,M,4.0,0135*63
$PYRTM,2024,123.584849844572,14.694497254711
$GNHDT,307.238,T*26
$PYRTM,2024,123.584855576065,14.694502986204
$GNGGA,140211.50,3420.66731378,N,12049.20391616,W,2,13,0.9,7.646,M,-37.587,M,4.4,0135*69
$PYRTM,2024,123.584855576065,14.694502986204
$GNHDT,307.469,T*24
$PYRTM,2024,123.584861422384,14.694508832523
$GNGGA,140212.00,3420.66766560,N,12049.20453310,W,2,13,0.9,7.278,M,-37.587,M,5.0,0135*64
$PYRTM,2024,123.584861422384,14.694508832523
$GNHDT,307.221,T*2E
$PYRTM,2024,123.584867148796,14.694514558935
$GNGGA,140212.50,3420.66801874,N,12049.20522337,W,2,13,0.9,6.814,M,-37.587,M,5.4,0135*60
$PYRTM,2024,123.584867148796,14.694514558935
$GNHDT,306.967,T*26
$PYRTM,2024,123.584872993831,14.694520403970
$GNGGA,140213.00,3420.66835302,N,12049.20596468,W,2,13,0.9,6.364,M,-37.587,M,6.0,0135*60
$PYRTM,2024,123.584872993831,14.694520403970
$GNHDT,307.199,T*2E
$PYRTM,2024,123.584878731366,14.694526141505
$GNGGA,140213.50,3420.66866247,N,12049.20674347,W,2,13,0.9,6.052,M,-37.587,M,6.4,0135*64
$PYRTM,2024,123.584878731366,14.694526141505
$GNHDT,307.510,T*2B
$PYRTM,2024,123.584884571690,14.694531981829
$GNGGA,140214.00,3420.66897754,N,12049.20752315,W,2,13,0.9,5.941,M,-37.587,M,7.0,0135*60
$PYRTM,2024,123.584884571690,14.694531981829
$GNHDT,308.082,T*2A
$PYRTM,2024,123.584890299850,14.694537709988
$GNGGA,140214.50,3420.66932713,N,12049.20823951,W,2,13,0.9,6.048,M,-37.587,M,7.4,0135*6C
$PYRTM,2024,123.584890299850,14.694537709988
$GNHDT,308.075,T*22
$PYRTM,2024,123.584896145150,14.694543555289
$GNGGA,140215.00,3420.66973202,N,12049.20884280,W,2,13,0.9,6.370,M,-37.587,M,7.0,0135*6E
$PYRTM,2024,123.584896145150,14.694543555289
$GNHDT,308.234,T*25
$PYRTM,2024,123.584901879780,14.694549289919
$GNGGA,140215.50,3420.67017735,N,12049.20936913,W,2,13,0.9,6.813,M,-37.587,M,7.4,0135*63
$PYRTM,2024,123.584901879780,14.694549289919
$GNHDT,308.293,T*28
$PYRTM,2024,123.584907720347,14.694555130486
$GNGGA,140216.00,3420.67063290,N,12049.20990852,W,2,13,0.9,7.326,M,-37.587,M,7.0,0135*6C
$PYRTM,2024,123.584907720347,14.694555130486
$GNHDT,307.997,T*28
$PYRTM,2024,123.584913446030,14.694560856169
$GNGGA,140216.50,3420.67105172,N,12049.21053912,W,2,13,0.9,7.772,M,-37.587,M,7.4,0135*64
$PYRTM,2024,123.584913446030,14.694560856169
$GNHDT,307.691,T*21
$PYRTM,2024,123.584919294190,14.694566704329
$GNGGA,140217.00,3420.67141250,N,12049.21126464,W,2,13,0.9,8.101,M,-37.587,M,4.0,0135*66
$PYRTM,2024,123.584919294190,14.694566704329
$GNHDT,307.216,T*2A
$PYRTM,2024,123.584925023287,14.694572433426
$GNGGA,140217.50,3420.67171708,N,12049.21202994,W,2,13,0.9,8.281,M,-37.587,M,4.4,0135*60
$PYRTM,2024,123.584925023287,14.694572433426
$GNHDT,307.049,T*22
$PYRTM,2024,123.584930866782,14.694578276921
$GNGGA,140218.00,3420.67200378,N,12049.21275655,W,2,13,0.9,8.249,M,-37.587,M,5.0,0135*6F
$PYRTM,2024,123.584930866782,14.694578276921
$GNHDT,307.749,T*25
$PYRTM,2024,123.584936603322,14.694584013461
$GNGGA,140218.50,3420.67231749,N,12049.21341293,W,2,13,0.9,8.063,M,-37.587,M,5.4,0135*68
$PYRTM,2024,123.584936603322,14.694584013461
$GNHDT,308.700,T*27
$PYRTM,2024,123.584942434838,14.694589844977
$GNGGA,140219.00,3420.67269266,N,12049.21399407,W,2,13,0.9,7.713,M,-37.587,M,6.0,0135*6F
$PYRTM,2024,123.584942434838,14.694589844977
$GNHDT,309.220,T*21
$PYRTM,2024,123.584948170336,14.694595580475
$GNGGA,140219.50,3420.67312103,N,12049.21455594,W,2,13,0.9,7.269,M,-37.587,M,6.4,0135*67
$PYRTM,2024,123.584948170336,14.694595580475
$GNHDT,309.060,T*27
$PYRTM,2024,123.584954009514,14.694601419664
$GNGGA,140220.00,3420.67359508,N,12049.21514978,W,2,13,0.9,6.764,M,-37.587,M,7.0,0135*6E
$PYRTM,2024,123.584954009514,14.694601419664
$GNHDT,309.049,T*2C
$PYRTM,2024,123.584959741400,14.694607151539
$GNGGA,140220.50,3420.67409102,N,12049.21579969,W,2,13,0.9,6.299,M,-37.587,M,7.4,0135*6F
$PYRTM,2024,123.584959741400,14.694607151539
$GNHDT,309.125,T*27
$PYRTM,2024,123.584965589618,14.694612999757
$GNGGA,140221.00,3420.67458457,N,12049.21651252,W,2,13,0.9,5.962,M,-37.587,M,7.0,0135*68
$PYRTM,2024,123.584965589618,14.694612999757
$GNHDT,308.914,T*2C
$PYRTM,2024,123.584971319549,14.694618729687
$GNGGA,140221.50,3420.67501979,N,12049.21726988,W,2,13,0.9,5.898,M,-37.587,M,7.4,0135*6C
$PYRTM,2024,123.584971319549,14.694618729687
$GNHDT,309.043,T*26
$PYRTM,2024,123.584977166354,14.694624576493
$GNGGA,140222.00,3420.67536011,N,12049.21804480,W,2,13,0.9,6.173,M,-37.587,M,7.0,0135*68
$PYRTM,2024,123.584977166354,14.694624576493
$GNHDT,309.135,T*26
$PYRTM,2024,123.584982893403,14.694630303542
$GNGGA,140222.50,3420.67562092,N,12049.21880415,W,2,13,0.9,6.713,M,-37.587,M,7.4,0135*63
$PYRTM,2024,123.584982893403,14.694630303542
$GNHDT,309.330,T*21
$PYRTM,2024,123.584988734734,14.694636144873
$GNGGA,140223.00,3420.67586616,N,12049.21954975,W,2,13,0.9,7.289,M,-37.587,M,4.0,0135*64
$PYRTM,2024,123.584988734734,14.694636144873
$GNHDT,309.231,T*21
$PYRTM,2024,123.584994465961,14.694641876100
$GNGGA,140223.50,3420.67617742,N,12049.22026957,W,2,13,0.9,7.733,M,-37.587,M,4.4,0135*65
$PYRTM,2024,123.584994465961,14.694641876100
$GNHDT,308.297,T*2C
$PYRTM,2024,123.585000312465,14.694647722604
$GNGGA,140224.00,3420.67658220,N,12049.22100494,W,2,13,0.9,7.836,M,-37.587,M,5.0,0135*65
$PYRTM,2024,123.585000312465,14.694647722604
$GNHDT,308.176,T*20
$PYRTM,2024,123.585006046400,14.694653456539
$GNGGA,140224.50,3420.67704880,N,12049.22175644,W,2,13,0.9,7.595,M,-37.587,M,5.4,0135*65
$PYRTM,2024,123.585006046400,14.694653456539
$GNHDT,308.661,T*21
$PYRTM,2024,123.585011892072,14.694659302211
$GNGGA,140225.00,3420.67752274,N,12049.22247128,W,2,13,0.9,7.151,M,-37.587,M,6.0,0135*67
$PYRTM,2024,123.585011892072,14.694659302211
$GNHDT,308.605,T*23
$PYRTM,2024,123.585017613125,14.694665023264
$GNGGA,140225.50,3420.67796289,N,12049.22310990,W,2,13,0.9,6.733,M,-37.587,M,6.4,0135*67
$PYRTM,2024,123.585017613125,14.694665023264
$GNHDT,309.143,T*27
$PYRTM,2024,123.585023456285,14.694670866424
$GNGGA,140226.00,3420.67833740,N,12049.22365454,W,2,13,0.9,6.589,M,-37.587,M,7.0,0135*60
$PYRTM,2024,123.585023456285,14.694670866424
$GNHDT,309.552,T*23
$PYRTM,2024,123.585029191227,14.694676601366
$GNGGA,140226.50,3420.67863349,N,12049.22413980,W,2,13,0.9,6.761,M,-37.587,M,7.4,0135*6F
$PYRTM,2024,123.585029191227,14.694676601366
$GNHDT,309.461,T*22
$PYRTM,2024,123.585035039583,14.694682449722
$GNGGA,140227.00,3420.67887910,N,12049.22464337,W,2,13,0.9,7.146,M,-37.587,M,7.0,0135*67
$PYRTM,2024,123.585035039583,14.694682449722
$GNHDT,309.133,T*20
$PYRTM,2024,123.585040768137,14.694688178287
$GNGGA,140227.50,3420.67911801,N,12049.22521196,W,2,13,0.9,7.505,M,-37.587,M,7.4,0135*63
$PYRTM,2024,123.585040768137,14.694688178287
$GNHDT,309.040,T*25
$PYRTM,2024,123.585046609282,14.694694019421
$GNGGA,140228.00,3420.67940241,N,12049.22594323,W,2,13,0.9,7.581,M,-37.587,M,7.0,0135*69
$PYRTM,2024,123.585046609282,14.694694019421
$GNHDT,308.839,T*22
$PYRTM,2024,123.585052343715,14.694699753866
$GNGGA,140228.50,3420.67975792,N,12049.22680692,W,2,13,0.9,7.238,M,-37.587,M,7.4,0135*69
$PYRTM,2024,123.585052343715,14.694699753866
$GNHDT,308.888,T*28
$PYRTM,2024,123.585058187257,14.694705597396
