$PYRTM,2024,124.000000114317,15.109647524456
$GNGGA,000000.00,3454.43081974,N,12128.55005718,W,2,12,0.9,6.315,M,-37.885,M,5.0,0135*69
$PYRTM,2024,124.000000114317,15.109647524456
$GNHDT,341.860,T*23
$PYRTM,2024,124.000005848461,15.109653258600
$GNGGA,000000.50,3454.43099452,N,12128.55021312,W,2,12,0.9,6.349,M,-37.885,M,5.4,0135*69
$PYRTM,2024,124.000005848461,15.109653258600
$GNHDT,342.134,T*28
$PYRTM,2024,124.000011688345,15.109659098495
$GNGGA,000001.00,3454.43116505,N,12128.55040110,W,2,12,0.9,6.292,M,-37.885,M,6.0,0135*6F
$PYRTM,2024,124.000011688345,15.109659098495
$GNHDT,342.276,T*2D
$PYRTM,2024,124.000017423576,15.109664833727
$GNGGA,000001.50,3454.43132729,N,12128.55058404,W,2,12,0.9,6.210,M,-37.885,M,6.4,0135*67
$PYRTM,2024,124.000017423576,15.109664833727
$GNHDT,342.186,T*21
$PYRTM,2024,124.000023269410,15.109670679549
$GNGGA,000002.00,3454.43147260,N,12128.55071439,W,2,12,0.9,6.176,M,-37.885,M,7.0,0135*68
$PYRTM,2024,124.000023269410,15.109670679549
$GNHDT,342.120,T*2D
$PYRTM,2024,124.000028995972,15.109676406111
$GNGGA,000002.50,3454.43160624,N,12128.55077033,W,2,12,0.9,6.201,M,-37.885,M,7.4,0135*63
$PYRTM,2024,124.000028995972,15.109676406111
$GNHDT,342.191,T*27
$PYRTM,2024,124.000034838866,15.109682249005
$GNGGA,000003.00,3454.43173925,N,12128.55076795,W,2,12,0.9,6.280,M,-37.885,M,7.0,0135*6C
$PYRTM,2024,124.000034838866,15.109682249005
$GNHDT,342.394,T*20
$PYRTM,2024,124.000040572072,15.109687982211
$GNGGA,000003.50,3454.43189712,N,12128.55074446,W,2,12,0.9,6.319,M,-37.885,M,7.4,0135*6C
$PYRTM,2024,124.000040572072,15.109687982211
$GNHDT,342.663,T*2D
$PYRTM,2024,124.000046415868,15.109693826007
$GNGGA,000004.00,3454.43209193,N,12128.55075486,W,2,12,0.9,6.252,M,-37.885,M,7.0,0135*6D
$PYRTM,2024,124.000046415868,15.109693826007
$GNHDT,342.987,T*28
$PYRTM,2024,124.000052146505,15.109699556644
$GNGGA,000004.50,3454.43233982,N,12128.55081167,W,2,12,0.9,6.030,M,-37.885,M,7.4,0135*6A
$PYRTM,2024,124.000052146505,15.109699556644
$GNHDT,343.288,T*2D
$PYRTM,2024,124.000057987905,15.109705398044
$GNGGA,000005.00,3454.43262782,N,12128.55089981,W,2,12,0.9,5.733,M,-37.885,M,4.0,0135*6C
$PYRTM,2024,124.000057987905,15.109705398044
$GNHDT,343.278,T*22
$PYRTM,2024,124.000063722894,15.109711133032
$GNGGA,000005.50,3454.43285404,N,12128.55104239,W,2,12,0.9,5.591,M,-37.885,M,4.4,0135*6F
$PYRTM,2024,124.000063722894,15.109711133032
$GNHDT,343.104,T*2A
$PYRTM,2024,124.000069567350,15.109716977488
$GNGGA,000006.00,3454.43300448,N,12128.55118889,W,2,12,0.9,5.649,M,-37.885,M,5.0,0135*62
$PYRTM,2024,124.000069567350,15.109716977488
$GNHDT,343.220,T*2F
$PYRTM,2024,124.000075292546,15.109722702685
$GNGGA,000006.50,3454.43308606,N,12128.55130912,W,2,12,0.9,5.918,M,-37.885,M,5.4,0135*61
$PYRTM,2024,124.000075292546,15.109722702685
$GNHDT,343.704,T*2C
$PYRTM,2024,124.000081142164,15.109728552303
$GNGGA,000007.00,3454.43313830,N,12128.55140099,W,2,12,0.9,6.276,M,-37.885,M,6.0,0135*6E
$PYRTM,2024,124.000081142164,15.109728552303
$GNHDT,344.005,T*2D
$PYRTM,2024,124.000086864884,15.109734275023
$GNGGA,000007.50,3454.43323587,N,12128.55146802,W,2,12,0.9,6.558,M,-37.885,M,6.4,0135*6A
$PYRTM,2024,124.000086864884,15.109734275023
$GNHDT,343.988,T*26
$PYRTM,2024,124.000092705417,15.109740115556
$GNGGA,000008.00,3454.43342755,N,12128.55151329,W,2,12,0.9,6.592,M,-37.885,M,7.0,0135*6D
$PYRTM,2024,124.000092705417,15.109740115556
$GNHDT,343.906,T*20
$PYRTM,2024,124.000098439780,15.109745849931
$GNGGA,000008.50,3454.43369757,N,12128.55154794,W,2,12,0.9,6.349,M,-37.885,M,7.4,0135*60
$PYRTM,2024,124.000098439780,15.109745849931
$GNHDT,343.852,T*20
$PYRTM,2024,124.000104280185,15.109751690324
$GNGGA,000009.00,3454.43399038,N,12128.55161484,W,2,12,0.9,5.977,M,-37.885,M,7.0,0135*61
$PYRTM,2024,124.000104280185,15.109751690324
$GNHDT,343.801,T*26
$PYRTM,2024,124.000110019410,15.109757429549
$GNGGA,000009.50,3454.43425940,N,12128.55170904,W,2,12,0.9,5.645,M,-37.885,M,7.4,0135*6D
$PYRTM,2024,124.000110019410,15.109757429549
$GNHDT,343.762,T*2C
$PYRTM,2024,124.000115854225,15.109763264363
$GNGGA,000010.00,3454.43448635,N,12128.55177610,W,2,12,0.9,5.501,M,-37.885,M,7.0,0135*6C
$PYRTM,2024,124.000115854225,15.109763264363
$GNHDT,343.875,T*25
$PYRTM,2024,124.000121591655,15.109769001794
$GNGGA,000010.50,3454.43464315,N,12128.55181218,W,2,12,0.9,5.640,M,-37.885,M,7.4,0135*67
$PYRTM,2024,124.000121591655,15.109769001794
$GNHDT,344.117,T*2F
$PYRTM,2024,124.000127434363,15.109774844502
$GNGGA,000011.00,3454.43474176,N,12128.55178937,W,2,12,0.9,5.965,M,-37.885,M,4.0,0135*6A
$PYRTM,2024,124.000127434363,15.109774844502
$GNHDT,344.719,T*27
$PYRTM,2024,124.000133167072,15.109780577211
$GNGGA,000011.50,3454.43481943,N,12128.55172244,W,2,12,0.9,6.355,M,-37.885,M,4.4,0135*60
$PYRTM,2024,124.000133167072,15.109780577211
$GNHDT,345.207,T*2C
$PYRTM,2024,124.000139004572,15.109786414722
$GNGGA,000012.00,3454.43492270,N,12128.55164058,W,2,12,0.9,6.656,M,-37.885,M,5.0,0135*64
$PYRTM,2024,124.000139004572,15.109786414722
$GNHDT,345.697,T*21
$PYRTM,2024,124.000144739861,15.109792150000
$GNGGA,000012.50,3454.43509069,N,12128.55158221,W,2,12,0.9,6.718,M,-37.885,M,5.4,0135*64
$PYRTM,2024,124.000144739861,15.109792150000
$GNHDT,346.222,T*28
$PYRTM,2024,124.000150577176,15.109797987303
$GNGGA,000013.00,3454.43532858,N,12128.55155972,W,2,12,0.9,6.512,M,-37.885,M,6.0,0135*6D
$PYRTM,2024,124.000150577176,15.109797987303
$GNHDT,346.335,T*2F
$PYRTM,2024,124.000156319456,15.109803729595
$GNGGA,000013.50,3454.43558911,N,12128.55159181,W,2,12,0.9,6.164,M,-37.885,M,6.4,0135*61
$PYRTM,2024,124.000156319456,15.109803729595
$GNHDT,346.041,T*2F
$PYRTM,2024,124.000162160833,15.109809570972
$GNGGA,000014.00,3454.43583109,N,12128.55168759,W,2,12,0.9,5.722,M,-37.885,M,7.0,0135*67
$PYRTM,2024,124.000162160833,15.109809570972
$GNHDT,345.846,T*23
$PYRTM,2024,124.000167883519,15.109815293657
$GNGGA,000014.50,3454.43602042,N,12128.55184261,W,2,12,0.9,5.411,M,-37.885,M,7.4,0135*6D
$PYRTM,2024,124.000167883519,15.109815293657
$GNHDT,345.599,T*2C
$PYRTM,2024,124.000173732940,15.109821143079
$GNGGA,000015.00,3454.43612692,N,12128.55201618,W,2,12,0.9,5.314,M,-37.885,M,7.0,0135*61
$PYRTM,2024,124.000173732940,15.109821143079
$GNHDT,345.819,T*29
$PYRTM,2024,124.000179459201,15.109826869340
$GNGGA,000015.50,3454.43619536,N,12128.55215603,W,2,12,0.9,5.426,M,-37.885,M,7.4,0135*6F
$PYRTM,2024,124.000179459201,15.109826869340
$GNHDT,345.870,T*26
$PYRTM,2024,124.000185304109,15.109832714248
$GNGGA,000016.00,3454.43627606,N,12128.55221918,W,2,12,0.9,5.633,M,-37.885,M,7.0,0135*64
$PYRTM,2024,124.000185304109,15.109832714248
$GNHDT,346.212,T*2B
$PYRTM,2024,124.000191035799,15.109838445949
$GNGGA,000016.50,3454.43643841,N,12128.55219901,W,2,12,0.9,5.759,M,-37.885,M,7.4,0135*64
$PYRTM,2024,124.000191035799,15.109838445949
$GNHDT,346.592,T*24
$PYRTM,2024,124.000196874595,15.109844284734
$GNGGA,000017.00,3454.43669045,N,12128.55212026,W,2,12,0.9,5.723,M,-37.885,M,4.0,0135*69
$PYRTM,2024,124.000196874595,15.109844284734
$GNHDT,346.916,T*24
$PYRTM,2024,124.000202611933,15.109850022072
$GNGGA,000017.50,3454.43697203,N,12128.55204586,W,2,12,0.9,5.579,M,-37.885,M,4.4,0135*6C
$PYRTM,2024,124.000202611933,15.109850022072
$GNHDT,346.685,T*21
$PYRTM,2024,124.000208453576,15.109855863727
$GNGGA,000018.00,3454.43723511,N,12128.55203408,W,2,12,0.9,5.487,M,-37.885,M,5.0,0135*69
$PYRTM,2024,124.000208453576,15.109855863727
$GNHDT,346.773,T*29
$PYRTM,2024,124.000214181470,15.109861591609
$GNGGA,000018.50,3454.43743408,N,12128.55208917,W,2,12,0.9,5.559,M,-37.885,M,5.4,0135*6D
$PYRTM,2024,124.000214181470,15.109861591609
$GNHDT,346.863,T*27
$PYRTM,2024,124.000220026343,15.109867436481
$GNGGA,000019.00,3454.43755233,N,12128.55216784,W,2,12,0.9,5.867,M,-37.885,M,6.0,0135*6C
$PYRTM,2024,124.000220026343,15.109867436481
$GNHDT,347.232,T*28
$PYRTM,2024,124.000225753148,15.109873163287
$GNGGA,000019.50,3454.43762121,N,12128.55220843,W,2,12,0.9,6.265,M,-37.885,M,6.4,0135*63
$PYRTM,2024,124.000225753148,15.109873163287
$GNHDT,347.423,T*2E
$PYRTM,2024,124.000231600880,15.109879011019
$GNGGA,000020.00,3454.43767561,N,12128.55221060,W,2,12,0.9,6.627,M,-37.885,M,7.0,0135*66
$PYRTM,2024,124.000231600880,15.109879011019
$GNHDT,347.670,T*2A
$PYRTM,2024,124.000237331377,15.109884741528
$GNGGA,000020.50,3454.43777964,N,12128.55220509,W,2,12,0.9,6.757,M,-37.885,M,7.4,0135*62
$PYRTM,2024,124.000237331377,15.109884741528
$GNHDT,347.783,T*27
$PYRTM,2024,124.000243175498,15.109890585637
$GNGGA,000021.00,3454.43795470,N,12128.55225701,W,2,12,0.9,6.478,M,-37.885,M,7.0,0135*67
$PYRTM,2024,124.000243175498,15.109890585637
$GNHDT,347.884,T*2F
$PYRTM,2024,124.000248907778,15.109896317917
$GNGGA,000021.50,3454.43818016,N,12128.55235351,W,2,12,0.9,5.935,M,-37.885,M,7.4,0135*6F
$PYRTM,2024,124.000248907778,15.109896317917
$GNHDT,347.469,T*20
$PYRTM,2024,124.000254742130,15.109902152269
$GNGGA,000022.00,3454.43840417,N,12128.55246830,W,2,12,0.9,5.326,M,-37.885,M,7.0,0135*65
$PYRTM,2024,124.000254742130,15.109902152269
$GNHDT,347.296,T*26
$PYRTM,2024,124.000260475694,15.109907885845
$GNGGA,000022.50,3454.43861047,N,12128.55255115,W,2,12,0.9,4.873,M,-37.885,M,7.4,0135*60
$PYRTM,2024,124.000260475694,15.109907885845
$GNHDT,347.481,T*26
$PYRTM,2024,124.000266324641,15.109913734780
$GNGGA,000023.00,3454.43877340,N,12128.55255679,W,2,12,0.9,4.764,M,-37.885,M,4.0,0135*64
$PYRTM,2024,124.000266324641,15.109913734780
$GNHDT,347.549,T*23
$PYRTM,2024,124.000272052523,15.109919462662
$GNGGA,000023.50,3454.43892153,N,12128.55249072,W,2,12,0.9,4.943,M,-37.885,M,4.4,0135*65
$PYRTM,2024,124.000272052523,15.109919462662
$GNHDT,347.710,T*2D
$PYRTM,2024,124.000277897083,15.109925307222
$GNGGA,000024.00,3454.43905248,N,12128.55240138,W,2,12,0.9,5.360,M,-37.885,M,5.0,0135*68
$PYRTM,2024,124.000277897083,15.109925307222
$GNHDT,348.048,T*28
$PYRTM,2024,124.000283626979,15.109931037118
$GNGGA,000024.50,3454.43919633,N,12128.55232319,W,2,12,0.9,5.830,M,-37.885,M,5.4,0135*66
$PYRTM,2024,124.000283626979,15.109931037118
$GNHDT,348.315,T*23
$PYRTM,2024,124.000289467593,15.109936877731
$GNGGA,000025.00,3454.43931336,N,12128.55230776,W,2,12,0.9,6.355,M,-37.885,M,6.0,0135*6B
$PYRTM,2024,124.000289467593,15.109936877731
$GNHDT,348.675,T*20
$PYRTM,2024,124.000295199225,15.109942609363
$GNGGA,000025.50,3454.43944329,N,12128.55231145,W,2,12,0.9,6.743,M,-37.885,M,6.4,0135*62
$PYRTM,2024,124.000295199225,15.109942609363
$GNHDT,349.126,T*20
$PYRTM,2024,124.000301043391,15.109948453530
$GNGGA,000026.00,3454.43960280,N,12128.55233946,W,2,12,0.9,6.909,M,-37.885,M,7.0,0135*6C
$PYRTM,2024,124.000301043391,15.109948453530
$GNHDT,349.469,T*2E
$PYRTM,2024,124.000306782662,15.109954192801
$GNGGA,000026.50,3454.43981475,N,12128.55235686,W,2,12,0.9,6.810,M,-37.885,M,7.4,0135*62
$PYRTM,2024,124.000306782662,15.109954192801
$GNHDT,349.744,T*22
$PYRTM,2024,124.000312619016,15.109960029155
$GNGGA,000027.00,3454.44004009,N,12128.55237471,W,2,12,0.9,6.533,M,-37.885,M,7.0,0135*6A
$PYRTM,2024,124.000312619016,15.109960029155
$GNHDT,350.147,T*2F
$PYRTM,2024,124.000318347720,15.109965757859
$GNGGA,000027.50,3454.44025974,N,12128.55239060,W,2,12,0.9,6.245,M,-37.885,M,7.4,0135*67
$PYRTM,2024,124.000318347720,15.109965757859
$GNHDT,349.873,T*29
$PYRTM,2024,124.000324190995,15.109971601134
$GNGGA,000028.00,3454.44045407,N,12128.55242799,W,2,12,0.9,6.013,M,-37.885,M,7.0,0135*6A
$PYRTM,2024,124.000324190995,15.109971601134
$GNHDT,349.453,T*27
$PYRTM,2024,124.000329924028,15.109977334167
$GNGGA,000028.50,3454.44061746,N,12128.55247985,W,2,12,0.9,5.921,M,-37.885,M,7.4,0135*66
$PYRTM,2024,124.000329924028,15.109977334167
$GNHDT,349.185,T*29
$PYRTM,2024,124.000335764780,15.109983174919
$GNGGA,000029.00,3454.44074760,N,12128.55252278,W,2,12,0.9,5.948,M,-37.885,M,4.0,0135*67
$PYRTM,2024,124.000335764780,15.109983174919
$GNHDT,348.961,T*2A
$PYRTM,2024,124.000341498611,15.109988908750
$GNGGA,000029.50,3454.44087803,N,12128.55254860,W,2,12,0.9,6.000,M,-37.885,M,4.4,0135*63
$PYRTM,2024,124.000341498611,15.109988908750
$GNHDT,348.818,T*25
$PYRTM,2024,124.000347341817,15.109994751956
$GNGGA,000030.00,3454.44105539,N,12128.55257068,W,2,12,0.9,6.005,M,-37.885,M,5.0,0135*62
$PYRTM,2024,124.000347341817,15.109994751956
$GNHDT,348.682,T*28
$PYRTM,2024,124.000353078600,15.110000488738
$GNGGA,000030.50,3454.44127333,N,12128.55261064,W,2,12,0.9,5.986,M,-37.885,M,5.4,0135*67
$PYRTM,2024,124.000353078600,15.110000488738
$GNHDT,348.640,T*26
$PYRTM,2024,124.000358910718,15.110006320856
$GNGGA,000031.00,3454.44151718,N,12128.55266444,W,2,12,0.9,5.978,M,-37.885,M,6.0,0135*68
$PYRTM,2024,124.000358910718,15.110006320856
$GNHDT,348.509,T*28
$PYRTM,2024,124.000364642199,15.110012052338
$GNGGA,000031.50,3454.44174270,N,12128.55269847,W,2,12,0.9,6.065,M,-37.885,M,6.4,0135*63
$PYRTM,2024,124.000364642199,15.110012052338
$GNHDT,348.571,T*27
$PYRTM,2024,124.000370489502,15.110017899641
$GNGGA,000032.00,3454.44192420,N,12128.55269530,W,2,12,0.9,6.265,M,-37.885,M,7.0,0135*64
$PYRTM,2024,124.000370489502,15.110017899641
$GNHDT,348.600,T*22
$PYRTM,2024,124.000376220174,15.110023630301
$GNGGA,000032.50,3454.44205423,N,12128.55264100,W,2,12,0.9,6.518,M,-37.885,M,7.4,0135*6C
$PYRTM,2024,124.000376220174,15.110023630301
$GNHDT,349.005,T*20
$PYRTM,2024,124.000382059699,15.110029469838
$GNGGA,000033.00,3454.44215952,N,12128.55253880,W,2,12,0.9,6.765,M,-37.885,M,7.0,0135*6B
$PYRTM,2024,124.000382059699,15.110029469838
$GNHDT,349.398,T*27
$PYRTM,2024,124.000387793160,15.110035203299
$GNGGA,000033.50,3454.44228553,N,12128.55239196,W,2,12,0.9,6.876,M,-37.885,M,7.4,0135*66
$PYRTM,2024,124.000387793160,15.110035203299
$GNHDT,349.528,T*2A
$PYRTM,2024,124.000393637593,15.110041047731
$GNGGA,000034.00,3454.44246291,N,12128.55224356,W,2,12,0.9,6.776,M,-37.885,M,7.0,0135*6C
$PYRTM,2024,124.000393637593,15.110041047731
$GNHDT,349.531,T*22
$PYRTM,2024,124.000399364282,15.110046774421
$GNGGA,000034.50,3454.44268582,N,12128.55215713,W,2,12,0.9,6.444,M,-37.885,M,7.4,0135*61
$PYRTM,2024,124.000399364282,15.110046774421
$GNHDT,349.477,T*21
$PYRTM,2024,124.000405208067,15.110052618206
$GNGGA,000035.00,3454.44292643,N,12128.55218001,W,2,12,0.9,6.041,M,-37.885,M,4.0,0135*61
$PYRTM,2024,124.000405208067,15.110052618206
$GNHDT,348.900,T*2D
$PYRTM,2024,124.000410945231,15.110058355382
$GNGGA,000035.50,3454.44314574,N,12128.55234131,W,2,12,0.9,5.680,M,-37.885,M,4.4,0135*6C
$PYRTM,2024,124.000410945231,15.110058355382
$GNHDT,348.436,T*25
$PYRTM,2024,124.000416789896,15.110064200035
$GNGGA,000036.00,3454.44332199,N,12128.55260223,W,2,12,0.9,5.474,M,-37.885,M,5.0,0135*64
$PYRTM,2024,124.000416789896,15.110064200035
$GNHDT,348.112,T*26
$PYRTM,2024,124.000422518819,15.110069928958
$GNGGA,000036.50,3454.44345996,N,12128.55287628,W,2,12,0.9,5.480,M,-37.885,M,5.4,0135*6F
$PYRTM,2024,124.000422518819,15.110069928958
$GNHDT,347.568,T*20
$PYRTM,2024,124.000428360648,15.110075770787
$GNGGA,000037.00,3454.44359109,N,12128.55304800,W,2,12,0.9,5.667,M,-37.885,M,6.0,0135*6A
$PYRTM,2024,124.000428360648,15.110075770787
$GNHDT,347.610,T*2C
$PYRTM,2024,124.000434098009,15.110081508148
$GNGGA,000037.50,3454.44374490,N,12128.55304181,W,2,12,0.9,5.984,M,-37.885,M,6.4,0135*63
$PYRTM,2024,124.000434098009,15.110081508148
$GNHDT,347.461,T*28
$PYRTM,2024,124.000439933600,15.110087343738
$GNGGA,000038.00,3454.44390357,N,12128.55287370,W,2,12,0.9,6.366,M,-37.885,M,7.0,0135*69
$PYRTM,2024,124.000439933600,15.110087343738
$GNHDT,347.559,T*22
$PYRTM,2024,124.000445671829,15.110093081968
$GNGGA,000038.50,3454.44406640,N,12128.55259308,W,2,12,0.9,6.702,M,-37.885,M,7.4,0135*69
$PYRTM,2024,124.000445671829,15.110093081968
$GNHDT,347.592,T*25
$PYRTM,2024,124.000451505509,15.110098915648
$GNGGA,000039.00,3454.44422603,N,12128.55231135,W,2,12,0.9,6.908,M,-37.885,M,7.0,0135*6E
$PYRTM,2024,124.000451505509,15.110098915648
$GNHDT,347.695,T*21
$PYRTM,2024,124.000457242454,15.110104652593
$GNGGA,000039.50,3454.44439607,N,12128.55213923,W,2,12,0.9,6.878,M,-37.885,M,7.4,0135*68
$PYRTM,2024,124.000457242454,15.110104652593
$GNHDT,348.367,T*26
$PYRTM,2024,124.000463080394,15.110110490532
$GNGGA,000040.00,3454.44458686,N,12128.55212652,W,2,12,0.9,6.617,M,-37.885,M,7.0,0135*66
$PYRTM,2024,124.000463080394,15.110110490532
$GNHDT,348.810,T*2D
$PYRTM,2024,124.000468818044,15.110116228183
$GNGGA,000040.50,3454.44478581,N,12128.55226782,W,2,12,0.9,6.283,M,-37.885,M,7.4,0135*63
$PYRTM,2024,124.000468818044,15.110116228183
$GNHDT,347.987,T*2D
$PYRTM,2024,124.000474656829,15.110122066968
$GNGGA,000041.00,3454.44498299,N,12128.55250023,W,2,12,0.9,5.939,M,-37.885,M,4.0,0135*64
$PYRTM,2024,124.000474656829,15.110122066968
$GNHDT,347.489,T*2E
$PYRTM,2024,124.000480388310,15.110127798449
$GNGGA,000041.50,3454.44514414,N,12128.55275883,W,2,12,0.9,5.771,M,-37.885,M,4.4,0135*64
$PYRTM,2024,124.000480388310,15.110127798449
$GNHDT,347.624,T*2B
$PYRTM,2024,124.000486227245,15.110133637384
$GNGGA,000042.00,3454.44525131,N,12128.55295524,W,2,12,0.9,5.872,M,-37.885,M,5.0,0135*65
$PYRTM,2024,124.000486227245,15.110133637384
$GNHDT,347.011,T*2B
$PYRTM,2024,124.000491961690,15.110139371829
$GNGGA,000042.50,3454.44534381,N,12128.55303561,W,2,12,0.9,6.151,M,-37.885,M,5.4,0135*69
$PYRTM,2024,124.000491961690,15.110139371829
$GNHDT,346.567,T*2E
$PYRTM,2024,124.000497805475,15.110145215613
$GNGGA,000043.00,3454.44546818,N,12128.55297555,W,2,12,0.9,6.468,M,-37.885,M,6.0,0135*60
$PYRTM,2024,124.000497805475,15.110145215613
$GNHDT,346.378,T*26
$PYRTM,2024,124.000503537083,15.110150947222
$GNGGA,000043.50,3454.44567648,N,12128.55282252,W,2,12,0.9,6.616,M,-37.885,M,6.4,0135*66
$PYRTM,2024,124.000503537083,15.110150947222
$GNHDT,346.187,T*24
$PYRTM,2024,124.000509381053,15.110156791192
$GNGGA,000044.00,3454.44595643,N,12128.55265609,W,2,12,0.9,6.582,M,-37.885,M,7.0,0135*6A
$PYRTM,2024,124.000509381053,15.110156791192
$GNHDT,346.410,T*2F
$PYRTM,2024,124.000515110359,15.110162520509
$GNGGA,000044.50,3454.44624933,N,12128.55252986,W,2,12,0.9,6.441,M,-37.885,M,7.4,0135*68
$PYRTM,2024,124.000515110359,15.110162520509
$GNHDT,346.685,T*21
$PYRTM,2024,124.000520951944,15.110168362083
$GNGGA,000045.00,3454.44650275,N,12128.55248244,W,2,12,0.9,6.327,M,-37.885,M,7.0,0135*6B
$PYRTM,2024,124.000520951944,15.110168362083
$GNHDT,346.967,T*22
$PYRTM,2024,124.000526685787,15.110174095926
$GNGGA,000045.50,3454.44669894,N,12128.55251153,W,2,12,0.9,6.343,M,-37.885,M,7.4,0135*6A
$PYRTM,2024,124.000526685787,15.110174095926
$GNHDT,346.744,T*2D
$PYRTM,2024,124.000532527917,15.110179938056
$GNGGA,000046.00,3454.44683569,N,12128.55259681,W,2,12,0.9,6.505,M,-37.885,M,7.0,0135*67
$PYRTM,2024,124.000532527917,15.110179938056
$GNHDT,346.808,T*2A
$PYRTM,2024,124.000538256597,15.110185666748
$GNGGA,000046.50,3454.44694225,N,12128.55270289,W,2,12,0.9,6.753,M,-37.885,M,7.4,0135*69
$PYRTM,2024,124.000538256597,15.110185666748
$GNHDT,346.626,T*28
$PYRTM,2024,124.000544096528,15.110191506667
$GNGGA,000047.00,3454.44703515,N,12128.55281181,W,2,12,0.9,6.946,M,-37.885,M,4.0,0135*6E
$PYRTM,2024,124.000544096528,15.110191506667
$GNHDT,346.399,T*29
$PYRTM,2024,124.000549834294,15.110197244433
$GNGGA,000047.50,3454.44715050,N,12128.55290103,W,2,12,0.9,7.012,M,-37.885,M,4.4,0135*6F
$PYRTM,2024,124.000549834294,15.110197244433
$GNHDT,346.472,T*2B
$PYRTM,2024,124.000555674213,15.110203084352
$GNGGA,000048.00,3454.44729424,N,12128.55295629,W,2,12,0.9,6.892,M,-37.885,M,5.0,0135*63
$PYRTM,2024,124.000555674213,15.110203084352
$GNHDT,346.733,T*2D
$PYRTM,2024,124.000561404201,15.110208814340
$GNGGA,000048.50,3454.44746639,N,12128.55297582,W,2,12,0.9,6.652,M,-37.885,M,5.4,0135*67
$PYRTM,2024,124.000561404201,15.110208814340
$GNHDT,346.753,T*2B
$PYRTM,2024,124.000567241968,15.110214652106
$GNGGA,000049.00,3454.44766790,N,12128.55295386,W,2,12,0.9,6.342,M,-37.885,M,6.0,0135*60
$PYRTM,2024,124.000567241968,15.110214652106
$GNHDT,346.502,T*2D
$PYRTM,2024,124.000572980799,15.110220390938
$GNGGA,000049.50,3454.44788301,N,12128.55291343,W,2,12,0.9,6.039,M,-37.885,M,6.4,0135*6F
$PYRTM,2024,124.000572980799,15.110220390938
$GNHDT,346.035,T*2C
$PYRTM,2024,124.000578823229,15.110226233368
$GNGGA,000050.00,3454.44810902,N,12128.55288360,W,2,12,0.9,5.762,M,-37.885,M,7.0,0135*63
$PYRTM,2024,124.000578823229,15.110226233368
$GNHDT,345.478,T*22
$PYRTM,2024,124.000584554907,15.110231965046
$GNGGA,000050.50,3454.44834605,N,12128.55290246,W,2,12,0.9,5.597,M,-37.885,M,7.4,0135*68
$PYRTM,2024,124.000584554907,15.110231965046
$GNHDT,345.250,T*2E
$PYRTM,2024,124.000590396817,15.110237806956
$GNGGA,000051.00,3454.44857801,N,12128.55298035,W,2,12,0.9,5.554,M,-37.885,M,7.0,0135*66
$PYRTM,2024,124.000590396817,15.110237806956
$GNHDT,345.233,T*2B
$PYRTM,2024,124.000596123831,15.110243533970
$GNGGA,000051.50,3454.44878943,N,12128.55310491,W,2,12,0.9,5.679,M,-37.885,M,7.4,0135*6A
$PYRTM,2024,124.000596123831,15.110243533970
$GNHDT,345.043,T*2E
$PYRTM,2024,124.000601967269,15.110249377407
$GNGGA,000052.00,3454.44896620,N,12128.55323211,W,2,12,0.9,5.956,M,-37.885,M,7.0,0135*6E
$PYRTM,2024,124.000601967269,15.110249377407
$GNHDT,345.370,T*2D
$PYRTM,2024,124.000607703148,15.110255113287
$GNGGA,000052.50,3454.44910319,N,12128.55333376,W,2,12,0.9,6.370,M,-37.885,M,7.4,0135*63
$PYRTM,2024,124.000607703148,15.110255113287
$GNHDT,345.173,T*2C
$PYRTM,2024,124.000613558426,15.110260968565
$GNGGA,000053.00,3454.44920988,N,12128.55337067,W,2,12,0.9,6.796,M,-37.885,M,4.0,0135*6A
$PYRTM,2024,124.000613558426,15.110260968565
$GNHDT,345.515,T*28
$PYRTM,2024,124.000619276759,15.110266686910
$GNGGA,000053.50,3454.44930866,N,12128.55333041,W,2,12,0.9,7.110,M,-37.885,M,4.4,0135*62
$PYRTM,2024,124.000619276759,15.110266686910
$GNHDT,345.732,T*2F
$PYRTM,2024,124.000625114086,15.110272524225
$GNGGA,000054.00,3454.44944074,N,12128.55323232,W,2,12,0.9,7.189,M,-37.885,M,5.0,0135*6A
$PYRTM,2024,124.000625114086,15.110272524225
$GNHDT,345.995,T*2C
$PYRTM,2024,124.000630845787,15.110278255926
$GNGGA,000054.50,3454.44961226,N,12128.55314017,W,2,12,0.9,6.980,M,-37.885,M,5.4,0135*68
$PYRTM,2024,124.000630845787,15.110278255926
$GNHDT,345.943,T*27
$PYRTM,2024,124.000636689757,15.110284099896
$GNGGA,000055.00,3454.44982502,N,12128.55310452,W,2,12,0.9,6.508,M,-37.885,M,6.0,0135*6A
$PYRTM,2024,124.000636689757,15.110284099896
$GNHDT,345.844,T*21
$PYRTM,2024,124.000642426887,15.110289837025
$GNGGA,000055.50,3454.45006063,N,12128.55315722,W,2,12,0.9,5.932,M,-37.885,M,6.4,0135*6A
$PYRTM,2024,124.000642426887,15.110289837025
$GNHDT,345.534,T*2B
$PYRTM,2024,124.000648265174,15.110295675312
$GNGGA,000056.00,3454.45029266,N,12128.55327831,W,2,12,0.9,5.403,M,-37.885,M,7.0,0135*60
$PYRTM,2024,124.000648265174,15.110295675312
$GNHDT,345.289,T*2A
$PYRTM,2024,124.000653992743,15.110301402882
$GNGGA,000056.50,3454.45050188,N,12128.55344941,W,2,12,0.9,5.146,M,-37.885,M,7.4,0135*6B
$PYRTM,2024,124.000653992743,15.110301402882
$GNHDT,344.731,T*2D
$PYRTM,2024,124.000659834606,15.110307244745
$GNGGA,000057.00,3454.45066111,N,12128.55359902,W,2,12,0.9,5.257,M,-37.885,M,7.0,0135*66
$PYRTM,2024,124.000659834606,15.110307244745
$GNHDT,344.695,T*22
$PYRTM,2024,124.000665571192,15.110312981331
$GNGGA,000057.50,3454.45078089,N,12128.55369271,W,2,12,0.9,5.685,M,-37.885,M,7.4,0135*6F
$PYRTM,2024,124.000665571192,15.110312981331
$GNHDT,344.553,T*2B
$PYRTM,2024,124.000671415799,15.110318825937
$GNGGA,000058.00,3454.45087103,N,12128.55373135,W,2,12,0.9,6.268,M,-37.885,M,7.0,0135*6E
$PYRTM,2024,124.000671415799,15.110318825937
$GNHDT,344.799,T*2F
$PYRTM,2024,124.000677144977,15.110324555116
$GNGGA,000058.50,3454.45098822,N,12128.55372909,W,2,12,0.9,6.791,M,-37.885,M,7.4,0135*6E
$PYRTM,2024,124.000677144977,15.110324555116
$GNHDT,345.172,T*2D
$PYRTM,2024,124.000682986157,15.110330396296
$GNGGA,000059.00,3454.45117380,N,12128.55370622,W,2,12,0.9,7.112,M,-37.885,M,4.0,0135*60
$PYRTM,2024,124.000682986157,15.110330396296
$GNHDT,345.315,T*2E
$PYRTM,2024,124.000688718380,15.110336128519
$GNGGA,000059.50,3454.45142498,N,12128.55367841,W,2,12,0.9,7.181,M,-37.884,M,4.4,0135*69
$PYRTM,2024,124.000688718380,15.110336128519
$GNHDT,345.233,T*2B
$PYRTM,2024,124.000694563218,15.110341973391
$GNGGA,000100.00,3454.45168455,N,12128.55364022,W,2,12,0.9,7.053,M,-37.884,M,5.0,0135*6D
$PYRTM,2024,124.000694563218,15.110341973391
$GNHDT,345.157,T*2A
$PYRTM,2024,124.000700301470,15.110347711609
$GNGGA,000100.50,3454.45190899,N,12128.55358546,W,2,12,0.9,6.890,M,-37.884,M,5.4,0135*69
$PYRTM,2024,124.000700301470,15.110347711609
$GNHDT,345.308,T*22
$PYRTM,2024,124.000706131250,15.110353541389
$GNGGA,000101.00,3454.45208316,N,12128.55349560,W,2,12,0.9,6.772,M,-37.884,M,6.0,0135*63
$PYRTM,2024,124.000706131250,15.110353541389
$GNHDT,345.496,T*22
$PYRTM,2024,124.000711865081,15.110359275220
$GNGGA,000101.50,3454.45221817,N,12128.55339777,W,2,12,0.9,6.754,M,-37.884,M,6.4,0135*64
$PYRTM,2024,124.000711865081,15.110359275220
$GNHDT,345.880,T*29
$PYRTM,2024,124.000717707454,15.110365117593
$GNGGA,000102.00,3454.45234206,N,12128.55332209,W,2,12,0.9,6.789,M,-37.884,M,7.0,0135*6E
$PYRTM,2024,124.000717707454,15.110365117593
$GNHDT,346.042,T*2C
$PYRTM,2024,124.000723444525,15.110370854676
$GNGGA,000102.50,3454.45249444,N,12128.55330637,W,2,12,0.9,6.768,M,-37.884,M,7.4,0135*61
$PYRTM,2024,124.000723444525,15.110370854676
$GNHDT,346.228,T*22
$PYRTM,2024,124.000729286759,15.110376696898
$GNGGA,000103.00,3454.45268626,N,12128.55336457,W,2,12,0.9,6.585,M,-37.884,M,7.0,0135*67
$PYRTM,2024,124.000729286759,15.110376696898
$GNHDT,346.273,T*2C
$PYRTM,2024,124.000735018495,15.110382428646
$GNGGA,000103.50,3454.45291978,N,12128.55349562,W,2,12,0.9,6.270,M,-37.884,M,7.4,0135*66
$PYRTM,2024,124.000735018495,15.110382428646
$GNHDT,345.563,T*29
$PYRTM,2024,124.000740862998,15.110388273148
$GNGGA,000104.00,3454.45316459,N,12128.55370620,W,2,12,0.9,5.893,M,-37.884,M,7.0,0135*6B
$PYRTM,2024,124.000740862998,15.110388273148
$GNHDT,345.212,T*28
$PYRTM,2024,124.000746592454,15.110394002593
$GNGGA,000104.50,3454.45339107,N,12128.55392628,W,2,12,0.9,5.651,M,-37.884,M,7.4,0135*6D
$PYRTM,2024,124.000746592454,15.110394002593
$GNHDT,344.374,T*28
$PYRTM,2024,124.000752435752,15.110399845891
$GNGGA,000105.00,3454.45357162,N,12128.55407417,W,2,12,0.9,5.695,M,-37.884,M,4.0,0135*68
$PYRTM,2024,124.000752435752,15.110399845891
$GNHDT,344.658,T*23
$PYRTM,2024,124.000758173206,15.110405583345
$GNGGA,000105.50,3454.45372329,N,12128.55410560,W,2,12,0.9,5.940,M,-37.884,M,4.4,0135*63
$PYRTM,2024,124.000758173206,15.110405583345
$GNHDT,345.042,T*2F
$PYRTM,2024,124.000764003160,15.110411413299
$GNGGA,000106.00,3454.45388146,N,12128.55403055,W,2,12,0.9,6.297,M,-37.884,M,5.0,0135*6D
$PYRTM,2024,124.000764003160,15.110411413299
$GNHDT,345.019,T*21
$PYRTM,2024,124.000769740775,15.110417150914
$GNGGA,000106.50,3454.45407654,N,12128.55387558,W,2,12,0.9,6.618,M,-37.884,M,5.4,0135*68
$PYRTM,2024,124.000769740775,15.110417150914
$GNHDT,345.633,T*2F
$PYRTM,2024,124.000775577072,15.110422987211
$GNGGA,000107.00,3454.45432874,N,12128.55372471,W,2,12,0.9,6.743,M,-37.884,M,6.0,0135*6E
$PYRTM,2024,124.000775577072,15.110422987211
$GNHDT,345.648,T*23
$PYRTM,2024,124.000781311840,15.110428721991
$GNGGA,000107.50,3454.45458698,N,12128.55362829,W,2,12,0.9,6.651,M,-37.884,M,6.4,0135*6D
$PYRTM,2024,124.000781311840,15.110428721991
$GNHDT,345.322,T*2A
$PYRTM,2024,124.000787155822,15.110434565961
$GNGGA,000108.00,3454.45481267,N,12128.55362043,W,2,12,0.9,6.486,M,-37.884,M,7.0,0135*6E
$PYRTM,2024,124.000787155822,15.110434565961
$GNHDT,345.236,T*2E
$PYRTM,2024,124.000792887662,15.110440297812
$GNGGA,000108.50,3454.45495615,N,12128.55368495,W,2,12,0.9,6.366,M,-37.884,M,7.4,0135*67
$PYRTM,2024,124.000792887662,15.110440297812
$GNHDT,345.503,T*2F
$PYRTM,2024,124.000798733044,15.110446143183
$GNGGA,000109.00,3454.45502768,N,12128.55381201,W,2,12,0.9,6.345,M,-37.884,M,7.0,0135*6E
$PYRTM,2024,124.000798733044,15.110446143183
$GNHDT,345.621,T*2C
$PYRTM,2024,124.000804463484,15.110451873623
$GNGGA,000109.50,3454.45506634,N,12128.55396771,W,2,12,0.9,6.384,M,-37.884,M,7.4,0135*6A
$PYRTM,2024,124.000804463484,15.110451873623
$GNHDT,346.207,T*2F
$PYRTM,2024,124.000810299745,15.110457709884
$GNGGA,000110.00,3454.45511865,N,12128.55410558,W,2,12,0.9,6.400,M,-37.884,M,7.0,0135*64
$PYRTM,2024,124.000810299745,15.110457709884
$GNHDT,346.319,T*21
$PYRTM,2024,124.000816032627,15.110463442766
$GNGGA,000110.50,3454.45525020,N,12128.55417239,W,2,12,0.9,6.301,M,-37.884,M,7.4,0135*6A
$PYRTM,2024,124.000816032627,15.110463442766
$GNHDT,346.281,T*21
$PYRTM,2024,124.000821872025,15.110469282164
$GNGGA,000111.00,3454.45547026,N,12128.55416439,W,2,12,0.9,6.062,M,-37.884,M,4.0,0135*6A
$PYRTM,2024,124.000821872025,15.110469282164
$GNHDT,345.709,T*27
$PYRTM,2024,124.000827615255,15.110475025394
$GNGGA,000111.50,3454.45576270,N,12128.55411667,W,2,12,0.9,5.766,M,-37.884,M,4.4,0135*66
$PYRTM,2024,124.000827615255,15.110475025394
$GNHDT,345.343,T*2D
$PYRTM,2024,124.000833460150,15.110480870289
$GNGGA,000112.00,3454.45607601,N,12128.55405978,W,2,12,0.9,5.523,M,-37.884,M,5.0,0135*65
$PYRTM,2024,124.000833460150,15.110480870289
$GNHDT,344.521,T*2E
$PYRTM,2024,124.000839187720,15.110486597859
$GNGGA,000112.50,3454.45635379,N,12128.55404625,W,2,12,0.9,5.467,M,-37.884,M,5.4,0135*68
$PYRTM,2024,124.000839187720,15.110486597859
$GNHDT,344.420,T*2E
$PYRTM,2024,124.000845025174,15.110492435312
$GNGGA,000113.00,3454.45657723,N,12128.55410673,W,2,12,0.9,5.630,M,-37.884,M,6.0,0135*62
$PYRTM,2024,124.000845025174,15.110492435312
$GNHDT,344.337,T*2F
$PYRTM,2024,124.000850757060,15.110498167199
$GNGGA,000113.50,3454.45676181,N,12128.55422680,W,2,12,0.9,5.940,M,-37.884,M,6.4,0135*6B
$PYRTM,2024,124.000850757060,15.110498167199
$GNHDT,344.617,T*28
$PYRTM,2024,124.000856598785,15.110504008924
$GNGGA,000114.00,3454.45693113,N,12128.55436536,W,2,12,0.9,6.308,M,-37.884,M,7.0,0135*62
$PYRTM,2024,124.000856598785,15.110504008924
$GNHDT,345.095,T*25
$PYRTM,2024,124.000862328333,15.110509738484
$GNGGA,000114.50,3454.45709751,N,12128.55447020,W,2,12,0.9,6.651,M,-37.884,M,7.4,0135*6C
$PYRTM,2024,124.000862328333,15.110509738484
$GNHDT,345.410,T*2C
$PYRTM,2024,124.000868169352,15.110515579491
$GNGGA,000115.00,3454.45726594,N,12128.55450374,W,2,12,0.9,6.955,M,-37.884,M,7.0,0135*65
$PYRTM,2024,124.000868169352,15.110515579491
$GNHDT,345.686,T*21
$PYRTM,2024,124.000873907569,15.110521317708
$GNGGA,000115.50,3454.45743094,N,12128.55444929,W,2,12,0.9,7.151,M,-37.884,M,7.4,0135*68
$PYRTM,2024,124.000873907569,15.110521317708
$GNHDT,346.139,T*21
$PYRTM,2024,124.000879745347,15.110527155498
$GNGGA,000116.00,3454.45760462,N,12128.55433131,W,2,12,0.9,7.219,M,-37.884,M,7.0,0135*68
$PYRTM,2024,124.000879745347,15.110527155498
$GNHDT,345.944,T*20
$PYRTM,2024,124.000885480035,15.110532890174
$GNGGA,000116.50,3454.45779059,N,12128.55419042,W,2,12,0.9,7.112,M,-37.884,M,7.4,0135*68
$PYRTM,2024,124.000885480035,15.110532890174
$GNHDT,345.681,T*26
$PYRTM,2024,124.000891318738,15.110538728889
$GNGGA,000117.00,3454.45800862,N,12128.55409164,W,2,12,0.9,6.787,M,-37.884,M,4.0,0135*65
$PYRTM,2024,124.000891318738,15.110538728889
$GNHDT,345.607,T*28
$PYRTM,2024,124.000897056574,15.110544466713
$GNGGA,000117.50,3454.45824743,N,12128.55406581,W,2,12,0.9,6.339,M,-37.884,M,4.4,0135*6F
$PYRTM,2024,124.000897056574,15.110544466713
$GNHDT,345.359,T*26
$PYRTM,2024,124.000902889838,15.110550299977
$GNGGA,000118.00,3454.45847857,N,12128.55411924,W,2,12,0.9,5.927,M,-37.884,M,5.0,0135*6C
$PYRTM,2024,124.000902889838,15.110550299977
$GNHDT,344.940,T*25
$PYRTM,2024,124.000908628380,15.110556038519
$GNGGA,000118.50,3454.45867110,N,12128.55423108,W,2,12,0.9,5.720,M,-37.884,M,5.4,0135*6B
$PYRTM,2024,124.000908628380,15.110556038519
$GNHDT,344.952,T*26
$PYRTM,2024,124.000914468819,15.110561878958
$GNGGA,000119.00,3454.45882402,N,12128.55438977,W,2,12,0.9,5.785,M,-37.884,M,6.0,0135*60
$PYRTM,2024,124.000914468819,15.110561878958
$GNHDT,344.670,T*29
$PYRTM,2024,124.000920206713,15.110567616852
$GNGGA,000119.50,3454.45895655,N,12128.55455600,W,2,12,0.9,5.994,M,-37.884,M,6.4,0135*6D
$PYRTM,2024,124.000920206713,15.110567616852
$GNHDT,344.165,T*2A
$PYRTM,2024,124.000926038877,15.110573449016
$GNGGA,000120.00,3454.45911304,N,12128.55469682,W,2,12,0.9,6.218,M,-37.884,M,7.0,0135*62
$PYRTM,2024,124.000926038877,15.110573449016
$GNHDT,343.999,T*26
$PYRTM,2024,124.000931771389,15.110579181539
$GNGGA,000120.50,3454.45933135,N,12128.55478865,W,2,12,0.9,6.342,M,-37.884,M,7.4,0135*6A
$PYRTM,2024,124.000931771389,15.110579181539
$GNHDT,344.124,T*2F
$PYRTM,2024,124.000937615961,15.110585026100
$GNGGA,000121.00,3454.45960683,N,12128.55482737,W,2,12,0.9,6.321,M,-37.884,M,7.0,0135*6E
$PYRTM,2024,124.000937615961,15.110585026100
$GNHDT,344.066,T*28
$PYRTM,2024,124.000943347407,15.110590757546
$GNGGA,000121.50,3454.45991051,N,12128.55483419,W,2,12,0.9,6.198,M,-37.884,M,7.4,0135*66
$PYRTM,2024,124.000943347407,15.110590757546
$GNHDT,344.049,T*25
$PYRTM,2024,124.000949193495,15.110596603634
$GNGGA,000122.00,3454.46019690,N,12128.55482651,W,2,12,0.9,6.069,M,-37.884,M,7.0,0135*65
$PYRTM,2024,124.000949193495,15.110596603634
$GNHDT,343.996,T*29
$PYRTM,2024,124.000954922604,15.110602332743
$GNGGA,000122.50,3454.46043801,N,12128.55481078,W,2,12,0.9,6.047,M,-37.884,M,7.4,0135*6F
$PYRTM,2024,124.000954922604,15.110602332743
$GNHDT,344.169,T*26
$PYRTM,2024,124.000960766389,15.110608176528
$GNGGA,000123.00,3454.46061766,N,12128.55479455,W,2,12,0.9,6.185,M,-37.884,M,4.0,0135*61
$PYRTM,2024,124.000960766389,15.110608176528
$GNHDT,344.123,T*28
$PYRTM,2024,124.000966494028,15.110613904167
$GNGGA,000123.50,3454.46074370,N,12128.55477281,W,2,12,0.9,6.445,M,-37.884,M,4.4,0135*6F
$PYRTM,2024,124.000966494028,15.110613904167
$GNHDT,344.536,T*28
$PYRTM,2024,124.000972336354,15.110619746493
$GNGGA,000124.00,3454.46083527,N,12128.55475762,W,2,12,0.9,6.763,M,-37.884,M,5.0,0135*69
$PYRTM,2024,124.000972336354,15.110619746493
$GNHDT,344.751,T*2B
$PYRTM,2024,124.000978069815,15.110625479954
$GNGGA,000124.50,3454.46092470,N,12128.55475787,W,2,12,0.9,7.018,M,-37.884,M,5.4,0135*6A
$PYRTM,2024,124.000978069815,15.110625479954
$GNHDT,344.542,T*2B
$PYRTM,2024,124.000983912558,15.110631322697
$GNGGA,000125.00,3454.46104194,N,12128.55479109,W,2,12,0.9,7.066,M,-37.884,M,6.0,0135*6D
$PYRTM,2024,124.000983912558,15.110631322697
$GNHDT,344.594,T*20
$PYRTM,2024,124.000989641053,15.110637051192
$GNGGA,000125.50,3454.46121259,N,12128.55487777,W,2,12,0.9,6.864,M,-37.884,M,6.4,0135*6C
$PYRTM,2024,124.000989641053,15.110637051192
$GNHDT,344.247,T*29
$PYRTM,2024,124.000995486701,15.110642896840
$GNGGA,000126.00,3454.46142388,N,12128.55500395,W,2,12,0.9,6.432,M,-37.884,M,7.0,0135*6E
$PYRTM,2024,124.000995486701,15.110642896840
$GNHDT,343.962,T*22
$PYRTM,2024,124.001001224525,15.110648634664
$GNGGA,000126.50,3454.46166142,N,12128.55514102,W,2,12,0.9,5.910,M,-37.884,M,7.4,0135*6A
$PYRTM,2024,124.001001224525,15.110648634664
$GNHDT,343.837,T*23
$PYRTM,2024,124.001007062442,15.110654472581
$GNGGA,000127.00,3454.46190796,N,12128.55523256,W,2,12,0.9,5.436,M,-37.884,M,7.0,0135*63
$PYRTM,2024,124.001007062442,15.110654472581
$GNHDT,343.757,T*2A
$PYRTM,2024,124.001012795035,15.110660205174
$GNGGA,000127.50,3454.46213582,N,12128.55525280,W,2,12,0.9,5.184,M,-37.884,M,7.4,0135*6C
$PYRTM,2024,124.001012795035,15.110660205174
$GNHDT,343.709,T*21
$PYRTM,2024,124.001018638241,15.110666048380
$GNGGA,000128.00,3454.46233766,N,12128.55521129,W,2,12,0.9,5.207,M,-37.884,M,7.0,0135*64
$PYRTM,2024,124.001018638241,15.110666048380
$GNHDT,343.529,T*21
$PYRTM,2024,124.001024365787,15.110671775926
$GNGGA,000128.50,3454.46251665,N,12128.55515656,W,2,12,0.9,5.495,M,-37.884,M,7.4,0135*66
$PYRTM,2024,124.001024365787,15.110671775926
$GNHDT,343.371,T*2A
$PYRTM,2024,124.001030205231,15.110677615370
$GNGGA,000129.00,3454.46268451,N,12128.55511206,W,2,12,0.8,5.963,M,-37.884,M,4.0,0135*6A
$PYRTM,2024,124.001030205231,15.110677615370
$GNHDT,343.104,T*2A
$PYRTM,2024,124.001035941701,15.110683351840
$GNGGA,000129.50,3454.46285302,N,12128.55511174,W,2,12,0.8,6.440,M,-37.884,M,4.4,0135*60
$PYRTM,2024,124.001035941701,15.110683351840
$GNHDT,343.545,T*2B
$PYRTM,2024,124.001041783275,15.110689193426
$GNGGA,000130.00,3454.46302089,N,12128.55516767,W,2,12,0.8,6.832,M,-37.884,M,5.0,0135*6C
$PYRTM,2024,124.001041783275,15.110689193426
$GNHDT,343.718,T*21
$PYRTM,2024,124.001047518704,15.110694928843
$GNGGA,000130.50,3454.46320479,N,12128.55527249,W,2,12,0.8,6.980,M,-37.884,M,5.4,0135*65
$PYRTM,2024,124.001047518704,15.110694928843
$GNHDT,343.931,T*24
$PYRTM,2024,124.001053354850,15.110700764988
$GNGGA,000131.00,3454.46341669,N,12128.55539213,W,2,12,0.8,6.924,M,-37.884,M,6.0,0135*6C
$PYRTM,2024,124.001053354850,15.110700764988
$GNHDT,344.446,T*2E
$PYRTM,2024,124.001059090694,15.110706500833
$GNGGA,000131.50,3454.46365529,N,12128.55550279,W,2,12,0.8,6.690,M,-37.884,M,6.4,0135*6F
$PYRTM,2024,124.001059090694,15.110706500833
$GNHDT,344.520,T*2F
$PYRTM,2024,124.001064927905,15.110712338044
$GNGGA,000132.00,3454.46390448,N,12128.55558634,W,2,12,0.8,6.382,M,-37.884,M,7.0,0135*63
$PYRTM,2024,124.001064927905,15.110712338044
$GNHDT,344.223,T*2B
$PYRTM,2024,124.001070660370,15.110718070509
$GNGGA,000132.50,3454.46412686,N,12128.55559854,W,2,12,0.8,6.173,M,-37.884,M,7.4,0135*6A
$PYRTM,2024,124.001070660370,15.110718070509
$GNHDT,343.941,T*23
$PYRTM,2024,124.001076507083,15.110723917222
$GNGGA,000133.00,3454.46429529,N,12128.55551832,W,2,12,0.8,6.184,M,-37.884,M,7.0,0135*64
$PYRTM,2024,124.001076507083,15.110723917222
$GNHDT,343.218,T*24
$PYRTM,2024,124.001082234317,15.110729644456
$GNGGA,000133.50,3454.46441107,N,12128.55536779,W,2,12,0.8,6.364,M,-37.884,M,7.4,0135*6E
$PYRTM,2024,124.001082234317,15.110729644456
$GNHDT,343.356,T*2F
$PYRTM,2024,124.001088082431,15.110735492581
$GNGGA,000134.00,3454.46450065,N,12128.55520367,W,2,12,0.8,6.665,M,-37.884,M,7.0,0135*65
$PYRTM,2024,124.001088082431,15.110735492581
$GNHDT,343.455,T*2B
$PYRTM,2024,124.001093813947,15.110741224086
$GNGGA,000134.50,3454.46461095,N,12128.55511428,W,2,12,0.8,6.849,M,-37.884,M,7.4,0135*67
$PYRTM,2024,124.001093813947,15.110741224086
$GNHDT,343.395,T*20
$PYRTM,2024,124.001099653692,15.110747063831
$GNGGA,000135.00,3454.46478326,N,12128.55516772,W,2,12,0.8,6.742,M,-37.884,M,4.0,0135*68
$PYRTM,2024,124.001099653692,15.110747063831
$GNHDT,343.808,T*2F
$PYRTM,2024,124.001105390463,15.110752800602
$GNGGA,000135.50,3454.46502932,N,12128.55535623,W,2,12,0.8,6.359,M,-37.884,M,4.4,0135*60
$PYRTM,2024,124.001105390463,15.110752800602
$GNHDT,344.223,T*2B
$PYRTM,2024,124.001111232905,15.110758643044
$GNGGA,000136.00,3454.46530117,N,12128.55563101,W,2,12,0.8,5.835,M,-37.884,M,5.0,0135*6B
$PYRTM,2024,124.001111232905,15.110758643044
$GNHDT,343.880,T*2F
$PYRTM,2024,124.001116956319,15.110764366458
$GNGGA,000136.50,3454.46555865,N,12128.55589492,W,2,12,0.8,5.382,M,-37.884,M,5.4,0135*69
$PYRTM,2024,124.001116956319,15.110764366458
$GNHDT,343.991,T*2E
$PYRTM,2024,124.001122800405,15.110770210544
$GNGGA,000137.00,3454.46574149,N,12128.55604543,W,2,12,0.8,5.248,M,-37.884,M,6.0,0135*62
$PYRTM,2024,124.001122800405,15.110770210544
$GNHDT,343.841,T*22
$PYRTM,2024,124.001128546076,15.110775956215
$GNGGA,000137.50,3454.46585048,N,12128.55604674,W,2,12,0.8,5.446,M,-37.884,M,6.4,0135*62
$PYRTM,2024,124.001128546076,15.110775956215
$GNHDT,344.006,T*2E
$PYRTM,2024,124.001134380301,15.110781790440
$GNGGA,000138.00,3454.46593173,N,12128.55591622,W,2,12,0.8,5.871,M,-37.884,M,7.0,0135*67
$PYRTM,2024,124.001134380301,15.110781790440
$GNHDT,344.526,T*29
$PYRTM,2024,124.001140111076,15.110787521215
$GNGGA,000138.50,3454.46602190,N,12128.55570642,W,2,12,0.8,6.341,M,-37.884,M,7.4,0135*62
$PYRTM,2024,124.001140111076,15.110787521215
$GNHDT,344.841,T*25
$PYRTM,2024,124.001145945116,15.110793355266
$GNGGA,000139.00,3454.46616310,N,12128.55547628,W,2,12,0.8,6.727,M,-37.884,M,7.0,0135*61
$PYRTM,2024,124.001145945116,15.110793355266
$GNHDT,345.361,T*2D
$PYRTM,2024,124.001151685278,15.110799095417
$GNGGA,000139.50,3454.46636379,N,12128.55529411,W,2,12,0.8,6.904,M,-37.884,M,7.4,0135*62
$PYRTM,2024,124.001151685278,15.110799095417
$GNHDT,346.143,T*2C
$PYRTM,2024,124.001157521632,15.110804931782
$GNGGA,000140.00,3454.46658822,N,12128.55519021,W,2,12,0.8,6.902,M,-37.884,M,7.0,0135*62
$PYRTM,2024,124.001157521632,15.110804931782
$GNHDT,346.182,T*21
$PYRTM,2024,124.001163254711,15.110810664850
$GNGGA,000140.50,3454.46681134,N,12128.55518811,W,2,12,0.8,6.774,M,-37.884,M,7.4,0135*6C
$PYRTM,2024,124.001163254711,15.110810664850
$GNHDT,346.163,T*2E
$PYRTM,2024,124.001169096829,15.110816506968
$GNGGA,000141.00,3454.46699570,N,12128.55531470,W,2,12,0.8,6.606,M,-37.884,M,4.0,0135*66
$PYRTM,2024,124.001169096829,15.110816506968
$GNHDT,345.889,T*20
$PYRTM,2024,124.001174831146,15.110822241285
$GNGGA,000141.50,3454.46711530,N,12128.55552985,W,2,12,0.8,6.465,M,-37.884,M,4.4,0135*67
$PYRTM,2024,124.001174831146,15.110822241285
$GNHDT,346.135,T*2D
$PYRTM,2024,124.001180667141,15.110828077292
$GNGGA,000142.00,3454.46717177,N,12128.55578063,W,2,12,0.8,6.387,M,-37.884,M,5.0,0135*67
$PYRTM,2024,124.001180667141,15.110828077292
$GNHDT,346.060,T*2C
$PYRTM,2024,124.001186403785,15.110833813924
$GNGGA,000142.50,3454.46722363,N,12128.55596073,W,2,12,0.8,6.345,M,-37.884,M,5.4,0135*68
$PYRTM,2024,124.001186403785,15.110833813924
$GNHDT,345.847,T*22
$PYRTM,2024,124.001192244873,15.110839655023
$GNGGA,000143.00,3454.46731124,N,12128.55597915,W,2,12,0.8,6.286,M,-37.884,M,6.0,0135*6E
$PYRTM,2024,124.001192244873,15.110839655023
$GNHDT,346.111,T*2B
$PYRTM,2024,124.001197984271,15.110845394410
$GNGGA,000143.50,3454.46749511,N,12128.55583831,W,2,12,0.8,6.139,M,-37.884,M,6.4,0135*67
$PYRTM,2024,124.001197984271,15.110845394410
$GNHDT,345.997,T*2E
$PYRTM,2024,124.001203818692,15.110851228831
$GNGGA,000144.00,3454.46775282,N,12128.55561791,W,2,12,0.8,5.902,M,-37.884,M,7.0,0135*68
$PYRTM,2024,124.001203818692,15.110851228831
$GNHDT,346.249,T*25
$PYRTM,2024,124.001209555891,15.110856966030
$GNGGA,000144.50,3454.46804411,N,12128.55541786,W,2,12,0.8,5.642,M,-37.884,M,7.4,0135*63
$PYRTM,2024,124.001209555891,15.110856966030
$GNHDT,346.219,T*20
$PYRTM,2024,124.001215391065,15.110862801215
$GNGGA,000145.00,3454.46831356,N,12128.55531407,W,2,12,0.8,5.513,M,-37.884,M,7.0,0135*6B
$PYRTM,2024,124.001215391065,15.110862801215
$GNHDT,346.009,T*23
$PYRTM,2024,124.001221129734,15.110868539873
$GNGGA,000145.50,3454.46852123,N,12128.55533022,W,2,12,0.8,5.659,M,-37.884,M,7.4,0135*63
$PYRTM,2024,124.001221129734,15.110868539873
$GNHDT,345.612,T*2C
$PYRTM,2024,124.001226965556,15.110874375694
$GNGGA,000146.00,3454.46866384,N,12128.55542330,W,2,12,0.8,6.049,M,-37.884,M,7.0,0135*6B
$PYRTM,2024,124.001226965556,15.110874375694
$GNHDT,345.367,T*2B
$PYRTM,2024,124.001232701574,15.110880111713
$GNGGA,000146.50,3454.46876614,N,12128.55556118,W,2,12,0.8,6.566,M,-37.884,M,7.4,0135*62
$PYRTM,2024,124.001232701574,15.110880111713
$GNHDT,345.570,T*2B
$PYRTM,2024,124.001238543519,15.110885953657
$GNGGA,000147.00,3454.46883357,N,12128.55571198,W,2,12,0.8,7.098,M,-37.884,M,4.0,0135*61
$PYRTM,2024,124.001238543519,15.110885953657
$GNHDT,345.608,T*27
$PYRTM,2024,124.001244272940,15.110891683079
$GNGGA,000147.50,3454.46891215,N,12128.55583128,W,2,12,0.8,7.440,M,-37.884,M,4.4,0135*63
$PYRTM,2024,124.001244272940,15.110891683079
$GNHDT,345.956,T*23
$PYRTM,2024,124.001250115370,15.110897525509
$GNGGA,000148.00,3454.46902932,N,12128.55591027,W,2,12,0.8,7.509,M,-37.884,M,5.0,0135*68
$PYRTM,2024,124.001250115370,15.110897525509
$GNHDT,346.189,T*2A
$PYRTM,2024,124.001255853669,15.110903263819
$GNGGA,000148.50,3454.46922973,N,12128.55590087,W,2,12,0.8,7.224,M,-37.884,M,5.4,0135*6D
$PYRTM,2024,124.001255853669,15.110903263819
$GNHDT,346.269,T*27
$PYRTM,2024,124.001261687662,15.110909097801
$GNGGA,000149.00,3454.46946238,N,12128.55581271,W,2,12,0.8,6.761,M,-37.884,M,6.0,0135*66
$PYRTM,2024,124.001261687662,15.110909097801
$GNHDT,346.307,T*2E
$PYRTM,2024,124.001267424664,15.110914834803
$GNGGA,000149.50,3454.46969480,N,12128.55566433,W,2,12,0.8,6.275,M,-37.884,M,6.4,0135*66
$PYRTM,2024,124.001267424664,15.110914834803
$GNHDT,346.147,T*28
$PYRTM,2024,124.001273263333,15.110920673472
$GNGGA,000150.00,3454.46990852,N,12128.55549327,W,2,12,0.8,5.878,M,-37.884,M,7.0,0135*60
$PYRTM,2024,124.001273263333,15.110920673472
$GNHDT,346.078,T*25
$PYRTM,2024,124.001278996424,15.110926406563
$GNGGA,000150.50,3454.47009913,N,12128.55535758,W,2,12,0.8,5.700,M,-37.884,M,7.4,0135*6A
$PYRTM,2024,124.001278996424,15.110926406563
$GNHDT,346.163,T*2E
$PYRTM,2024,124.001284836759,15.110932246898
$GNGGA,000151.00,3454.47030010,N,12128.55532073,W,2,12,0.8,5.735,M,-37.884,M,7.0,0135*65
$PYRTM,2024,124.001284836759,15.110932246898
$GNHDT,346.258,T*25
$PYRTM,2024,124.001290574225,15.110937984363
$GNGGA,000151.50,3454.47049301,N,12128.55540779,W,2,12,0.8,5.924,M,-37.884,M,7.4,0135*6F
$PYRTM,2024,124.001290574225,15.110937984363
$GNHDT,345.861,T*26
$PYRTM,2024,124.001296413090,15.110943823229
$GNGGA,000152.00,3454.47070580,N,12128.55561761,W,2,12,0.8,6.164,M,-37.884,M,7.0,0135*6D
$PYRTM,2024,124.001296413090,15.110943823229
$GNHDT,345.477,T*2D
$PYRTM,2024,124.001302156238,15.110949566377
$GNGGA,000152.50,3454.47091671,N,12128.55589583,W,2,12,0.8,6.411,M,-37.884,M,7.4,0135*61
$PYRTM,2024,124.001302156238,15.110949566377
$GNHDT,345.106,T*2E
$PYRTM,2024,124.001307986516,15.110955396655
$GNGGA,000153.00,3454.47112269,N,12128.55617724,W,2,12,0.8,6.593,M,-37.884,M,4.0,0135*65
$PYRTM,2024,124.001307986516,15.110955396655
$GNHDT,345.014,T*2C
$PYRTM,2024,124.001313719699,15.110961129838
$GNGGA,000153.50,3454.47131844,N,12128.55638580,W,2,12,0.8,6.722,M,-37.884,M,4.4,0135*69
$PYRTM,2024,124.001313719699,15.110961129838
$GNHDT,345.362,T*2E
$PYRTM,2024,124.001319566273,15.110966976424
$GNGGA,000154.00,3454.47151463,N,12128.55647381,W,2,12,0.8,6.767,M,-37.884,M,5.0,0135*6F
$PYRTM,2024,124.001319566273,15.110966976424
$GNHDT,345.618,T*26
$PYRTM,2024,124.001325300590,15.110972710729
$GNGGA,000154.50,3454.47170706,N,12128.55643730,W,2,12,0.8,6.747,M,-37.884,M,5.4,0135*65
$PYRTM,2024,124.001325300590,15.110972710729
$GNHDT,345.677,T*2F
$PYRTM,2024,124.001331141377,15.110978551516
$GNGGA,000155.00,3454.47190003,N,12128.55630781,W,2,12,0.8,6.636,M,-37.884,M,6.0,0135*63
$PYRTM,2024,124.001331141377,15.110978551516
$GNHDT,345.723,T*2F
$PYRTM,2024,124.001336871528,15.110984281667
$GNGGA,000155.50,3454.47208741,N,12128.55612907,W,2,12,0.8,6.507,M,-37.884,M,6.4,0135*60
$PYRTM,2024,124.001336871528,15.110984281667
$GNHDT,345.734,T*29
$PYRTM,2024,124.001342711412,15.110990121551
$GNGGA,000156.00,3454.47226769,N,12128.55594825,W,2,12,0.8,6.334,M,-37.884,M,7.0,0135*6F
$PYRTM,2024,124.001342711412,15.110990121551
$GNHDT,345.745,T*2F
$PYRTM,2024,124.001348439213,15.110995849352
$GNGGA,000156.50,3454.47244625,N,12128.55581150,W,2,12,0.8,6.212,M,-37.884,M,7.4,0135*69
$PYRTM,2024,124.001348439213,15.110995849352
$GNHDT,345.637,T*2B
$PYRTM,2024,124.001354281563,15.111001691713
$GNGGA,000157.00,3454.47261529,N,12128.55575968,W,2,12,0.8,6.127,M,-37.884,M,7.0,0135*6C
$PYRTM,2024,124.001354281563,15.111001691713
$GNHDT,345.800,T*21
$PYRTM,2024,124.001360013542,15.111007423681
$GNGGA,000157.50,3454.47279037,N,12128.55579784,W,2,12,0.8,6.103,M,-37.884,M,7.4,0135*68
$PYRTM,2024,124.001360013542,15.111007423681
$GNHDT,345.856,T*22
$PYRTM,2024,124.001365861840,15.111013271979
$GNGGA,000158.00,3454.47297523,N,12128.55596404,W,2,12,0.8,6.050,M,-37.884,M,7.0,0135*6B
$PYRTM,2024,124.001365861840,15.111013271979
$GNHDT,345.610,T*2E
$PYRTM,2024,124.001371586829,15.111018996968
$GNGGA,000158.50,3454.47316973,N,12128.55621754,W,2,12,0.8,5.956,M,-37.884,M,7.4,0135*6E
$PYRTM,2024,124.001371586829,15.111018996968
$GNHDT,345.252,T*2C
$PYRTM,2024,124.001377431481,15.111024841620
$GNGGA,000159.00,3454.47338092,N,12128.55647546,W,2,12,0.8,5.896,M,-37.884,M,4.0,0135*6B
$PYRTM,2024,124.001377431481,15.111024841620
$GNHDT,344.898,T*21
$PYRTM,2024,124.001383162176,15.111030572315
$GNGGA,000159.50,3454.47360978,N,12128.55661990,W,2,12,0.8,5.870,M,-37.884,M,4.4,0135*61
$PYRTM,2024,124.001383162176,15.111030572315
$GNHDT,344.966,T*21
$PYRTM,2024,124.001389001111,15.111036411250
$GNGGA,000200.00,3454.47384470,N,12128.55659388,W,2,12,0.8,5.934,M,-37.884,M,5.0,0135*68
$PYRTM,2024,124.001389001111,15.111036411250
$GNHDT,344.749,T*22
$PYRTM,2024,124.001394742847,15.111042152986
$GNGGA,000200.50,3454.47405992,N,12128.55643085,W,2,12,0.8,6.086,M,-37.884,M,5.4,0135*60
$PYRTM,2024,124.001394742847,15.111042152986
$GNHDT,345.046,T*2B
$PYRTM,2024,124.001400591748,15.111048001887
$GNGGA,000201.00,3454.47424333,N,12128.55625712,W,2,12,0.8,6.297,M,-37.884,M,6.0,0135*6A
$PYRTM,2024,124.001400591748,15.111048001887
$GNHDT,344.967,T*20
$PYRTM,2024,124.001406310370,15.111053720509
$GNGGA,000201.50,3454.47440153,N,12128.55614880,W,2,12,0.8,6.511,M,-37.884,M,6.4,0135*62
$PYRTM,2024,124.001406310370,15.111053720509
$GNHDT,345.083,T*22
$PYRTM,2024,124.001412148287,15.111059558438
$GNGGA,000202.00,3454.47455869,N,12128.55614030,W,2,12,0.8,6.646,M,-37.884,M,7.0,0135*67
$PYRTM,2024,124.001412148287,15.111059558438
$GNHDT,345.208,T*23
$PYRTM,2024,124.001417883356,15.111065293495
$GNGGA,000202.50,3454.47472851,N,12128.55621784,W,2,12,0.8,6.681,M,-37.884,M,7.4,0135*6D
$PYRTM,2024,124.001417883356,15.111065293495
$GNHDT,345.151,T*2C
$PYRTM,2024,124.001423724433,15.111071134583
$GNGGA,000203.00,3454.47490187,N,12128.55634988,W,2,12,0.8,6.627,M,-37.884,M,7.0,0135*69
$PYRTM,2024,124.001423724433,15.111071134583
$GNHDT,345.211,T*2B
$PYRTM,2024,124.001429457106,15.111076867245
$GNGGA,000203.50,3454.47507624,N,12128.55649730,W,2,12,0.8,6.475,M,-37.884,M,7.4,0135*6B
$PYRTM,2024,124.001429457106,15.111076867245
$GNHDT,345.110,T*29
$PYRTM,2024,124.001435302326,15.111082712465
$GNGGA,000204.00,3454.47525412,N,12128.55662796,W,2,12,0.8,6.273,M,-37.884,M,7.0,0135*6F
$PYRTM,2024,124.001435302326,15.111082712465
$GNHDT,345.049,T*24
$PYRTM,2024,124.001441030579,15.111088440718
$GNGGA,000204.50,3454.47545139,N,12128.55674309,W,2,12,0.8,6.065,M,-37.884,M,7.4,0135*64
$PYRTM,2024,124.001441030579,15.111088440718
$GNHDT,345.057,T*2B
$PYRTM,2024,124.001446874444,15.111094284583
$GNGGA,000205.00,3454.47568034,N,12128.55685222,W,2,12,0.8,5.856,M,-37.884,M,4.0,0135*69
$PYRTM,2024,124.001446874444,15.111094284583
$GNHDT,344.881,T*29
$PYRTM,2024,124.001452608912,15.111100019051
$GNGGA,000205.50,3454.47589477,N,12128.55690877,W,2,12,0.8,5.750,M,-37.884,M,4.4,0135*63
$PYRTM,2024,124.001452608912,15.111100019051
$GNHDT,344.633,T*2E
$PYRTM,2024,124.001458452812,15.111105862963
$GNGGA,000206.00,3454.47605295,N,12128.55686575,W,2,12,0.8,5.872,M,-37.884,M,5.0,0135*6A
$PYRTM,2024,124.001458452812,15.111105862963
$GNHDT,344.533,T*2D
$PYRTM,2024,124.001464184016,15.111111594155
$GNGGA,000206.50,3454.47617480,N,12128.55677023,W,2,12,0.8,6.138,M,-37.884,M,5.4,0135*66
$PYRTM,2024,124.001464184016,15.111111594155
$GNHDT,344.724,T*29
$PYRTM,2024,124.001470023414,15.111117433553
$GNGGA,000207.00,3454.47629803,N,12128.55665001,W,2,12,0.8,6.479,M,-37.884,M,6.0,0135*6C
$PYRTM,2024,124.001470023414,15.111117433553
$GNHDT,344.816,T*27
$PYRTM,2024,124.001475754340,15.111123164479
$GNGGA,000207.50,3454.47648008,N,12128.55657997,W,2,12,0.8,6.691,M,-37.884,M,6.4,0135*6A
$PYRTM,2024,124.001475754340,15.111123164479
$GNHDT,344.976,T*20
$PYRTM,2024,124.001481597292,15.111129007431
$GNGGA,000208.00,3454.47673500,N,12128.55659556,W,2,12,0.8,6.679,M,-37.884,M,7.0,0135*69
$PYRTM,2024,124.001481597292,15.111129007431
$GNHDT,344.891,T*28
$PYRTM,2024,124.001487335324,15.111134745463
$GNGGA,000208.50,3454.47702201,N,12128.55667036,W,2,12,0.8,6.472,M,-37.884,M,7.4,0135*6E
$PYRTM,2024,124.001487335324,15.111134745463
$GNHDT,345.116,T*2F
$PYRTM,2024,124.001493179699,15.111140589838
$GNGGA,000209.00,3454.47728308,N,12128.55678367,W,2,12,0.8,6.205,M,-37.884,M,7.0,0135*61
$PYRTM,2024,124.001493179699,15.111140589838
$GNHDT,345.283,T*20
$PYRTM,2024,124.001498900752,15.111146310903
$GNGGA,000209.50,3454.47746861,N,12128.55691769,W,2,12,0.8,6.013,M,-37.884,M,7.4,0135*64
$PYRTM,2024,124.001498900752,15.111146310903
$GNHDT,345.247,T*28
$PYRTM,2024,124.001504745914,15.111152156053
$GNGGA,000210.00,3454.47755320,N,12128.55705149,W,2,12,0.8,6.035,M,-37.884,M,7.0,0135*6D
$PYRTM,2024,124.001504745914,15.111152156053
$GNHDT,345.244,T*2B
$PYRTM,2024,124.001510475729,15.111157885868
$GNGGA,000210.50,3454.47757326,N,12128.55714543,W,2,12,0.8,6.247,M,-37.884,M,7.4,0135*61
$PYRTM,2024,124.001510475729,15.111157885868
$GNHDT,345.310,T*2B
$PYRTM,2024,124.001516322674,15.111163732824
$GNGGA,000211.00,3454.47757884,N,12128.55716177,W,2,12,0.8,6.558,M,-37.884,M,4.0,0135*69
$PYRTM,2024,124.001516322674,15.111163732824
$GNHDT,345.393,T*20
$PYRTM,2024,124.001522060417,15.111169470556
$GNGGA,000211.50,3454.47763155,N,12128.55711793,W,2,12,0.8,6.768,M,-37.884,M,4.4,0135*60
$PYRTM,2024,124.001522060417,15.111169470556
$GNHDT,345.649,T*22
$PYRTM,2024,124.001527891840,15.111175301979
$GNGGA,000212.00,3454.47778019,N,12128.55703893,W,2,12,0.8,6.730,M,-37.884,M,5.0,0135*61
$PYRTM,2024,124.001527891840,15.111175301979
$GNHDT,345.727,T*2B
$PYRTM,2024,124.001533622419,15.111181032558
$GNGGA,000212.50,3454.47802334,N,12128.55697543,W,2,12,0.8,6.445,M,-37.884,M,5.4,0135*63
$PYRTM,2024,124.001533622419,15.111181032558
$GNHDT,345.638,T*24
$PYRTM,2024,124.001539465162,15.111186875301
$GNGGA,000213.00,3454.47832363,N,12128.55692793,W,2,12,0.8,5.970,M,-37.884,M,6.0,0135*63
$PYRTM,2024,124.001539465162,15.111186875301
$GNHDT,345.896,T*2E
$PYRTM,2024,124.001545202245,15.111192612384
$GNGGA,000213.50,3454.47862786,N,12128.55690972,W,2,12,0.8,5.524,M,-37.884,M,6.4,0135*66
$PYRTM,2024,124.001545202245,15.111192612384
$GNHDT,345.601,T*2E
$PYRTM,2024,124.001551041968,15.111198452106
$GNGGA,000214.00,3454.47889059,N,12128.55692419,W,2,12,0.8,5.312,M,-37.884,M,7.0,0135*60
$PYRTM,2024,124.001551041968,15.111198452106
$GNHDT,345.776,T*2F
$PYRTM,2024,124.001556774433,15.111204184572
$GNGGA,000214.50,3454.47907660,N,12128.55699428,W,2,12,0.8,5.437,M,-37.884,M,7.4,0135*63
$PYRTM,2024,124.001556774433,15.111204184572
$GNHDT,345.617,T*29
$PYRTM,2024,124.001562615162,15.111210025313
$GNGGA,000215.00,3454.47917758,N,12128.55713678,W,2,12,0.8,5.883,M,-37.884,M,7.0,0135*6F
$PYRTM,2024,124.001562615162,15.111210025313
$GNHDT,345.496,T*22
$PYRTM,2024,124.001568352037,15.111215762176
$GNGGA,000215.50,3454.47922347,N,12128.55732040,W,2,12,0.8,6.426,M,-37.884,M,7.4,0135*6C
$PYRTM,2024,124.001568352037,15.111215762176
$GNHDT,344.971,T*27
$PYRTM,2024,124.001574186493,15.111221596632
$GNGGA,000216.00,3454.47925066,N,12128.55750040,W,2,12,0.8,6.953,M,-37.884,M,7.0,0135*62
$PYRTM,2024,124.001574186493,15.111221596632
$GNHDT,344.559,T*21
$PYRTM,2024,124.001579918264,15.111227328414
$GNGGA,000216.50,3454.47930836,N,12128.55760357,W,2,12,0.8,7.316,M,-37.884,M,7.4,0135*66
$PYRTM,2024,124.001579918264,15.111227328414
$GNHDT,344.727,T*2A
$PYRTM,2024,124.001585762894,15.111233173044
$GNGGA,000217.00,3454.47943075,N,12128.55757309,W,2,12,0.8,7.383,M,-37.884,M,4.0,0135*6D
$PYRTM,2024,124.001585762894,15.111233173044
$GNHDT,344.898,T*21
$PYRTM,2024,124.001591496620,15.111238906759
$GNGGA,000217.50,3454.47961597,N,12128.55742280,W,2,12,0.8,7.172,M,-37.884,M,4.4,0135*6D
$PYRTM,2024,124.001591496620,15.111238906759
$GNHDT,345.035,T*2F
$PYRTM,2024,124.001597334861,15.111244745000
$GNGGA,000218.00,3454.47983484,N,12128.55720782,W,2,12,0.8,6.791,M,-37.884,M,5.0,0135*64
$PYRTM,2024,124.001597334861,15.111244745000
$GNHDT,345.242,T*2D
$PYRTM,2024,124.001603073056,15.111250483194
$GNGGA,000218.50,3454.48005876,N,12128.55702459,W,2,12,0.8,6.292,M,-37.884,M,5.4,0135*6F
$PYRTM,2024,124.001603073056,15.111250483194
$GNHDT,345.314,T*2F
$PYRTM,2024,124.001608915787,15.111256325926
$GNGGA,000219.00,3454.48028459,N,12128.55696621,W,2,12,0.8,5.803,M,-37.884,M,6.0,0135*62
$PYRTM,2024,124.001608915787,15.111256325926
$GNHDT,345.018,T*20
$PYRTM,2024,124.001614641343,15.111262051481
$GNGGA,000219.50,3454.48048636,N,12128.55705391,W,2,12,0.8,5.415,M,-37.884,M,6.4,0135*60
$PYRTM,2024,124.001614641343,15.111262051481
$GNHDT,344.449,T*21
$PYRTM,2024,124.001620480278,15.111267890417
$GNGGA,000220.00,3454.48064826,N,12128.55729532,W,2,12,0.8,5.294,M,-37.884,M,7.0,0135*65
$PYRTM,2024,124.001620480278,15.111267890417
$GNHDT,343.932,T*27
$PYRTM,2024,124.001626222650,15.111273632789
$GNGGA,000220.50,3454.48077617,N,12128.55757308,W,2,12,0.8,5.411,M,-37.884,M,7.4,0135*67
$PYRTM,2024,124.001626222650,15.111273632789
$GNHDT,343.717,T*2E
$PYRTM,2024,124.001632063194,15.111279473333
$GNGGA,000221.00,3454.48085733,N,12128.55785742,W,2,12,0.8,5.802,M,-37.884,M,7.0,0135*66
$PYRTM,2024,124.001632063194,15.111279473333
$GNHDT,343.727,T*2D
$PYRTM,2024,124.001637794201,15.111285204340
$GNGGA,000221.50,3454.48090459,N,12128.55808997,W,2,12,0.8,6.319,M,-37.884,M,7.4,0135*62
$PYRTM,2024,124.001637794201,15.111285204340
$GNHDT,343.550,T*2F
$PYRTM,2024,124.001643632477,15.111291042616
$GNGGA,000222.00,3454.48096519,N,12128.55822399,W,2,12,0.8,6.838,M,-37.884,M,7.0,0135*67
$PYRTM,2024,124.001643632477,15.111291042616
$GNHDT,343.306,T*2A
$PYRTM,2024,124.001649361227,15.111296771366
$GNGGA,000222.50,3454.48108936,N,12128.55818935,W,2,12,0.8,7.189,M,-37.884,M,7.4,0135*66
$PYRTM,2024,124.001649361227,15.111296771366
$GNHDT,343.253,T*2B
$PYRTM,2024,124.001655206713,15.111302616852
$GNGGA,000223.00,3454.48130026,N,12128.55802973,W,2,12,0.8,7.227,M,-37.884,M,4.0,0135*68
$PYRTM,2024,124.001655206713,15.111302616852
$GNHDT,343.173,T*2A
$PYRTM,2024,124.001660937292,15.111308347431
$GNGGA,000223.50,3454.48156605,N,12128.55785383,W,2,12,0.8,6.940,M,-37.884,M,4.4,0135*60
$PYRTM,2024,124.001660937292,15.111308347431
$GNHDT,343.463,T*2E
$PYRTM,2024,124.001666779641,15.111314189780
$GNGGA,000224.00,3454.48182590,N,12128.55775559,W,2,12,0.8,6.432,M,-37.884,M,5.0,0135*67
$PYRTM,2024,124.001666779641,15.111314189780
$GNHDT,343.153,T*28
$PYRTM,2024,124.001672520116,15.111319930266
$GNGGA,000224.50,3454.48202718,N,12128.55776090,W,2,12,0.8,5.930,M,-37.884,M,5.4,0135*60
$PYRTM,2024,124.001672520116,15.111319930266
$GNHDT,342.665,T*2B
$PYRTM,2024,124.001678356377,15.111325766516
$GNGGA,000225.00,3454.48215032,N,12128.55788379,W,2,12,0.8,5.625,M,-37.884,M,6.0,0135*64
$PYRTM,2024,124.001678356377,15.111325766516
$GNHDT,342.243,T*2B
$PYRTM,2024,124.001684091204,15.111331501343
$GNGGA,000225.50,3454.48221324,N,12128.55805540,W,2,12,0.8,5.606,M,-37.884,M,6.4,0135*61
$PYRTM,2024,124.001684091204,15.111331501343
$GNHDT,342.235,T*2A
$PYRTM,2024,124.001689930035,15.111337340174
$GNGGA,000226.00,3454.48223825,N,12128.55824385,W,2,12,0.8,5.839,M,-37.884,M,7.0,0135*64
$PYRTM,2024,124.001689930035,15.111337340174
$GNHDT,342.091,T*26
$PYRTM,2024,124.001695659792,15.111343069931
$GNGGA,000226.50,3454.48225398,N,12128.55840275,W,2,12,0.8,6.209,M,-37.884,M,7.4,0135*68
$PYRTM,2024,124.001695659792,15.111343069931
$GNHDT,342.068,T*20
$PYRTM,2024,124.001701499803,15.111348909954
$GNGGA,000227.00,3454.48230242,N,12128.55849219,W,2,12,0.8,6.565,M,-37.884,M,7.0,0135*64
$PYRTM,2024,124.001701499803,15.111348909954
$GNHDT,342.007,T*29
$PYRTM,2024,124.001707233634,15.111354643773
$GNGGA,000227.50,3454.48242719,N,12128.55851642,W,2,12,0.8,6.699,M,-37.884,M,7.4,0135*68
$PYRTM,2024,124.001707233634,15.111354643773
$GNHDT,341.603,T*28
$PYRTM,2024,124.001713079630,15.111360489769
$GNGGA,000228.00,3454.48264044,N,12128.55852036,W,2,12,0.8,6.549,M,-37.884,M,7.0,0135*65
$PYRTM,2024,124.001713079630,15.111360489769
$GNHDT,341.538,T*23
$PYRTM,2024,124.001718812187,15.111366222326
$GNGGA,000228.50,3454.48291934,N,12128.55856038,W,2,12,0.8,6.185,M,-37.884,M,7.4,0135*6E
$PYRTM,2024,124.001718812187,15.111366222326
$GNHDT,341.578,T*27
$PYRTM,2024,124.001724652211,15.111372062350
