$PYRTM,2024,125.500000133333,16.609647543472
$GNGGA,120000.00,3511.67851889,N,12148.12706025,W,2,12,1.0,6.970,M,-38.471,M,5.0,0131*6F
$PYRTM,2024,125.500000133333,16.609647543472
$GNHDT,125.357,T*2C
$PYRTM,2024,125.500005874005,16.609653284144
$GNGGA,120000.50,3511.67834303,N,12148.12672134,W,2,12,1.0,6.966,M,-38.471,M,5.4,0131*60
$PYRTM,2024,125.500005874005,16.609653284144
$GNHDT,125.487,T*26
$PYRTM,2024,125.500011708762,16.609659118900
$GNGGA,120001.00,3511.67812199,N,12148.12640955,W,2,11,1.0,6.950,M,-38.471,M,6.0,0131*6E
$PYRTM,2024,125.500011708762,16.609659118900
$GNHDT,125.614,T*2E
$PYRTM,2024,125.500017445382,16.609664855521
$GNGGA,120001.50,3511.67787056,N,12148.12610526,W,2,11,1.0,6.928,M,-38.471,M,6.4,0131*6C
$PYRTM,2024,125.500017445382,16.609664855521
$GNHDT,125.557,T*2A
$PYRTM,2024,125.500023285012,16.609670695139
$GNGGA,120002.00,3511.67759879,N,12148.12579877,W,2,11,1.0,6.914,M,-38.471,M,7.0,0131*63
$PYRTM,2024,125.500023285012,16.609670695139
$GNHDT,125.624,T*2D
$PYRTM,2024,125.500029022153,16.609676432303
$GNGGA,120002.50,3511.67734067,N,12148.12546520,W,2,11,1.0,6.935,M,-38.471,M,7.4,0131*6E
$PYRTM,2024,125.500029022153,16.609676432303
$GNHDT,125.104,T*28
$PYRTM,2024,125.500034857442,16.609682267581
$GNGGA,120003.00,3511.67711061,N,12148.12510676,W,2,11,1.0,7.003,M,-38.471,M,7.0,0131*61
$PYRTM,2024,125.500034857442,16.609682267581
$GNHDT,125.066,T*2D
$PYRTM,2024,125.500040596609,16.609688006748
$GNGGA,120003.50,3511.67692080,N,12148.12472897,W,2,11,1.0,7.132,M,-38.471,M,7.4,0131*62
$PYRTM,2024,125.500040596609,16.609688006748
$GNHDT,124.616,T*2D
$PYRTM,2024,125.500046434051,16.609693844190
$GNGGA,120004.00,3511.67676096,N,12148.12435317,W,2,11,1.0,7.328,M,-38.471,M,7.0,0131*60
$PYRTM,2024,125.500046434051,16.609693844190
$GNHDT,124.500,T*29
$PYRTM,2024,125.500052166910,16.609699577049
$GNGGA,120004.50,3511.67661851,N,12148.12398763,W,2,11,1.0,7.522,M,-38.471,M,7.4,0131*6F
$PYRTM,2024,125.500052166910,16.609699577049
$GNHDT,124.633,T*2A
$PYRTM,2024,125.500058005324,16.609705415463
$GNGGA,120005.00,3511.67646836,N,12148.12362793,W,2,11,1.0,7.654,M,-38.471,M,4.0,0131*60
$PYRTM,2024,125.500058005324,16.609705415463
$GNHDT,124.877,T*24
$PYRTM,2024,125.500063741331,16.609711151470
$GNGGA,120005.50,3511.67629086,N,12148.12327187,W,2,11,1.0,7.692,M,-38.471,M,4.4,0131*63
$PYRTM,2024,125.500063741331,16.609711151470
$GNHDT,125.243,T*28
$PYRTM,2024,125.500069582986,16.609716993125
$GNGGA,120006.00,3511.67608788,N,12148.12291341,W,2,11,1.0,7.637,M,-38.471,M,5.0,0131*61
$PYRTM,2024,125.500069582986,16.609716993125
$GNHDT,125.498,T*28
$PYRTM,2024,125.500075319919,16.609722730058
$GNGGA,120006.50,3511.67587518,N,12148.12256079,W,2,11,1.0,7.525,M,-38.471,M,5.4,0131*6C
$PYRTM,2024,125.500075319919,16.609722730058
$GNHDT,125.584,T*24
$PYRTM,2024,125.500081154549,16.609728564688
$GNGGA,120007.00,3511.67566801,N,12148.12221179,W,2,11,1.0,7.418,M,-38.471,M,6.0,0131*6B
$PYRTM,2024,125.500081154549,16.609728564688
$GNHDT,125.745,T*2B
$PYRTM,2024,125.500086892685,16.609734302824
$GNGGA,120007.50,3511.67548858,N,12148.12184781,W,2,11,1.0,7.365,M,-38.471,M,6.4,0131*6A
$PYRTM,2024,125.500086892685,16.609734302824
$GNHDT,125.342,T*28
$PYRTM,2024,125.500092728808,16.609740138947
$GNGGA,120008.00,3511.67532876,N,12148.12147541,W,2,11,1.0,7.376,M,-38.471,M,7.0,0131*67
$PYRTM,2024,125.500092728808,16.609740138947
$GNHDT,125.132,T*2D
$PYRTM,2024,125.500098465093,16.609745875231
$GNGGA,120008.50,3511.67518525,N,12148.12108856,W,2,11,1.0,7.422,M,-38.471,M,7.4,0131*63
$PYRTM,2024,125.500098465093,16.609745875231
$GNHDT,124.913,T*27
$PYRTM,2024,125.500104302789,16.609751712928
$GNGGA,120009.00,3511.67504693,N,12148.12070154,W,2,11,1.0,7.464,M,-38.471,M,7.0,0131*67
$PYRTM,2024,125.500104302789,16.609751712928
$GNHDT,124.574,T*2A
$PYRTM,2024,125.500110040231,16.609757450370
$GNGGA,120009.50,3511.67491251,N,12148.12032295,W,2,11,1.0,7.461,M,-38.471,M,7.4,0131*6C
$PYRTM,2024,125.500110040231,16.609757450370
$GNHDT,124.413,T*2A
$PYRTM,2024,125.500115876458,16.609763286597
$GNGGA,120010.00,3511.67477648,N,12148.11996552,W,2,11,1.0,7.394,M,-38.471,M,7.0,0131*64
$PYRTM,2024,125.500115876458,16.609763286597
$GNHDT,124.435,T*2E
$PYRTM,2024,125.500121613218,16.609769023356
$GNGGA,120010.50,3511.67463453,N,12148.11963125,W,2,11,1.0,7.254,M,-38.471,M,7.4,0131*6B
$PYRTM,2024,125.500121613218,16.609769023356
$GNHDT,124.572,T*2C
$PYRTM,2024,125.500127450521,16.609774860660
$GNGGA,120011.00,3511.67447363,N,12148.11932185,W,2,11,1.0,7.052,M,-38.471,M,4.0,0131*60
$PYRTM,2024,125.500127450521,16.609774860660
$GNHDT,124.466,T*28
$PYRTM,2024,125.500133187188,16.609780597326
$GNGGA,120011.50,3511.67429423,N,12148.11903499,W,2,11,1.0,6.817,M,-38.470,M,4.4,0131*69
$PYRTM,2024,125.500133187188,16.609780597326
$GNHDT,124.651,T*2E
$PYRTM,2024,125.500139028102,16.609786438241
$GNGGA,120012.00,3511.67409914,N,12148.11875790,W,2,11,1.0,6.576,M,-38.470,M,5.0,0131*61
$PYRTM,2024,125.500139028102,16.609786438241
$GNHDT,124.902,T*27
$PYRTM,2024,125.500144761377,16.609792171516
$GNGGA,120012.50,3511.67390218,N,12148.11848379,W,2,11,1.0,6.383,M,-38.470,M,5.4,0131*61
$PYRTM,2024,125.500144761377,16.609792171516
$GNHDT,124.740,T*2F
$PYRTM,2024,125.500150605486,16.609798015625
$GNGGA,120013.00,3511.67372091,N,12148.11820155,W,2,11,1.0,6.276,M,-38.470,M,6.0,0131*64
$PYRTM,2024,125.500150605486,16.609798015625
$GNHDT,124.943,T*22
$PYRTM,2024,125.500156333414,16.609803743553
$GNGGA,120013.50,3511.67355851,N,12148.11790699,W,2,11,1.0,6.264,M,-38.470,M,6.4,0131*64
$PYRTM,2024,125.500156333414,16.609803743553
$GNHDT,125.306,T*28
$PYRTM,2024,125.500162173843,16.609809583993
$GNGGA,120014.00,3511.67341367,N,12148.11760448,W,2,11,1.0,6.349,M,-38.470,M,7.0,0131*67
$PYRTM,2024,125.500162173843,16.609809583993
$GNHDT,125.394,T*23
$PYRTM,2024,125.500167908762,16.609815318900
$GNGGA,120014.50,3511.67327538,N,12148.11729758,W,2,11,1.0,6.472,M,-38.470,M,7.4,0131*6A
$PYRTM,2024,125.500167908762,16.609815318900
$GNHDT,125.530,T*2B
$PYRTM,2024,125.500173748403,16.609821158542
$GNGGA,120015.00,3511.67312934,N,12148.11698461,W,2,11,1.0,6.584,M,-38.470,M,7.0,0131*66
$PYRTM,2024,125.500173748403,16.609821158542
$GNHDT,125.356,T*2D
$PYRTM,2024,125.500179486030,16.609826896169
$GNGGA,120015.50,3511.67295957,N,12148.11667682,W,2,11,1.0,6.623,M,-38.470,M,7.4,0131*6D
$PYRTM,2024,125.500179486030,16.609826896169
$GNHDT,125.495,T*25
$PYRTM,2024,125.500185322801,16.609832732940
$GNGGA,120016.00,3511.67276441,N,12148.11636020,W,2,11,1.0,6.597,M,-38.470,M,7.0,0131*6E
$PYRTM,2024,125.500185322801,16.609832732940
$GNHDT,125.114,T*29
$PYRTM,2024,125.500191055741,16.609838465880
$GNGGA,120016.50,3511.67255357,N,12148.11603774,W,2,11,1.0,6.508,M,-38.470,M,7.4,0131*68
$PYRTM,2024,125.500191055741,16.609838465880
$GNHDT,124.971,T*23
$PYRTM,2024,125.500196895058,16.609844305197
$GNGGA,120017.00,3511.67233759,N,12148.11569128,W,2,11,1.0,6.419,M,-38.470,M,4.0,0131*60
$PYRTM,2024,125.500196895058,16.609844305197
$GNHDT,124.478,T*27
$PYRTM,2024,125.500202632002,16.609850042141
$GNGGA,120017.50,3511.67213101,N,12148.11532389,W,2,11,1.0,6.396,M,-38.470,M,4.4,0131*6F
$PYRTM,2024,125.500202632002,16.609850042141
$GNHDT,124.287,T*21
$PYRTM,2024,125.500208470833,16.609855880972
$GNGGA,120018.00,3511.67194997,N,12148.11494041,W,2,11,1.0,6.496,M,-38.470,M,5.0,0131*66
$PYRTM,2024,125.500208470833,16.609855880972
$GNHDT,123.991,T*2A
$PYRTM,2024,125.500214204931,16.609861615069
$GNGGA,120018.50,3511.67179599,N,12148.11454341,W,2,11,1.0,6.723,M,-38.470,M,5.4,0131*64
$PYRTM,2024,125.500214204931,16.609861615069
$GNHDT,123.721,T*2F
$PYRTM,2024,125.500220047674,16.609867457813
$GNGGA,120019.00,3511.67165963,N,12148.11415802,W,2,11,1.0,7.059,M,-38.470,M,6.0,0131*61
$PYRTM,2024,125.500220047674,16.609867457813
$GNHDT,123.722,T*2C
$PYRTM,2024,125.500225778970,16.609873189109
$GNGGA,120019.50,3511.67152182,N,12148.11379198,W,2,11,1.0,7.416,M,-38.470,M,6.4,0131*6B
$PYRTM,2024,125.500225778970,16.609873189109
$GNHDT,123.813,T*21
$PYRTM,2024,125.500231619375,16.609879029514
$GNGGA,120020.00,3511.67136060,N,12148.11345540,W,2,11,1.0,7.751,M,-38.470,M,7.0,0131*60
$PYRTM,2024,125.500231619375,16.609879029514
$GNHDT,123.907,T*25
$PYRTM,2024,125.500237354931,16.609884765069
$GNGGA,120020.50,3511.67115816,N,12148.11314570,W,2,11,1.0,7.989,M,-38.470,M,7.4,0131*65
$PYRTM,2024,125.500237354931,16.609884765069
$GNHDT,124.349,T*22
$PYRTM,2024,125.500243193993,16.609890604144
$GNGGA,120021.00,3511.67092182,N,12148.11284538,W,2,11,1.0,8.103,M,-38.470,M,7.0,0131*6E
$PYRTM,2024,125.500243193993,16.609890604144
$GNHDT,124.403,T*2B
$PYRTM,2024,125.500248931285,16.609896341424
$GNGGA,120021.50,3511.67067358,N,12148.11253389,W,2,11,1.0,8.107,M,-38.470,M,7.4,0131*62
$PYRTM,2024,125.500248931285,16.609896341424
$GNHDT,124.948,T*29
$PYRTM,2024,125.500254766308,16.609902176447
$GNGGA,120022.00,3511.67043673,N,12148.11218474,W,2,11,1.0,7.999,M,-38.470,M,7.0,0131*60
$PYRTM,2024,125.500254766308,16.609902176447
$GNHDT,124.863,T*21
$PYRTM,2024,125.500260504757,16.609907914896
$GNGGA,120022.50,3511.67023517,N,12148.11178919,W,2,11,1.0,7.850,M,-38.470,M,7.4,0131*61
$PYRTM,2024,125.500260504757,16.609907914896
$GNHDT,124.810,T*25
$PYRTM,2024,125.500266344167,16.609913754317
$GNGGA,120023.00,3511.67008452,N,12148.11134535,W,2,11,1.0,7.676,M,-38.470,M,4.0,0131*6B
$PYRTM,2024,125.500266344167,16.609913754317
$GNHDT,124.832,T*25
$PYRTM,2024,125.500272076678,16.609919486817
$GNGGA,120023.50,3511.66997707,N,12148.11087616,W,2,11,1.0,7.491,M,-38.470,M,4.4,0131*67
$PYRTM,2024,125.500272076678,16.609919486817
$GNHDT,124.233,T*2E
$PYRTM,2024,125.500277913762,16.609925323900
$GNGGA,120024.00,3511.66989453,N,12148.11040643,W,2,11,1.0,7.324,M,-38.470,M,5.0,0131*6F
$PYRTM,2024,125.500277913762,16.609925323900
$GNHDT,123.644,T*2D
$PYRTM,2024,125.500283649479,16.609931059630
$GNGGA,120024.50,3511.66981575,N,12148.10996840,W,2,11,1.0,7.149,M,-38.470,M,5.4,0131*64
$PYRTM,2024,125.500283649479,16.609931059630
$GNHDT,123.242,T*2F
$PYRTM,2024,125.500289489583,16.609936899734
$GNGGA,120025.00,3511.66971623,N,12148.10958002,W,2,11,1.0,6.977,M,-38.470,M,6.0,0131*60
$PYRTM,2024,125.500289489583,16.609936899734
$GNHDT,122.656,T*2F
$PYRTM,2024,125.500295226806,16.609942636944
$GNGGA,120025.50,3511.66958156,N,12148.10924360,W,2,11,1.0,6.826,M,-38.470,M,6.4,0131*66
$PYRTM,2024,125.500295226806,16.609942636944
$GNHDT,123.143,T*2D
$PYRTM,2024,125.500301062164,16.609948472303
$GNGGA,120026.00,3511.66941351,N,12148.10895805,W,2,11,1.0,6.693,M,-38.470,M,7.0,0131*6B
$PYRTM,2024,125.500301062164,16.609948472303
$GNHDT,123.367,T*29
$PYRTM,2024,125.500306801539,16.609954211678
$GNGGA,120026.50,3511.66922435,N,12148.10870800,W,2,11,1.0,6.582,M,-38.470,M,7.4,0131*67
$PYRTM,2024,125.500306801539,16.609954211678
$GNHDT,123.805,T*26
$PYRTM,2024,125.500312638542,16.609960048681
$GNGGA,120027.00,3511.66902013,N,12148.10848393,W,2,11,1.0,6.477,M,-38.470,M,7.0,0131*64
$PYRTM,2024,125.500312638542,16.609960048681
$GNHDT,124.050,T*29
$PYRTM,2024,125.500318371933,16.609965782083
$GNGGA,120027.50,3511.66880822,N,12148.10827015,W,2,11,1.0,6.351,M,-38.470,M,7.4,0131*63
$PYRTM,2024,125.500318371933,16.609965782083
$GNHDT,124.300,T*2F
$PYRTM,2024,125.500324213866,16.609971624005
$GNGGA,120028.00,3511.66858953,N,12148.10804065,W,2,11,1.0,6.177,M,-38.470,M,7.0,0131*6F
$PYRTM,2024,125.500324213866,16.609971624005
$GNHDT,124.479,T*26
$PYRTM,2024,125.500329947245,16.609977357384
$GNGGA,120028.50,3511.66837760,N,12148.10777872,W,2,11,1.0,6.016,M,-38.470,M,7.4,0131*6A
$PYRTM,2024,125.500329947245,16.609977357384
$GNHDT,124.479,T*26
$PYRTM,2024,125.500335788414,16.609983198553
$GNGGA,120029.00,3511.66817933,N,12148.10746008,W,2,11,1.0,5.906,M,-38.470,M,4.0,0131*6F
$PYRTM,2024,125.500335788414,16.609983198553
$GNHDT,124.664,T*28
$PYRTM,2024,125.500341519410,16.609988929549
$GNGGA,120029.50,3511.66802453,N,12148.10708856,W,2,11,1.0,5.945,M,-38.470,M,4.4,0131*6F
$PYRTM,2024,125.500341519410,16.609988929549
$GNHDT,124.365,T*2C
$PYRTM,2024,125.500347368218,16.609994778356
$GNGGA,120030.00,3511.66791407,N,12148.10668223,W,2,11,1.0,6.149,M,-38.470,M,5.0,0131*6B
$PYRTM,2024,125.500347368218,16.609994778356
$GNHDT,123.996,T*2D
$PYRTM,2024,125.500353094676,16.610000504815
$GNGGA,120030.50,3511.66783944,N,12148.10626360,W,2,11,1.0,6.499,M,-38.470,M,5.4,0131*67
$PYRTM,2024,125.500353094676,16.610000504815
$GNHDT,123.950,T*27
$PYRTM,2024,125.500358937176,16.610006347315
$GNGGA,120031.00,3511.66777013,N,12148.10586881,W,2,11,1.0,6.864,M,-38.470,M,6.0,0131*67
$PYRTM,2024,125.500358937176,16.610006347315
$GNHDT,123.988,T*22
$PYRTM,2024,125.500364669363,16.610012079502
$GNGGA,120031.50,3511.66766111,N,12148.10551843,W,2,11,1.0,7.136,M,-38.470,M,6.4,0131*6E
$PYRTM,2024,125.500364669363,16.610012079502
$GNHDT,123.647,T*2E
$PYRTM,2024,125.500370511551,16.610017921690
$GNGGA,120032.00,3511.66748208,N,12148.10520969,W,2,11,1.0,7.228,M,-38.470,M,7.0,0131*69
$PYRTM,2024,125.500370511551,16.610017921690
$GNHDT,123.569,T*21
$PYRTM,2024,125.500376242118,16.610023652257
$GNGGA,120032.50,3511.66724739,N,12148.10493293,W,2,11,1.0,7.143,M,-38.470,M,7.4,0131*6C
$PYRTM,2024,125.500376242118,16.610023652257
$GNHDT,123.266,T*29
$PYRTM,2024,125.500382082859,16.610029492998
$GNGGA,120033.00,3511.66698052,N,12148.10466153,W,2,11,1.0,6.946,M,-38.470,M,7.0,0131*69
$PYRTM,2024,125.500382082859,16.610029492998
$GNHDT,123.248,T*25
$PYRTM,2024,125.500387817998,16.610035228137
$GNGGA,120033.50,3511.66672510,N,12148.10437468,W,2,11,1.0,6.758,M,-38.470,M,7.4,0131*67
$PYRTM,2024,125.500387817998,16.610035228137
$GNHDT,123.889,T*22
$PYRTM,2024,125.500393654005,16.610041064144
$GNGGA,120034.00,3511.66651892,N,12148.10406201,W,2,11,1.0,6.674,M,-38.470,M,7.0,0131*63
$PYRTM,2024,125.500393654005,16.610041064144
$GNHDT,124.196,T*22
$PYRTM,2024,125.500399395150,16.610046805289
$GNGGA,120034.50,3511.66637097,N,12148.10371300,W,2,11,1.0,6.755,M,-38.470,M,7.4,0131*6A
$PYRTM,2024,125.500399395150,16.610046805289
$GNHDT,124.420,T*2A
$PYRTM,2024,125.500405235810,16.610052645949
$GNGGA,120035.00,3511.66627686,N,12148.10333066,W,2,11,1.0,6.982,M,-38.470,M,4.0,0131*6F
$PYRTM,2024,125.500405235810,16.610052645949
$GNHDT,124.391,T*27
$PYRTM,2024,125.500410966424,16.610058376563
$GNGGA,120035.50,3511.66620452,N,12148.10292508,W,2,11,1.0,7.268,M,-38.470,M,4.4,0131*6B
$PYRTM,2024,125.500410966424,16.610058376563
$GNHDT,124.038,T*27
$PYRTM,2024,125.500416807870,16.610064218009
$GNGGA,120036.00,3511.66612569,N,12148.10251560,W,2,11,1.0,7.525,M,-38.470,M,5.0,0131*6F
$PYRTM,2024,125.500416807870,16.610064218009
$GNHDT,123.746,T*2E
$PYRTM,2024,125.500422539572,16.610069949722
$GNGGA,120036.50,3511.66601171,N,12148.10212910,W,2,11,1.0,7.691,M,-38.470,M,5.4,0131*61
$PYRTM,2024,125.500422539572,16.610069949722
$GNHDT,123.568,T*20
$PYRTM,2024,125.500428379236,16.610075789375
$GNGGA,120037.00,3511.66585025,N,12148.10176464,W,2,11,1.0,7.730,M,-38.470,M,6.0,0131*68
$PYRTM,2024,125.500428379236,16.610075789375
$GNHDT,123.358,T*25
$PYRTM,2024,125.500434115833,16.610081525972
$GNGGA,120037.50,3511.66564530,N,12148.10141970,W,2,11,1.0,7.639,M,-38.470,M,6.4,0131*63
$PYRTM,2024,125.500434115833,16.610081525972
$GNHDT,123.297,T*27
$PYRTM,2024,125.500439959028,16.610087369167
$GNGGA,120038.00,3511.66541363,N,12148.10107723,W,2,11,1.0,7.463,M,-38.470,M,7.0,0131*6C
$PYRTM,2024,125.500439959028,16.610087369167
$GNHDT,123.368,T*26
$PYRTM,2024,125.500445688993,16.610093099144
$GNGGA,120038.50,3511.66518675,N,12148.10072748,W,2,11,1.0,7.261,M,-38.470,M,7.4,0131*69
$PYRTM,2024,125.500445688993,16.610093099144
$GNHDT,123.982,T*28
$PYRTM,2024,125.500451525509,16.610098935648
$GNGGA,120039.00,3511.66498246,N,12148.10036791,W,2,11,1.0,7.088,M,-38.470,M,7.0,0131*65
$PYRTM,2024,125.500451525509,16.610098935648
$GNHDT,124.345,T*2E
$PYRTM,2024,125.500457260532,16.610104670671
$GNGGA,120039.50,3511.66481498,N,12148.10000210,W,2,11,1.0,6.971,M,-38.470,M,7.4,0131*6E
$PYRTM,2024,125.500457260532,16.610104670671
$GNHDT,124.445,T*29
$PYRTM,2024,125.500463104062,16.610110514201
$GNGGA,120040.00,3511.66468564,N,12148.09964343,W,2,11,1.0,6.916,M,-38.470,M,7.0,0131*61
$PYRTM,2024,125.500463104062,16.610110514201
$GNHDT,124.530,T*2A
$PYRTM,2024,125.500468839803,16.610116249942
$GNGGA,120040.50,3511.66458124,N,12148.09930375,W,2,11,1.0,6.913,M,-38.470,M,7.4,0131*62
$PYRTM,2024,125.500468839803,16.610116249942
$GNHDT,124.292,T*25
$PYRTM,2024,125.500474681030,16.610122091169
$GNGGA,120041.00,3511.66448204,N,12148.09898677,W,2,11,1.0,6.914,M,-38.470,M,4.0,0131*62
$PYRTM,2024,125.500474681030,16.610122091169
$GNHDT,124.097,T*22
$PYRTM,2024,125.500480410706,16.610127820845
$GNGGA,120041.50,3511.66436724,N,12148.09868637,W,2,11,1.0,6.885,M,-38.470,M,4.4,0131*6F
$PYRTM,2024,125.500480410706,16.610127820845
$GNHDT,123.626,T*29
$PYRTM,2024,125.500486250428,16.610133660567
$GNGGA,120042.00,3511.66421383,N,12148.09838434,W,2,11,1.0,6.803,M,-38.470,M,5.0,0131*69
$PYRTM,2024,125.500486250428,16.610133660567
$GNHDT,123.894,T*2E
$PYRTM,2024,125.500491985394,16.610139395532
$GNGGA,120042.50,3511.66402180,N,12148.09806589,W,2,11,1.0,6.670,M,-38.470,M,5.4,0131*68
$PYRTM,2024,125.500491985394,16.610139395532
$GNHDT,123.878,T*2C
$PYRTM,2024,125.500497823785,16.610145233924
$GNGGA,120043.00,3511.66379645,N,12148.09773048,W,2,11,1.0,6.522,M,-38.470,M,6.0,0131*6F
$PYRTM,2024,125.500497823785,16.610145233924
$GNHDT,123.624,T*2B
$PYRTM,2024,125.500503560613,16.610150970764
$GNGGA,120043.50,3511.66355387,N,12148.09739185,W,2,11,1.0,6.427,M,-38.470,M,6.4,0131*61
$PYRTM,2024,125.500503560613,16.610150970764
$GNHDT,123.449,T*22
$PYRTM,2024,125.500509395324,16.610156805463
$GNGGA,120044.00,3511.66331404,N,12148.09705629,W,2,11,1.0,6.444,M,-38.470,M,7.0,0131*63
$PYRTM,2024,125.500509395324,16.610156805463
$GNHDT,123.788,T*2C
$PYRTM,2024,125.500515130509,16.610162540648
$GNGGA,120044.50,3511.66309518,N,12148.09671433,W,2,11,1.0,6.553,M,-38.470,M,7.4,0131*69
$PYRTM,2024,125.500515130509,16.610162540648
$GNHDT,124.249,T*23
$PYRTM,2024,125.500520968160,16.610168378299
$GNGGA,120045.00,3511.66290689,N,12148.09635969,W,2,11,1.0,6.764,M,-38.470,M,7.0,0131*67
$PYRTM,2024,125.500520968160,16.610168378299
$GNHDT,124.523,T*28
$PYRTM,2024,125.500526708600,16.610174118750
$GNGGA,120045.50,3511.66274362,N,12148.09599014,W,2,11,1.0,7.013,M,-38.470,M,7.4,0131*6C
$PYRTM,2024,125.500526708600,16.610174118750
$GNHDT,124.707,T*2C
$PYRTM,2024,125.500532544340,16.610179954479
$GNGGA,120046.00,3511.66259876,N,12148.09561015,W,2,11,1.0,7.255,M,-38.470,M,7.0,0131*69
$PYRTM,2024,125.500532544340,16.610179954479
$GNHDT,124.913,T*27
$PYRTM,2024,125.500538277870,16.610185688009
$GNGGA,120046.50,3511.66245616,N,12148.09522891,W,2,11,1.0,7.407,M,-38.470,M,7.4,0131*6F
$PYRTM,2024,125.500538277870,16.610185688009
$GNHDT,125.040,T*29
$PYRTM,2024,125.500544122604,16.610191532743
$GNGGA,120047.00,3511.66231908,N,12148.09484845,W,2,11,1.0,7.437,M,-38.470,M,4.0,0131*68
$PYRTM,2024,125.500544122604,16.610191532743
$GNHDT,124.777,T*2B
$PYRTM,2024,125.500549853449,16.610197263588
$GNGGA,120047.50,3511.66218612,N,12148.09448133,W,2,11,1.0,7.343,M,-38.470,M,4.4,0131*6A
$PYRTM,2024,125.500549853449,16.610197263588
$GNHDT,124.513,T*2B
$PYRTM,2024,125.500555693287,16.610203103426
$GNGGA,120048.00,3511.66206003,N,12148.09414051,W,2,11,1.0,7.133,M,-38.470,M,5.0,0131*65
$PYRTM,2024,125.500555693287,16.610203103426
$GNHDT,124.418,T*21
$PYRTM,2024,125.500561430775,16.610208840914
$GNGGA,120048.50,3511.66194313,N,12148.09382721,W,2,11,1.0,6.845,M,-38.470,M,5.4,0131*6F
$PYRTM,2024,125.500561430775,16.610208840914
$GNHDT,124.281,T*27
$PYRTM,2024,125.500567267361,16.610214677500
$GNGGA,120049.00,3511.66182464,N,12148.09354970,W,2,11,1.0,6.507,M,-38.470,M,6.0,0131*66
$PYRTM,2024,125.500567267361,16.610214677500
$GNHDT,124.210,T*2F
$PYRTM,2024,125.500573003264,16.610220413403
$GNGGA,120049.50,3511.66169312,N,12148.09329588,W,2,11,1.0,6.219,M,-38.470,M,6.4,0131*6D
$PYRTM,2024,125.500573003264,16.610220413403
$GNHDT,123.964,T*20
$PYRTM,2024,125.500578843970,16.610226254109
$GNGGA,120050.00,3511.66155077,N,12148.09305624,W,2,11,1.0,6.035,M,-38.470,M,7.0,0131*6D
$PYRTM,2024,125.500578843970,16.610226254109
$GNHDT,123.956,T*21
$PYRTM,2024,125.500584577141,16.610231987292
$GNGGA,120050.50,3511.66141115,N,12148.09280502,W,2,11,1.0,6.048,M,-38.470,M,7.4,0131*6D
$PYRTM,2024,125.500584577141,16.610231987292
$GNHDT,124.028,T*26
$PYRTM,2024,125.500590415139,16.610237825289
$GNGGA,120051.00,3511.66129151,N,12148.09252466,W,2,11,1.0,6.263,M,-38.470,M,7.0,0131*64
$PYRTM,2024,125.500590415139,16.610237825289
$GNHDT,124.276,T*2F
$PYRTM,2024,125.500596155787,16.610243565938
$GNGGA,120051.50,3511.66120126,N,12148.09220410,W,2,11,1.0,6.636,M,-38.470,M,7.4,0131*6C
$PYRTM,2024,125.500596155787,16.610243565938
$GNHDT,124.600,T*2A
$PYRTM,2024,125.500601991516,16.610249401655
$GNGGA,120052.00,3511.66111637,N,12148.09183659,W,2,11,1.0,7.081,M,-38.470,M,7.0,0131*65
$PYRTM,2024,125.500601991516,16.610249401655
$GNHDT,124.730,T*28
$PYRTM,2024,125.500607722836,16.610255132975
$GNGGA,120052.50,3511.66100191,N,12148.09144845,W,2,11,1.0,7.478,M,-38.470,M,7.4,0131*65
$PYRTM,2024,125.500607722836,16.610255132975
$GNHDT,124.424,T*2E
$PYRTM,2024,125.500613567708,16.610260977847
$GNGGA,120053.00,3511.66081379,N,12148.09104948,W,2,11,1.0,7.723,M,-38.470,M,4.0,0131*6F
$PYRTM,2024,125.500613567708,16.610260977847
$GNHDT,124.531,T*2B
$PYRTM,2024,125.500619299259,16.610266709398
$GNGGA,120053.50,3511.66055722,N,12148.09065558,W,2,11,1.0,7.798,M,-38.470,M,4.4,0131*66
$PYRTM,2024,125.500619299259,16.610266709398
$GNHDT,124.320,T*2D
$PYRTM,2024,125.500625139201,16.610272549352
$GNGGA,120054.00,3511.66025320,N,12148.09026913,W,2,11,1.0,7.688,M,-38.469,M,5.0,0131*6C
$PYRTM,2024,125.500625139201,16.610272549352
$GNHDT,124.563,T*2C
$PYRTM,2024,125.500630869815,16.610278279954
$GNGGA,120054.50,3511.65993880,N,12148.08989610,W,2,11,1.0,7.483,M,-38.469,M,5.4,0131*63
$PYRTM,2024,125.500630869815,16.610278279954
$GNHDT,124.499,T*28
$PYRTM,2024,125.500636712870,16.610284123009
$GNGGA,120055.00,3511.65966540,N,12148.08952949,W,2,11,1.0,7.248,M,-38.469,M,6.0,0131*6F
$PYRTM,2024,125.500636712870,16.610284123009
$GNHDT,124.357,T*2D
$PYRTM,2024,125.500642449676,16.610289859826
$GNGGA,120055.50,3511.65945902,N,12148.08915965,W,2,11,1.0,7.057,M,-38.469,M,6.4,0131*64
$PYRTM,2024,125.500642449676,16.610289859826
$GNHDT,124.362,T*2B
$PYRTM,2024,125.500648286505,16.610295696644
$GNGGA,120056.00,3511.65931657,N,12148.08877591,W,2,11,1.0,6.927,M,-38.469,M,7.0,0131*66
$PYRTM,2024,125.500648286505,16.610295696644
$GNHDT,124.517,T*2F
$PYRTM,2024,125.500654026551,16.610301436690
$GNGGA,120056.50,3511.65921802,N,12148.08838036,W,2,11,1.0,6.856,M,-38.469,M,7.4,0131*6C
$PYRTM,2024,125.500654026551,16.610301436690
$GNHDT,124.692,T*21
$PYRTM,2024,125.500659865162,16.610307275301
$GNGGA,120057.00,3511.65913347,N,12148.08797573,W,2,11,1.0,6.805,M,-38.469,M,7.0,0131*6F
$PYRTM,2024,125.500659865162,16.610307275301
$GNHDT,124.557,T*2B
$PYRTM,2024,125.500665599641,16.610313009780
$GNGGA,120057.50,3511.65902169,N,12148.08757837,W,2,11,1.0,6.778,M,-38.469,M,7.4,0131*64
$PYRTM,2024,125.500665599641,16.610313009780
$GNHDT,124.701,T*2A
$PYRTM,2024,125.500671435116,16.610318845255
$GNGGA,120058.00,3511.65886542,N,12148.08721869,W,2,11,1.0,6.749,M,-38.469,M,7.0,0131*62
$PYRTM,2024,125.500671435116,16.610318845255
$GNHDT,124.662,T*2E
$PYRTM,2024,125.500677177986,16.610324588125
$GNGGA,120058.50,3511.65866412,N,12148.08691173,W,2,11,1.0,6.740,M,-38.469,M,7.4,0131*68
$PYRTM,2024,125.500677177986,16.610324588125
$GNHDT,124.529,T*22
$PYRTM,2024,125.500683008218,16.610330418356
$GNGGA,120059.00,3511.65843863,N,12148.08666091,W,2,11,1.0,6.770,M,-38.469,M,4.0,0131*60
$PYRTM,2024,125.500683008218,16.610330418356
$GNHDT,124.110,T*2C
$PYRTM,2024,125.500688746771,16.610336156910
$GNGGA,120059.50,3511.65822008,N,12148.08643445,W,2,11,1.0,6.846,M,-38.469,M,4.4,0131*63
$PYRTM,2024,125.500688746771,16.610336156910
$GNHDT,124.293,T*24
$PYRTM,2024,125.500694583472,16.610341993611
$GNGGA,120100.00,3511.65802064,N,12148.08620241,W,2,11,1.0,6.957,M,-38.469,M,5.0,0131*60
$PYRTM,2024,125.500694583472,16.610341993611
$GNHDT,124.368,T*21
$PYRTM,2024,125.500700317280,16.610347727419
$GNGGA,120100.50,3511.65783787,N,12148.08593207,W,2,11,1.0,7.077,M,-38.469,M,5.4,0131*6E
$PYRTM,2024,125.500700317280,16.610347727419
$GNHDT,124.517,T*2F
$PYRTM,2024,125.500706159387,16.610353569525
$GNGGA,120101.00,3511.65766076,N,12148.08559899,W,2,11,1.0,7.170,M,-38.469,M,6.0,0131*62
$PYRTM,2024,125.500706159387,16.610353569525
$GNHDT,124.618,T*23
$PYRTM,2024,125.500711893576,16.610359303715
$GNGGA,120101.50,3511.65748170,N,12148.08519653,W,2,11,1.0,7.191,M,-38.469,M,6.4,0131*6B
$PYRTM,2024,125.500711893576,16.610359303715
$GNHDT,124.607,T*2D
$PYRTM,2024,125.500717731493,16.610365141632
$GNGGA,120102.00,3511.65730179,N,12148.08474217,W,2,11,1.0,7.176,M,-38.469,M,7.0,0131*69
$PYRTM,2024,125.500717731493,16.610365141632
$GNHDT,124.657,T*28
$PYRTM,2024,125.500723469595,16.610370879734
$GNGGA,120102.50,3511.65714125,N,12148.08427539,W,2,11,1.0,7.167,M,-38.469,M,7.4,0131*6A
$PYRTM,2024,125.500723469595,16.610370879734
$GNHDT,124.682,T*20
$PYRTM,2024,125.500729309398,16.610376719549
$GNGGA,120103.00,3511.65700104,N,12148.08383009,W,2,11,1.0,7.182,M,-38.469,M,7.0,0131*68
$PYRTM,2024,125.500729309398,16.610376719549
$GNHDT,124.747,T*28
$PYRTM,2024,125.500735046146,16.610382456285
$GNGGA,120103.50,3511.65686857,N,12148.08342840,W,2,11,1.0,7.197,M,-38.469,M,7.4,0131*65
$PYRTM,2024,125.500735046146,16.610382456285
$GNHDT,124.364,T*2D
$PYRTM,2024,125.500740879803,16.610388289942
$GNGGA,120104.00,3511.65671823,N,12148.08308007,W,2,11,1.0,7.188,M,-38.469,M,7.0,0131*63
$PYRTM,2024,125.500740879803,16.610388289942
$GNHDT,124.362,T*2B
$PYRTM,2024,125.500746614259,16.610394024410
$GNGGA,120104.50,3511.65654139,N,12148.08278929,W,2,11,1.0,7.095,M,-38.469,M,7.4,0131*69
$PYRTM,2024,125.500746614259,16.610394024410
$GNHDT,124.592,T*22
$PYRTM,2024,125.500752457118,16.610399867257
$GNGGA,120105.00,3511.65634540,N,12148.08254622,W,2,11,1.0,6.914,M,-38.469,M,4.0,0131*6D
$PYRTM,2024,125.500752457118,16.610399867257
$GNHDT,124.774,T*28
$PYRTM,2024,125.500758189074,16.610405599225
$GNGGA,120105.50,3511.65615040,N,12148.08232737,W,2,11,1.0,6.670,M,-38.469,M,4.4,0131*62
$PYRTM,2024,125.500758189074,16.610405599225
$GNHDT,124.558,T*24
$PYRTM,2024,125.500764026991,16.610411437130
$GNGGA,120106.00,3511.65598139,N,12148.08210864,W,2,11,1.0,6.378,M,-38.469,M,5.0,0131*6C
$PYRTM,2024,125.500764026991,16.610411437130
$GNHDT,124.686,T*24
$PYRTM,2024,125.500769761771,16.610417171921
$GNGGA,120106.50,3511.65585682,N,12148.08186300,W,2,11,1.0,6.091,M,-38.469,M,5.4,0131*67
$PYRTM,2024,125.500769761771,16.610417171921
$GNHDT,124.885,T*29
$PYRTM,2024,125.500775603171,16.610423013310
$GNGGA,120107.00,3511.65577029,N,12148.08158665,W,2,11,1.0,5.856,M,-38.469,M,6.0,0131*6B
$PYRTM,2024,125.500775603171,16.610423013310
$GNHDT,125.328,T*24
$PYRTM,2024,125.500781342106,16.610428752257
$GNGGA,120107.50,3511.65569968,N,12148.08128713,W,2,11,1.0,5.712,M,-38.469,M,6.4,0131*61
$PYRTM,2024,125.500781342106,16.610428752257
$GNHDT,125.313,T*2C
$PYRTM,2024,125.500787180093,16.610434590243
$GNGGA,120108.00,3511.65561828,N,12148.08096902,W,2,11,1.0,5.711,M,-38.469,M,7.0,0131*6A
$PYRTM,2024,125.500787180093,16.610434590243
$GNHDT,124.954,T*24
$PYRTM,2024,125.500792909352,16.610440319491
$GNGGA,120108.50,3511.65549824,N,12148.08064351,W,2,11,1.0,5.879,M,-38.469,M,7.4,0131*6D
$PYRTM,2024,125.500792909352,16.610440319491
$GNHDT,124.166,T*2D
$PYRTM,2024,125.500798749444,16.610446159583
$GNGGA,120109.00,3511.65532923,N,12148.08031065,W,2,11,1.0,6.203,M,-38.469,M,7.0,0131*67
$PYRTM,2024,125.500798749444,16.610446159583
$GNHDT,123.952,T*25
$PYRTM,2024,125.500804489942,16.610451900081
$GNGGA,120109.50,3511.65512032,N,12148.07996249,W,2,11,1.0,6.661,M,-38.469,M,7.4,0131*6A
$PYRTM,2024,125.500804489942,16.610451900081
$GNHDT,123.855,T*23
$PYRTM,2024,125.500810324653,16.610457734792
$GNGGA,120110.00,3511.65488362,N,12148.07959292,W,2,11,1.0,7.197,M,-38.469,M,7.0,0131*6D
$PYRTM,2024,125.500810324653,16.610457734792
$GNHDT,123.816,T*24
$PYRTM,2024,125.500816062847,16.610463472986
$GNGGA,120110.50,3511.65463971,N,12148.07920746,W,2,11,1.0,7.709,M,-38.469,M,7.4,0131*62
$PYRTM,2024,125.500816062847,16.610463472986
$GNHDT,123.840,T*27
$PYRTM,2024,125.500821899965,16.610469310104
$GNGGA,120111.00,3511.65438808,N,12148.07880286,W,2,11,1.0,8.147,M,-38.469,M,4.0,0131*61
$PYRTM,2024,125.500821899965,16.610469310104
$GNHDT,124.243,T*29
$PYRTM,2024,125.500827634340,16.610475044479
$GNGGA,120111.50,3511.65412707,N,12148.07838371,W,2,12,1.0,8.332,M,-38.469,M,4.4,0131*61
$PYRTM,2024,125.500827634340,16.610475044479
$GNHDT,124.647,T*29
$PYRTM,2024,125.500833471169,16.610480881308
$GNGGA,120112.00,3511.65386374,N,12148.07795338,W,2,12,1.0,8.308,M,-38.469,M,5.0,0131*64
$PYRTM,2024,125.500833471169,16.610480881308
$GNHDT,124.997,T*2B
$PYRTM,2024,125.500839205891,16.610486616030
$GNGGA,120112.50,3511.65359843,N,12148.07753069,W,2,12,1.0,8.085,M,-38.469,M,5.4,0131*63
$PYRTM,2024,125.500839205891,16.610486616030
$GNHDT,125.059,T*21
$PYRTM,2024,125.500845048519,16.610492458657
$GNGGA,120113.00,3511.65335692,N,12148.07712041,W,2,12,1.0,7.761,M,-38.469,M,6.0,0131*65
$PYRTM,2024,125.500845048519,16.610492458657
$GNHDT,125.294,T*22
$PYRTM,2024,125.500850781481,16.610498191632
$GNGGA,120113.50,3511.65315697,N,12148.07672700,W,2,12,1.0,7.420,M,-38.469,M,6.4,0131*60
$PYRTM,2024,125.500850781481,16.610498191632
$GNHDT,125.378,T*21
$PYRTM,2024,125.500856620463,16.610504030602
$GNGGA,120114.00,3511.65301669,N,12148.07634786,W,2,12,1.0,7.140,M,-38.469,M,7.0,0131*6C
$PYRTM,2024,125.500856620463,16.610504030602
$GNHDT,125.340,T*2A
$PYRTM,2024,125.500862357477,16.610509767616
$GNGGA,120114.50,3511.65292485,N,12148.07598260,W,2,12,1.0,6.949,M,-38.469,M,7.4,0131*6E
$PYRTM,2024,125.500862357477,16.610509767616
$GNHDT,125.112,T*2F
$PYRTM,2024,125.500868194711,16.610515604850
$GNGGA,120115.00,3511.65286467,N,12148.07563414,W,2,12,1.0,6.852,M,-38.469,M,7.0,0131*6D
$PYRTM,2024,125.500868194711,16.610515604850
$GNHDT,124.771,T*2D
$PYRTM,2024,125.500873929514,16.610521339664
$GNGGA,120115.50,3511.65280314,N,12148.07530675,W,2,12,1.0,6.802,M,-38.469,M,7.4,0131*6F
$PYRTM,2024,125.500873929514,16.610521339664
$GNHDT,124.592,T*22
$PYRTM,2024,125.500879768958,16.610527179097
$GNGGA,120116.00,3511.65271717,N,12148.07500779,W,2,12,1.0,6.782,M,-38.469,M,7.0,0131*6D
$PYRTM,2024,125.500879768958,16.610527179097
$GNHDT,124.321,T*2C
$PYRTM,2024,125.500885502650,16.610532912789
$GNGGA,120116.50,3511.65258827,N,12148.07472860,W,2,12,1.0,6.733,M,-38.469,M,7.4,0131*62
$PYRTM,2024,125.500885502650,16.610532912789
$GNHDT,124.030,T*2F
$PYRTM,2024,125.500891342836,16.610538752975
$GNGGA,120117.00,3511.65241180,N,12148.07446371,W,2,12,1.0,6.709,M,-38.469,M,4.0,0131*68
$PYRTM,2024,125.500891342836,16.610538752975
$GNHDT,124.000,T*2C
$PYRTM,2024,125.500897084282,16.610544494421
$GNGGA,120117.50,3511.65220198,N,12148.07419767,W,2,12,1.0,6.684,M,-38.469,M,4.4,0131*6A
$PYRTM,2024,125.500897084282,16.610544494421
$GNHDT,123.979,T*2C
$PYRTM,2024,125.500902916458,16.610550326597
$GNGGA,120118.00,3511.65197665,N,12148.07391262,W,2,12,1.0,6.716,M,-38.469,M,5.0,0131*62
$PYRTM,2024,125.500902916458,16.610550326597
$GNHDT,124.225,T*29
$PYRTM,2024,125.500908652095,16.610556062234
$GNGGA,120118.50,3511.65176027,N,12148.07359694,W,2,13,1.0,6.815,M,-38.469,M,5.4,0131*68
$PYRTM,2024,125.500908652095,16.610556062234
$GNHDT,124.536,T*2C
$PYRTM,2024,125.500914495359,16.610561905498
$GNGGA,120119.00,3511.65154000,N,12148.07323998,W,2,13,0.8,6.969,M,-38.469,M,6.0,0131*63
$PYRTM,2024,125.500914495359,16.610561905498
$GNHDT,124.948,T*29
$PYRTM,2024,125.500920233519,16.610567643669
$GNGGA,120119.50,3511.65135547,N,12148.07285789,W,2,13,0.8,7.167,M,-38.469,M,6.4,0131*67
$PYRTM,2024,125.500920233519,16.610567643669
$GNHDT,125.246,T*2D
$PYRTM,2024,125.500926068715,16.610573478854
$GNGGA,120120.00,3511.65118456,N,12148.07245667,W,2,13,0.8,7.357,M,-38.469,M,7.0,0131*6F
$PYRTM,2024,125.500926068715,16.610573478854
$GNHDT,125.375,T*2C
$PYRTM,2024,125.500931803160,16.610579213299
$GNGGA,120120.50,3511.65102056,N,12148.07205028,W,2,13,0.8,7.466,M,-38.469,M,7.4,0131*6D
$PYRTM,2024,125.500931803160,16.610579213299
$GNHDT,125.189,T*2D
$PYRTM,2024,125.500937644375,16.610585054514
$GNGGA,120121.00,3511.65085022,N,12148.07165672,W,2,13,0.8,7.449,M,-38.469,M,7.0,0131*61
$PYRTM,2024,125.500937644375,16.610585054514
$GNHDT,124.955,T*25
$PYRTM,2024,125.500943374167,16.610590784306
$GNGGA,120121.50,3511.65067611,N,12148.07128790,W,2,13,0.8,7.283,M,-38.469,M,7.4,0131*6E
$PYRTM,2024,125.500943374167,16.610590784306
$GNHDT,124.572,T*2C
$PYRTM,2024,125.500949213391,16.610596623530
$GNGGA,120122.00,3511.65049852,N,12148.07094372,W,2,13,0.8,6.985,M,-38.469,M,7.0,0131*6B
$PYRTM,2024,125.500949213391,16.610596623530
$GNHDT,124.498,T*29
$PYRTM,2024,125.500954947442,16.610602357593
$GNGGA,120122.50,3511.65033279,N,12148.07062140,W,2,13,0.8,6.597,M,-38.469,M,7.4,0131*61
$PYRTM,2024,125.500954947442,16.610602357593
$GNHDT,124.228,T*24
$PYRTM,2024,125.500960795069,16.610608205208
$GNGGA,120123.00,3511.65017527,N,12148.07032364,W,2,13,0.8,6.214,M,-38.469,M,4.0,0131*65
$PYRTM,2024,125.500960795069,16.610608205208
$GNHDT,124.231,T*2C
$PYRTM,2024,125.500966522905,16.610613933044
$GNGGA,120123.50,3511.65003042,N,12148.07004706,W,2,13,0.8,5.928,M,-38.469,M,4.4,0131*65
$PYRTM,2024,125.500966522905,16.610613933044
$GNHDT,124.044,T*2C
$PYRTM,2024,125.500972363715,16.610619773854
$GNGGA,120124.00,3511.64989080,N,12148.06978974,W,2,13,0.8,5.800,M,-38.469,M,5.0,0131*65
$PYRTM,2024,125.500972363715,16.610619773854
$GNHDT,124.103,T*2E
$PYRTM,2024,125.500978097627,16.610625507766
$GNGGA,120124.50,3511.64975708,N,12148.06953220,W,2,13,0.8,5.880,M,-38.469,M,5.4,0131*6B
$PYRTM,2024,125.500978097627,16.610625507766
$GNHDT,124.598,T*28
$PYRTM,2024,125.500983940625,16.610631350775
$GNGGA,120125.00,3511.64962985,N,12148.06925799,W,2,13,0.8,6.145,M,-38.469,M,6.0,0131*60
$PYRTM,2024,125.500983940625,16.610631350775
$GNHDT,124.569,T*26
$PYRTM,2024,125.500989670127,16.610637080266
$GNGGA,120125.50,3511.64950940,N,12148.06894721,W,2,13,0.8,6.512,M,-38.469,M,6.4,0131*67
$PYRTM,2024,125.500989670127,16.610637080266
$GNHDT,124.506,T*2F
$PYRTM,2024,125.500995516123,16.610642926262
$GNGGA,120126.00,3511.64938981,N,12148.06859571,W,2,13,0.8,6.908,M,-38.469,M,7.0,0131*66
$PYRTM,2024,125.500995516123,16.610642926262
$GNHDT,124.523,T*28
$PYRTM,2024,125.501001245139,16.610648655278
$GNGGA,120126.50,3511.64925370,N,12148.06822222,W,2,13,0.8,7.260,M,-38.469,M,7.4,0131*66
$PYRTM,2024,125.501001245139,16.610648655278
$GNHDT,124.278,T*21
$PYRTM,2024,125.501007086157,16.610654496296
$GNGGA,120127.00,3511.64908770,N,12148.06784046,W,2,13,0.8,7.501,M,-38.469,M,7.0,0131*6E
$PYRTM,2024,125.501007086157,16.610654496296
$GNHDT,124.032,T*2D
$PYRTM,2024,125.501012817940,16.610660228079
$GNGGA,120127.50,3511.64888707,N,12148.06746442,W,2,13,0.8,7.590,M,-38.469,M,7.4,0131*60
$PYRTM,2024,125.501012817940,16.610660228079
$GNHDT,124.158,T*20
$PYRTM,2024,125.501018660174,16.610666070313
$GNGGA,120128.00,3511.64865499,N,12148.06709797,W,2,13,0.8,7.553,M,-38.468,M,7.0,0131*67
$PYRTM,2024,125.501018660174,16.610666070313
$GNHDT,124.297,T*20
$PYRTM,2024,125.501024393785,16.610671803924
$GNGGA,120128.50,3511.64841171,N,12148.06674529,W,2,13,0.8,7.430,M,-38.468,M,7.4,0131*6B
$PYRTM,2024,125.501024393785,16.610671803924
$GNHDT,124.151,T*29
$PYRTM,2024,125.501030233391,16.610677643530
$GNGGA,120129.00,3511.64818398,N,12148.06640205,W,2,13,0.8,7.294,M,-38.468,M,4.0,0131*67
$PYRTM,2024,125.501030233391,16.610677643530
$GNHDT,124.396,T*20
$PYRTM,2024,125.501035967986,16.610683378125
$GNGGA,120129.50,3511.64799563,N,12148.06605895,W,2,13,0.8,7.184,M,-38.468,M,4.4,0131*62
$PYRTM,2024,125.501035967986,16.610683378125
$GNHDT,124.327,T*2A
$PYRTM,2024,125.501041809745,16.610689219884
$GNGGA,120130.00,3511.64786402,N,12148.06570744,W,2,13,0.8,7.118,M,-38.468,M,5.0,0131*65
$PYRTM,2024,125.501041809745,16.610689219884
$GNHDT,124.570,T*2E
$PYRTM,2024,125.501047543495,16.610694953634
$GNGGA,120130.50,3511.64777631,N,12148.06533516,W,2,13,0.8,7.064,M,-38.468,M,5.4,0131*60
$PYRTM,2024,125.501047543495,16.610694953634
$GNHDT,124.892,T*2F
$PYRTM,2024,125.501053383588,16.610700793727
$GNGGA,120131.00,3511.64770617,N,12148.06494633,W,2,13,0.8,6.989,M,-38.468,M,6.0,0131*63
$PYRTM,2024,125.501053383588,16.610700793727
$GNHDT,125.045,T*2C
$PYRTM,2024,125.501059114780,16.610706524931
$GNGGA,120131.50,3511.64761573,N,12148.06456178,W,2,13,0.8,6.858,M,-38.468,M,6.4,0131*68
$PYRTM,2024,125.501059114780,16.610706524931
$GNHDT,124.900,T*25
$PYRTM,2024,125.501064954919,16.610712365058
$GNGGA,120132.00,3511.64747964,N,12148.06420678,W,2,13,0.8,6.696,M,-38.468,M,7.0,0131*6F
$PYRTM,2024,125.501064954919,16.610712365058
$GNHDT,124.721,T*28
$PYRTM,2024,125.501070689769,16.610718099907
$GNGGA,120132.50,3511.64729749,N,12148.06389072,W,2,13,0.8,6.533,M,-38.468,M,7.4,0131*63
$PYRTM,2024,125.501070689769,16.610718099907
$GNHDT,124.775,T*29
$PYRTM,2024,125.501076529178,16.610723939317
$GNGGA,120133.00,3511.64708083,N,12148.06361846,W,2,13,0.8,6.383,M,-38.468,M,7.0,0131*65
$PYRTM,2024,125.501076529178,16.610723939317
$GNHDT,124.606,T*2C
$PYRTM,2024,125.501082261887,16.610729672025
$GNGGA,120133.50,3511.64684503,N,12148.06336865,W,2,13,0.8,6.307,M,-38.468,M,7.4,0131*63
$PYRTM,2024,125.501082261887,16.610729672025
$GNHDT,124.554,T*28
$PYRTM,2024,125.501088105058,16.610735515197
$GNGGA,120134.00,3511.64661613,N,12148.06311835,W,2,13,0.8,6.307,M,-38.468,M,7.0,0131*6C
$PYRTM,2024,125.501088105058,16.610735515197
$GNHDT,124.350,T*2A
$PYRTM,2024,125.501093839954,16.610741250093
$GNGGA,120134.50,3511.64640521,N,12148.06283450,W,2,13,0.8,6.362,M,-38.468,M,7.4,0131*6A
$PYRTM,2024,125.501093839954,16.610741250093
$GNHDT,124.232,T*2F
$PYRTM,2024,125.501099676968,16.610747087106
$GNGGA,120135.00,3511.64621588,N,12148.06250687,W,2,13,0.8,6.465,M,-38.468,M,4.0,0131*6B
$PYRTM,2024,125.501099676968,16.610747087106
$GNHDT,124.120,T*2F
$PYRTM,2024,125.501105412685,16.610752822824
$GNGGA,120135.50,3511.64603645,N,12148.06212866,W,2,13,0.8,6.585,M,-38.468,M,4.4,0131*60
$PYRTM,2024,125.501105412685,16.610752822824
$GNHDT,124.058,T*21
$PYRTM,2024,125.501111250498,16.610758660637
$GNGGA,120136.00,3511.64585415,N,12148.06171561,W,2,13,0.8,6.690,M,-38.468,M,5.0,0131*62
$PYRTM,2024,125.501111250498,16.610758660637
$GNHDT,124.132,T*2C
$PYRTM,2024,125.501116985116,16.610764395266
$GNGGA,120136.50,3511.64566102,N,12148.06129955,W,2,13,0.8,6.787,M,-38.468,M,5.4,0131*6C
$PYRTM,2024,125.501116985116,16.610764395266
$GNHDT,124.446,T*2A
$PYRTM,2024,125.501122825475,16.610770235613
$GNGGA,120137.00,3511.64544580,N,12148.06091697,W,2,13,0.8,6.859,M,-38.468,M,6.0,0131*6E
$PYRTM,2024,125.501122825475,16.610770235613
$GNHDT,124.872,T*21
$PYRTM,2024,125.501128559317,16.610775969456
$GNGGA,120137.50,3511.64521668,N,12148.06057965,W,2,13,0.8,6.895,M,-38.468,M,6.4,0131*61
$PYRTM,2024,125.501128559317,16.610775969456
$GNHDT,124.915,T*21
$PYRTM,2024,125.501134399387,16.610781809525
$GNGGA,120138.00,3511.64497864,N,12148.06028402,W,2,13,0.8,6.878,M,-38.468,M,7.0,0131*67
$PYRTM,2024,125.501134399387,16.610781809525
$GNHDT,125.172,T*29
$PYRTM,2024,125.501140134340,16.610787544479
$GNGGA,120138.50,3511.64476447,N,12148.06001374,W,2,13,0.8,6.808,M,-38.468,M,7.4,0131*6E
$PYRTM,2024,125.501140134340,16.610787544479
$GNHDT,125.163,T*29
$PYRTM,2024,125.501145977025,16.610793387164
$GNGGA,120139.00,3511.64457522,N,12148.05974320,W,2,13,0.8,6.669,M,-38.468,M,7.0,0131*6F
$PYRTM,2024,125.501145977025,16.610793387164
$GNHDT,125.028,T*27
$PYRTM,2024,125.501151708970,16.610799119109
$GNGGA,120139.50,3511.64442349,N,12148.05945639,W,2,13,0.8,6.516,M,-38.468,M,7.4,0131*65
$PYRTM,2024,125.501151708970,16.610799119109
$GNHDT,125.188,T*2C
$PYRTM,2024,125.501157547315,16.610804957454
$GNGGA,120140.00,3511.64431549,N,12148.05914027,W,2,13,0.8,6.374,M,-38.468,M,7.0,0131*67
$PYRTM,2024,125.501157547315,16.610804957454
$GNHDT,125.272,T*2A
$PYRTM,2024,125.501163283391,16.610810693530
$GNGGA,120140.50,3511.64424212,N,12148.05880413,W,2,13,0.8,6.247,M,-38.468,M,7.4,0131*65
$PYRTM,2024,125.501163283391,16.610810693530
$GNHDT,124.998,T*24
$PYRTM,2024,125.501169124769,16.610816534907
$GNGGA,120141.00,3511.64419867,N,12148.05846327,W,2,13,0.8,6.189,M,-38.468,M,4.0,0131*6B
$PYRTM,2024,125.501169124769,16.610816534907
$GNHDT,125.215,T*2B
$PYRTM,2024,125.501174856562,16.610822266701
$GNGGA,120141.50,3511.64415709,N,12148.05813310,W,2,13,0.8,6.191,M,-38.468,M,4.4,0131*6C
$PYRTM,2024,125.501174856562,16.610822266701
$GNHDT,125.272,T*2A
$PYRTM,2024,125.501180694155,16.610828104306
$GNGGA,120142.00,3511.64409773,N,12148.05781805,W,2,13,0.8,6.229,M,-38.468,M,5.0,0131*64
$PYRTM,2024,125.501180694155,16.610828104306
$GNHDT,125.205,T*2A
$PYRTM,2024,125.501186428519,16.610833838657
$GNGGA,120142.50,3511.64399946,N,12148.05751506,W,2,13,0.8,6.282,M,-38.468,M,5.4,0131*61
$PYRTM,2024,125.501186428519,16.610833838657
$GNHDT,124.935,T*23
$PYRTM,2024,125.501192270521,16.610839680660
$GNGGA,120143.00,3511.64385883,N,12148.05721268,W,2,13,0.8,6.369,M,-38.468,M,6.0,0131*6B
$PYRTM,2024,125.501192270521,16.610839680660
$GNHDT,124.832,T*25
$PYRTM,2024,125.501198002928,16.610845413079
$GNGGA,120143.50,3511.64368927,N,12148.05689925,W,2,13,0.8,6.487,M,-38.468,M,6.4,0131*60
$PYRTM,2024,125.501198002928,16.610845413079
$GNHDT,124.693,T*20
$PYRTM,2024,125.501203843912,16.610851254051
$GNGGA,120144.00,3511.64350323,N,12148.05655961,W,2,13,0.8,6.655,M,-38.468,M,7.0,0131*6E
$PYRTM,2024,125.501203843912,16.610851254051
$GNHDT,124.626,T*2E
$PYRTM,2024,125.501209578218,16.610856988356
$GNGGA,120144.50,3511.64331930,N,12148.05620273,W,2,13,0.8,6.857,M,-38.468,M,7.4,0131*66
$PYRTM,2024,125.501209578218,16.610856988356
$GNHDT,124.396,T*20
$PYRTM,2024,125.501215418171,16.610862828310
$GNGGA,120145.00,3511.64314065,N,12148.05583026,W,2,13,0.8,7.100,M,-38.468,M,7.0,0131*6A
$PYRTM,2024,125.501215418171,16.610862828310
$GNHDT,124.524,T*2F
$PYRTM,2024,125.501221150995,16.610868561134
$GNGGA,120145.50,3511.64296729,N,12148.05545475,W,2,13,0.8,7.302,M,-38.468,M,7.4,0131*67
$PYRTM,2024,125.501221150995,16.610868561134
$GNHDT,124.701,T*2A
$PYRTM,2024,125.501226990741,16.610874400891
$GNGGA,120146.00,3511.64278443,N,12148.05507982,W,2,13,0.8,7.410,M,-38.468,M,7.0,0131*6D
$PYRTM,2024,125.501226990741,16.610874400891
$GNHDT,125.249,T*22
$PYRTM,2024,125.501232726562,16.610880136701
$GNGGA,120146.50,3511.64258230,N,12148.05471141,W,2,13,0.8,7.374,M,-38.468,M,7.4,0131*6E
$PYRTM,2024,125.501232726562,16.610880136701
$GNHDT,125.247,T*2C
$PYRTM,2024,125.501238569236,16.610885979375
$GNGGA,120147.00,3511.64235866,N,12148.05435169,W,2,13,0.8,7.194,M,-38.468,M,4.0,0131*69
$PYRTM,2024,125.501238569236,16.610885979375
$GNHDT,125.279,T*21
$PYRTM,2024,125.501244304213,16.610891714352
$GNGGA,120147.50,3511.64212462,N,12148.05400318,W,2,13,0.8,6.893,M,-38.468,M,4.4,0131*68
$PYRTM,2024,125.501244304213,16.610891714352
$GNHDT,125.467,T*28
$PYRTM,2024,125.501250144190,16.610897554329
$GNGGA,120148.00,3511.64189287,N,12148.05366062,W,2,13,0.8,6.563,M,-38.468,M,5.0,0131*60
$PYRTM,2024,125.501250144190,16.610897554329
$GNHDT,125.275,T*2D
$PYRTM,2024,125.501255878438,16.610903288576
$GNGGA,120148.50,3511.64169772,N,12148.05332558,W,2,13,0.8,6.271,M,-38.468,M,5.4,0131*69
$PYRTM,2024,125.501255878438,16.610903288576
$GNHDT,125.114,T*29
$PYRTM,2024,125.501261717176,16.610909127315
$GNGGA,120149.00,3511.64153825,N,12148.05298352,W,2,13,0.8,6.088,M,-38.468,M,6.0,0131*67
$PYRTM,2024,125.501261717176,16.610909127315
$GNHDT,124.937,T*21
$PYRTM,2024,125.501267449676,16.610914859826
$GNGGA,120149.50,3511.64140350,N,12148.05264151,W,2,13,0.8,6.046,M,-38.468,M,6.4,0131*6D
$PYRTM,2024,125.501267449676,16.610914859826
$GNHDT,125.068,T*23
$PYRTM,2024,125.501273290104,16.610920700243
$GNGGA,120150.00,3511.64127433,N,12148.05230968,W,2,13,0.8,6.120,M,-38.468,M,7.0,0131*64
$PYRTM,2024,125.501273290104,16.610920700243
$GNHDT,124.938,T*2E
$PYRTM,2024,125.501279021632,16.610926431771
$GNGGA,120150.50,3511.64112346,N,12148.05199663,W,2,13,0.8,6.244,M,-38.468,M,7.4,0131*63
$PYRTM,2024,125.501279021632,16.610926431771
$GNHDT,125.065,T*2E
$PYRTM,2024,125.501284864028,16.610932274167
$GNGGA,120151.00,3511.64094311,N,12148.05170567,W,2,13,0.8,6.384,M,-38.468,M,7.0,0131*63
$PYRTM,2024,125.501284864028,16.610932274167
$GNHDT,125.297,T*21
$PYRTM,2024,125.501290598773,16.610938008912
$GNGGA,120151.50,3511.64074091,N,12148.05141437,W,2,13,0.8,6.489,M,-38.468,M,7.4,0131*6B
$PYRTM,2024,125.501290598773,16.610938008912
$GNHDT,125.255,T*2F
$PYRTM,2024,125.501296440197,16.610943850336
$GNGGA,120152.00,3511.64053142,N,12148.05110453,W,2,13,0.8,6.562,M,-38.468,M,7.0,0131*61
$PYRTM,2024,125.501296440197,16.610943850336
$GNHDT,125.328,T*24
$PYRTM,2024,125.501302169583,16.610949579722
$GNGGA,120152.50,3511.64032763,N,12148.05076909,W,2,13,0.8,6.598,M,-38.468,M,7.4,0131*64
$PYRTM,2024,125.501302169583,16.610949579722
$GNHDT,125.536,T*2D
$PYRTM,2024,125.501308009780,16.610955419919
$GNGGA,120153.00,3511.64013369,N,12148.05040508,W,2,13,0.8,6.639,M,-38.468,M,4.0,0131*6A
$PYRTM,2024,125.501308009780,16.610955419919
$GNHDT,125.504,T*2C
$PYRTM,2024,125.501313744676,16.610961154815
$GNGGA,120153.50,3511.63995037,N,12148.05002484,W,2,13,0.8,6.692,M,-38.468,M,4.4,0131*61
$PYRTM,2024,125.501313744676,16.610961154815
$GNHDT,125.511,T*28
$PYRTM,2024,125.501319590046,16.610967000185
$GNGGA,120154.00,3511.63976791,N,12148.04964052,W,2,13,0.8,6.748,M,-38.468,M,5.0,0131*61
$PYRTM,2024,125.501319590046,16.610967000185
$GNHDT,125.420,T*2B
$PYRTM,2024,125.501325320880,16.610972731030
$GNGGA,120154.50,3511.63958144,N,12148.04926130,W,2,13,0.8,6.794,M,-38.468,M,5.4,0131*60
$PYRTM,2024,125.501325320880,16.610972731030
$GNHDT,125.158,T*21
$PYRTM,2024,125.501331158079,16.610978568218
$GNGGA,120155.00,3511.63940085,N,12148.04889996,W,2,13,0.8,6.809,M,-38.468,M,6.0,0131*6D
$PYRTM,2024,125.501331158079,16.610978568218
$GNHDT,124.898,T*25
$PYRTM,2024,125.501336891667,16.610984301806
$GNGGA,120155.50,3511.63923500,N,12148.04856189,W,2,13,0.8,6.779,M,-38.468,M,6.4,0131*6D
$PYRTM,2024,125.501336891667,16.610984301806
$GNHDT,124.630,T*29
$PYRTM,2024,125.501342735162,16.610990145312
$GNGGA,120156.00,3511.63909463,N,12148.04823883,W,2,13,0.8,6.685,M,-38.468,M,7.0,0131*61
$PYRTM,2024,125.501342735162,16.610990145312
$GNHDT,124.398,T*2E
$PYRTM,2024,125.501348471435,16.610995881574
$GNGGA,120156.50,3511.63898171,N,12148.04792544,W,2,13,0.8,6.563,M,-38.468,M,7.4,0131*67
$PYRTM,2024,125.501348471435,16.610995881574
$GNHDT,124.241,T*2B
$PYRTM,2024,125.501354305382,16.611001715521
$GNGGA,120157.00,3511.63888581,N,12148.04762352,W,2,13,0.8,6.408,M,-38.468,M,7.0,0131*6F
$PYRTM,2024,125.501354305382,16.611001715521
$GNHDT,124.430,T*2B
$PYRTM,2024,125.501360039479,16.611007449630
$GNGGA,120157.50,3511.63879653,N,12148.04734198,W,2,13,0.8,6.279,M,-38.468,M,7.4,0131*6B
$PYRTM,2024,125.501360039479,16.611007449630
$GNHDT,124.891,T*2C
$PYRTM,2024,125.501365881551,16.611013291690
$GNGGA,120158.00,3511.63869327,N,12148.04708076,W,2,13,0.8,6.218,M,-38.468,M,7.0,0131*6B
$PYRTM,2024,125.501365881551,16.611013291690
$GNHDT,125.443,T*2E
$PYRTM,2024,125.501371624583,16.611019034722
$GNGGA,120158.50,3511.63855112,N,12148.04683495,W,2,13,0.8,6.211,M,-38.468,M,7.4,0131*63
$PYRTM,2024,125.501371624583,16.611019034722
$GNHDT,125.923,T*25
$PYRTM,2024,125.501377458727,16.611024868866
$GNGGA,120159.00,3511.63837764,N,12148.04659328,W,2,13,0.8,6.257,M,-38.468,M,4.0,0131*67
$PYRTM,2024,125.501377458727,16.611024868866
$GNHDT,126.085,T*23
$PYRTM,2024,125.501383192836,16.611030602975
$GNGGA,120159.50,3511.63818932,N,12148.04631660,W,2,13,0.8,6.329,M,-38.468,M,4.4,0131*69
$PYRTM,2024,125.501383192836,16.611030602975
$GNHDT,126.080,T*26
$PYRTM,2024,125.501389027176,16.611036437315
$GNGGA,120200.00,3511.63801242,N,12148.04599228,W,2,13,0.8,6.411,M,-38.468,M,5.0,0131*67
$PYRTM,2024,125.501389027176,16.611036437315
$GNHDT,125.964,T*26
$PYRTM,2024,125.501394763912,16.611042174051
$GNGGA,120200.50,3511.63787079,N,12148.04561041,W,2,13,0.8,6.480,M,-38.468,M,5.4,0131*6F
$PYRTM,2024,125.501394763912,16.611042174051
$GNHDT,125.186,T*22
$PYRTM,2024,125.501400604433,16.611048014572
$GNGGA,120201.00,3511.63775783,N,12148.04519747,W,2,13,0.8,6.556,M,-38.468,M,6.0,0131*67
$PYRTM,2024,125.501400604433,16.611048014572
$GNHDT,124.611,T*2A
$PYRTM,2024,125.501406338981,16.611053749120
$GNGGA,120201.50,3511.63765157,N,12148.04478689,W,2,13,0.8,6.619,M,-38.468,M,6.4,0131*65
$PYRTM,2024,125.501406338981,16.611053749120
$GNHDT,124.272,T*2B
$PYRTM,2024,125.501412176748,16.611059586887
$GNGGA,120202.00,3511.63753124,N,12148.04439705,W,2,13,0.8,6.671,M,-38.468,M,7.0,0131*69
$PYRTM,2024,125.501412176748,16.611059586887
$GNHDT,123.942,T*24
$PYRTM,2024,125.501417914248,16.611065324387
$GNGGA,120202.50,3511.63737560,N,12148.04403637,W,2,13,0.8,6.698,M,-38.468,M,7.4,0131*60
$PYRTM,2024,125.501417914248,16.611065324387
$GNHDT,124.232,T*2F
$PYRTM,2024,125.501423750127,16.611071160266
$GNGGA,120203.00,3511.63716522,N,12148.04370392,W,2,13,0.8,6.674,M,-38.468,M,7.0,0131*6E
$PYRTM,2024,125.501423750127,16.611071160266
$GNHDT,124.483,T*23
$PYRTM,2024,125.501429484745,16.611076894884
$GNGGA,120203.50,3511.63691160,N,12148.04338790,W,2,13,0.8,6.615,M,-38.468,M,7.4,0131*6E
$PYRTM,2024,125.501429484745,16.611076894884
$GNHDT,124.509,T*20
$PYRTM,2024,125.501435327164,16.611082737303
$GNGGA,120204.00,3511.63662504,N,12148.04308204,W,2,13,0.8,6.520,M,-38.468,M,7.0,0131*6C
$PYRTM,2024,125.501435327164,16.611082737303
$GNHDT,125.167,T*2D
$PYRTM,2024,125.501441065023,16.611088475162
$GNGGA,120204.50,3511.63634047,N,12148.04277612,W,2,13,0.8,6.429,M,-38.468,M,7.4,0131*6E
$PYRTM,2024,125.501441065023,16.611088475162
$GNHDT,125.596,T*27
$PYRTM,2024,125.501446901678,16.611094311817
$GNGGA,120205.00,3511.63607303,N,12148.04246020,W,2,13,0.8,6.354,M,-38.468,M,4.0,0131*66
$PYRTM,2024,125.501446901678,16.611094311817
$GNHDT,125.803,T*26
$PYRTM,2024,125.501452635868,16.611100046007
$GNGGA,120205.50,3511.63584749,N,12148.04213022,W,2,13,0.8,6.335,M,-38.468,M,4.4,0131*60
$PYRTM,2024,125.501452635868,16.611100046007
$GNHDT,125.940,T*20
$PYRTM,2024,125.501458473831,16.611105883970
$GNGGA,120206.00,3511.63566682,N,12148.04179421,W,2,13,0.8,6.402,M,-38.468,M,5.0,0131*62
$PYRTM,2024,125.501458473831,16.611105883970
$GNHDT,125.721,T*29
$PYRTM,2024,125.501464209063,16.611111619201
$GNGGA,120206.50,3511.63552292,N,12148.04145610,W,2,13,0.8,6.528,M,-38.468,M,5.4,0131*67
$PYRTM,2024,125.501464209063,16.611111619201
$GNHDT,125.045,T*2C
$PYRTM,2024,125.501470047211,16.611117457350
$GNGGA,120207.00,3511.63539680,N,12148.04112258,W,2,13,0.8,6.670,M,-38.468,M,6.0,0131*6A
$PYRTM,2024,125.501470047211,16.611117457350
$GNHDT,124.888,T*24
$PYRTM,2024,125.501475782627,16.611123192766
$GNGGA,120207.50,3511.63527426,N,12148.04078187,W,2,13,0.8,6.799,M,-38.468,M,6.4,0131*60
$PYRTM,2024,125.501475782627,16.611123192766
$GNHDT,124.454,T*29
$PYRTM,2024,125.501481629873,16.611129040012
$GNGGA,120208.00,3511.63514468,N,12148.04043987,W,2,13,0.8,6.875,M,-38.468,M,7.0,0131*68
$PYRTM,2024,125.501481629873,16.611129040012
$GNHDT,124.524,T*2F
$PYRTM,2024,125.501487358241,16.611134768391
$GNGGA,120208.50,3511.63499806,N,12148.04009008,W,2,13,0.8,6.907,M,-38.468,M,7.4,0131*6D
$PYRTM,2024,125.501487358241,16.611134768391
$GNHDT,124.704,T*2F
$PYRTM,2024,125.501493200012,16.611140610162
$GNGGA,120209.00,3511.63482545,N,12148.03974295,W,2,13,0.8,6.880,M,-38.468,M,7.0,0131*61
$PYRTM,2024,125.501493200012,16.611140610162
$GNHDT,125.202,T*2D
$PYRTM,2024,125.501498938137,16.611146348275
$GNGGA,120209.50,3511.63463369,N,12148.03940504,W,2,13,0.8,6.816,M,-38.468,M,7.4,0131*60
$PYRTM,2024,125.501498938137,16.611146348275
$GNHDT,125.048,T*21
$PYRTM,2024,125.501504776250,16.611152186389
$GNGGA,120210.00,3511.63442505,N,12148.03907007,W,2,13,0.8,6.734,M,-38.468,M,7.0,0131*6C
$PYRTM,2024,125.501504776250,16.611152186389
$GNHDT,125.346,T*2C
$PYRTM,2024,125.501510504699,16.611157914838
$GNGGA,120210.50,3511.63421557,N,12148.03872677,W,2,13,0.8,6.675,M,-38.468,M,7.4,0131*69
$PYRTM,2024,125.501510504699,16.611157914838
$GNHDT,125.388,T*2E
$PYRTM,2024,125.501516344456,16.611163754595
$GNGGA,120211.00,3511.63400692,N,12148.03836972,W,2,13,0.8,6.688,M,-38.467,M,4.0,0131*64
$PYRTM,2024,125.501516344456,16.611163754595
$GNHDT,125.261,T*28
$PYRTM,2024,125.501522082743,16.611169492882
$GNGGA,120211.50,3511.63381916,N,12148.03798830,W,2,13,0.8,6.777,M,-38.467,M,4.4,0131*65
$PYRTM,2024,125.501522082743,16.611169492882
$GNHDT,125.112,T*2F
$PYRTM,2024,125.501527917535,16.611175327674
$GNGGA,120212.00,3511.63365809,N,12148.03758270,W,2,13,0.8,6.960,M,-38.467,M,5.0,0131*69
$PYRTM,2024,125.501527917535,16.611175327674
$GNHDT,124.703,T*28
$PYRTM,2024,125.501533654398,16.611181064537
$GNGGA,120212.50,3511.63351762,N,12148.03717619,W,2,13,0.8,7.160,M,-38.467,M,5.4,0131*64
$PYRTM,2024,125.501533654398,16.611181064537
$GNHDT,124.842,T*22
$PYRTM,2024,125.501539494421,16.611186904560
$GNGGA,120213.00,3511.63339178,N,12148.03678197,W,2,13,0.8,7.309,M,-38.467,M,6.0,0131*60
$PYRTM,2024,125.501539494421,16.611186904560
$GNHDT,124.687,T*25
$PYRTM,2024,125.501545230891,16.611192641042
$GNGGA,120213.50,3511.63326287,N,12148.03642849,W,2,13,0.8,7.319,M,-38.467,M,6.4,0131*6E
$PYRTM,2024,125.501545230891,16.611192641042
$GNHDT,124.507,T*2E
$PYRTM,2024,125.501551073032,16.611198483171
$GNGGA,120214.00,3511.63310469,N,12148.03612288,W,2,13,0.8,7.130,M,-38.467,M,7.0,0131*61
$PYRTM,2024,125.501551073032,16.611198483171
$GNHDT,124.400,T*28
$PYRTM,2024,125.501556802303,16.611204212454
$GNGGA,120214.50,3511.63291057,N,12148.03585414,W,2,13,0.8,6.759,M,-38.467,M,7.4,0131*67
$PYRTM,2024,125.501556802303,16.611204212454
$GNHDT,124.505,T*2C
$PYRTM,2024,125.501562644907,16.611210055046
$GNGGA,120215.00,3511.63268699,N,12148.03560284,W,2,13,0.8,6.245,M,-38.467,M,7.0,0131*69
$PYRTM,2024,125.501562644907,16.611210055046
$GNHDT,124.696,T*25
$PYRTM,2024,125.501568382164,16.611215792315
$GNGGA,120215.50,3511.63246586,N,12148.03535361,W,2,13,0.8,5.721,M,-38.467,M,7.4,0131*67
$PYRTM,2024,125.501568382164,16.611215792315
$GNHDT,124.919,T*2D
$PYRTM,2024,125.501574225775,16.611221635914
$GNGGA,120216.00,3511.63227969,N,12148.03510041,W,2,13,0.8,5.313,M,-38.467,M,7.0,0131*6C
$PYRTM,2024,125.501574225775,16.611221635914
$GNHDT,125.312,T*2D
$PYRTM,2024,125.501579949630,16.611227359769
$GNGGA,120216.50,3511.63214645,N,12148.03482898,W,2,13,0.8,5.182,M,-38.467,M,7.4,0131*60
$PYRTM,2024,125.501579949630,16.611227359769
$GNHDT,125.477,T*29
$PYRTM,2024,125.501585788426,16.611233198565
$GNGGA,120217.00,3511.63205345,N,12148.03452971,W,2,13,0.8,5.304,M,-38.467,M,4.0,0131*61
$PYRTM,2024,125.501585788426,16.611233198565
$GNHDT,125.850,T*20
$PYRTM,2024,125.501591528877,16.611238939016
$GNGGA,120217.50,3511.63197425,N,12148.03420854,W,2,13,0.8,5.596,M,-38.467,M,4.4,0131*67
$PYRTM,2024,125.501591528877,16.611238939016
$GNHDT,126.099,T*2E
$PYRTM,2024,125.501597366030,16.611244776169
$GNGGA,120218.00,3511.63187445,N,12148.03386424,W,2,13,0.8,5.962,M,-38.467,M,5.0,0131*68
$PYRTM,2024,125.501597366030,16.611244776169
$GNHDT,126.187,T*20
$PYRTM,2024,125.501603099514,16.611250509653
$GNGGA,120218.50,3511.63172788,N,12148.03351650,W,2,13,0.8,6.267,M,-38.467,M,5.4,0131*67
$PYRTM,2024,125.501603099514,16.611250509653
$GNHDT,126.117,T*29
$PYRTM,2024,125.501608943044,16.611256353183
$GNGGA,120219.00,3511.63153160,N,12148.03316373,W,2,13,0.8,6.475,M,-38.467,M,6.0,0131*65
$PYRTM,2024,125.501608943044,16.611256353183
$GNHDT,125.741,T*2F
$PYRTM,2024,125.501614671019,16.611262081157
$GNGGA,120219.50,3511.63130019,N,12148.03280381,W,2,13,0.8,6.599,M,-38.467,M,6.4,0131*6E
$PYRTM,2024,125.501614671019,16.611262081157
$GNHDT,125.399,T*2E
$PYRTM,2024,125.501620517257,16.611267927396
$GNGGA,120220.00,3511.63106216,N,12148.03242089,W,2,13,0.8,6.643,M,-38.467,M,7.0,0131*6D
$PYRTM,2024,125.501620517257,16.611267927396
$GNHDT,124.974,T*26
$PYRTM,2024,125.501626248785,16.611273658924
$GNGGA,120220.50,3511.63084674,N,12148.03202082,W,2,13,0.8,6.650,M,-38.467,M,7.4,0131*6A
$PYRTM,2024,125.501626248785,16.611273658924
$GNHDT,124.712,T*28
$PYRTM,2024,125.501632088322,16.611279498461
$GNGGA,120221.00,3511.63066353,N,12148.03160842,W,2,13,0.8,6.662,M,-38.467,M,7.0,0131*64
$PYRTM,2024,125.501632088322,16.611279498461
$GNHDT,124.673,T*2E
$PYRTM,2024,125.501637819306,16.611285229444
$GNGGA,120221.50,3511.63050294,N,12148.03120345,W,2,13,0.8,6.682,M,-38.467,M,7.4,0131*6C
$PYRTM,2024,125.501637819306,16.611285229444
$GNHDT,124.877,T*24
$PYRTM,2024,125.501643662917,16.611291073056
$GNGGA,120222.00,3511.63034970,N,12148.03081513,W,2,13,0.8,6.692,M,-38.467,M,7.0,0131*63
$PYRTM,2024,125.501643662917,16.611291073056
$GNHDT,124.947,T*26
$PYRTM,2024,125.501649391944,16.611296802083
$GNGGA,120222.50,3511.63017981,N,12148.03046283,W,2,13,0.8,6.685,M,-38.467,M,7.4,0131*6E
$PYRTM,2024,125.501649391944,16.611296802083
$GNHDT,125.054,T*2C
$PYRTM,2024,125.501655235116,16.611302645255
$GNGGA,120223.00,3511.62998168,N,12148.03014892,W,2,13,0.8,6.659,M,-38.467,M,4.0,0131*61
$PYRTM,2024,125.501655235116,16.611302645255
$GNHDT,125.251,T*2B
$PYRTM,2024,125.501660966308,16.611308376447
$GNGGA,120223.50,3511.62975906,N,12148.02986626,W,2,13,0.8,6.632,M,-38.467,M,4.4,0131*6C
$PYRTM,2024,125.501660966308,16.611308376447
$GNHDT,125.233,T*2F
$PYRTM,2024,125.501666811829,16.611314221968
$GNGGA,120224.00,3511.62953265,N,12148.02959167,W,2,13,0.8,6.623,M,-38.467,M,5.0,0131*61
$PYRTM,2024,125.501666811829,16.611314221968
$GNHDT,125.129,T*27
$PYRTM,2024,125.501672542361,16.611319952500
$GNGGA,120224.50,3511.62932791,N,12148.02929976,W,2,13,0.8,6.674,M,-38.467,M,5.4,0131*64
$PYRTM,2024,125.501672542361,16.611319952500
$GNHDT,124.896,T*2B
$PYRTM,2024,125.501678382141,16.611325792280
$GNGGA,120225.00,3511.62915942,N,12148.02897570,W,2,13,0.8,6.759,M,-38.467,M,6.0,0131*62
$PYRTM,2024,125.501678382141,16.611325792280
$GNHDT,124.863,T*21
$PYRTM,2024,125.501684115729,16.611331525868
$GNGGA,120225.50,3511.62902519,N,12148.02861330,W,2,13,0.8,6.860,M,-38.467,M,6.4,0131*69
$PYRTM,2024,125.501684115729,16.611331525868
$GNHDT,124.817,T*22
$PYRTM,2024,125.501689957558,16.611337367697
$GNGGA,120226.00,3511.62891335,N,12148.02822401,W,2,13,0.8,6.929,M,-38.467,M,7.0,0131*67
$PYRTM,2024,125.501689957558,16.611337367697
$GNHDT,125.151,T*28
$PYRTM,2024,125.501695690185,16.611343100324
$GNGGA,120226.50,3511.62879919,N,12148.02782892,W,2,13,0.8,6.938,M,-38.467,M,7.4,0131*67
$PYRTM,2024,125.501695690185,16.611343100324
$GNHDT,125.257,T*2D
$PYRTM,2024,125.501701534815,16.611348944954
$GNGGA,120227.00,3511.62866391,N,12148.02744697,W,2,13,0.8,6.875,M,-38.467,M,7.0,0131*6A
$PYRTM,2024,125.501701534815,16.611348944954
$GNHDT,125.579,T*26
$PYRTM,2024,125.501707266354,16.611354676493
$GNGGA,120227.50,3511.62850488,N,12148.02709725,W,2,13,0.8,6.767,M,-38.467,M,7.4,0131*6C
$PYRTM,2024,125.501707266354,16.611354676493
$GNHDT,125.864,T*27
$PYRTM,2024,125.501713106123,16.611360516262
$GNGGA,120228.00,3511.62832782,N,12148.02678770,W,2,13,0.8,6.638,M,-38.467,M,7.0,0131*63
$PYRTM,2024,125.501713106123,16.611360516262
$GNHDT,126.240,T*28
$PYRTM,2024,125.501718836400,16.611366246539
$GNGGA,120228.50,3511.62813810,N,12148.02650645,W,2,13,0.8,6.511,M,-38.467,M,7.4,0131*60
$PYRTM,2024,125.501718836400,16.611366246539
$GNHDT,126.343,T*2A
$PYRTM,2024,125.501724680463,16.611372090602
