$PYRTM,2024,127.166666800984,18.276314211123
$GNGGA,040000.00,3359.17656063,N,11926.26776921,W,2,12,0.8,9.613,M,-37.453,M,4.0,0131*6C
$PYRTM,2024,127.166666800984,18.276314211123
$GNHDT,272.961,T*22
$PYRTM,2024,127.166672531771,18.276319941910
$GNGGA,040000.50,3359.17671112,N,11926.26914023,W,2,12,0.8,9.834,M,-37.453,M,4.4,0131*65
$PYRTM,2024,127.166672531771,18.276319941910
$GNHDT,273.203,T*2C
$PYRTM,2024,127.166678371898,18.276325782037
$GNGGA,040001.00,3359.17686052,N,11926.27054530,W,2,12,0.8,9.944,M,-37.453,M,5.0,0131*64
$PYRTM,2024,127.166678371898,18.276325782037
$GNHDT,273.287,T*20
$PYRTM,2024,127.166684111262,18.276331521412
$GNGGA,040001.50,3359.17699393,N,11926.27201060,W,2,12,0.8,9.900,M,-37.453,M,5.4,0131*67
$PYRTM,2024,127.166684111262,18.276331521412
$GNHDT,273.054,T*2C
$PYRTM,2024,127.166689944803,18.276337354942
$GNGGA,040002.00,3359.17710011,N,11926.27350951,W,2,12,0.8,9.709,M,-37.453,M,6.0,0131*66
$PYRTM,2024,127.166689944803,18.276337354942
$GNHDT,272.911,T*25
$PYRTM,2024,127.166695681644,18.276343091782
$GNGGA,040002.50,3359.17722014,N,11926.27494449,W,2,12,0.8,9.525,M,-37.453,M,6.4,0131*64
$PYRTM,2024,127.166695681644,18.276343091782
$GNHDT,272.805,T*21
$PYRTM,2024,127.166701518634,18.276348928773
$GNGGA,040003.00,3359.17735249,N,11926.27632080,W,2,12,0.8,9.432,M,-37.453,M,7.0,0131*61
$PYRTM,2024,127.166701518634,18.276348928773
$GNHDT,272.720,T*29
$PYRTM,2024,127.166707254178,18.276354664317
$GNGGA,040003.50,3359.17749528,N,11926.27768261,W,2,12,0.8,9.423,M,-37.453,M,7.4,0131*68
$PYRTM,2024,127.166707254178,18.276354664317
$GNHDT,272.954,T*24
$PYRTM,2024,127.166713096516,18.276360506655
$GNGGA,040004.00,3359.17762193,N,11926.27908485,W,2,12,0.8,9.477,M,-37.453,M,7.0,0131*66
$PYRTM,2024,127.166713096516,18.276360506655
$GNHDT,272.769,T*24
$PYRTM,2024,127.166718834039,18.276366244178
$GNGGA,040004.50,3359.17775629,N,11926.28051735,W,2,12,0.8,9.474,M,-37.452,M,7.4,0131*67
$PYRTM,2024,127.166718834039,18.276366244178
$GNHDT,272.892,T*2F
$PYRTM,2024,127.166724669167,18.276372079317
$GNGGA,040005.00,3359.17789773,N,11926.28198522,W,2,12,0.8,9.397,M,-37.452,M,7.0,0131*60
$PYRTM,2024,127.166724669167,18.276372079317
$GNHDT,273.033,T*2D
$PYRTM,2024,127.166730409178,18.276377819317
$GNGGA,040005.50,3359.17802017,N,11926.28346459,W,2,12,0.8,9.285,M,-37.452,M,7.4,0131*66
$PYRTM,2024,127.166730409178,18.276377819317
$GNHDT,272.808,T*2C
$PYRTM,2024,127.166736241030,18.276383651169
$GNGGA,040006.00,3359.17810291,N,11926.28492617,W,2,12,0.8,9.248,M,-37.452,M,4.0,0131*6F
$PYRTM,2024,127.166736241030,18.276383651169
$GNHDT,272.661,T*2D
$PYRTM,2024,127.166741978935,18.276389389086
$GNGGA,040006.50,3359.17815075,N,11926.28635885,W,2,12,0.8,9.320,M,-37.452,M,4.4,0131*66
$PYRTM,2024,127.166741978935,18.276389389086
$GNHDT,272.547,T*2A
$PYRTM,2024,127.166747816285,18.276395226424
$GNGGA,040007.00,3359.17818200,N,11926.28778794,W,2,12,0.8,9.449,M,-37.452,M,5.0,0131*65
$PYRTM,2024,127.166747816285,18.276395226424
$GNHDT,272.343,T*28
$PYRTM,2024,127.166753551331,18.276400961470
$GNGGA,040007.50,3359.17823513,N,11926.28922899,W,2,12,0.8,9.546,M,-37.452,M,5.4,0131*64
$PYRTM,2024,127.166753551331,18.276400961470
$GNHDT,272.306,T*29
$PYRTM,2024,127.166759395220,18.276406805359
$GNGGA,040008.00,3359.17831549,N,11926.29070409,W,2,12,0.8,9.540,M,-37.452,M,6.0,0131*69
$PYRTM,2024,127.166759395220,18.276406805359
$GNHDT,272.413,T*2A
$PYRTM,2024,127.166765125498,18.276412535648
$GNGGA,040008.50,3359.17843616,N,11926.29218816,W,2,12,0.8,9.420,M,-37.452,M,6.4,0131*6D
$PYRTM,2024,127.166765125498,18.276412535648
$GNHDT,272.317,T*29
$PYRTM,2024,127.166770972523,18.276418382674
$GNGGA,040009.00,3359.17858284,N,11926.29367482,W,2,12,0.8,9.238,M,-37.452,M,7.0,0131*6E
$PYRTM,2024,127.166770972523,18.276418382674
$GNHDT,272.306,T*29
$PYRTM,2024,127.166776700324,18.276424110463
$GNGGA,040009.50,3359.17873411,N,11926.29512601,W,2,12,0.8,9.104,M,-37.452,M,7.4,0131*6D
$PYRTM,2024,127.166776700324,18.276424110463
$GNHDT,272.269,T*21
$PYRTM,2024,127.166782544792,18.276429954931
$GNGGA,040010.00,3359.17886234,N,11926.29653077,W,2,12,0.8,9.135,M,-37.452,M,7.0,0131*6C
$PYRTM,2024,127.166782544792,18.276429954931
$GNHDT,272.356,T*2C
$PYRTM,2024,127.166788277882,18.276435688021
$GNGGA,040010.50,3359.17896550,N,11926.29790695,W,2,12,0.8,9.340,M,-37.452,M,7.4,0131*6D
$PYRTM,2024,127.166788277882,18.276435688021
$GNHDT,272.306,T*29
$PYRTM,2024,127.166794117407,18.276441527546
$GNGGA,040011.00,3359.17905778,N,11926.29927601,W,2,12,0.8,9.621,M,-37.452,M,7.0,0131*63
$PYRTM,2024,127.166794117407,18.276441527546
$GNHDT,272.368,T*21
$PYRTM,2024,127.166799852396,18.276447262535
$GNGGA,040011.50,3359.17915890,N,11926.30067812,W,2,12,0.8,9.838,M,-37.452,M,7.4,0131*65
$PYRTM,2024,127.166799852396,18.276447262535
$GNHDT,272.641,T*2F
$PYRTM,2024,127.166805689595,18.276453099734
$GNGGA,040012.00,3359.17926742,N,11926.30213592,W,2,12,0.8,9.875,M,-37.452,M,4.0,0131*69
$PYRTM,2024,127.166805689595,18.276453099734
$GNHDT,272.853,T*22
$PYRTM,2024,127.166811430185,18.276458840324
$GNGGA,040012.50,3359.17938307,N,11926.30362332,W,2,12,0.8,9.725,M,-37.452,M,4.4,0131*63
$PYRTM,2024,127.166811430185,18.276458840324
$GNHDT,272.874,T*27
$PYRTM,2024,127.166817258796,18.276464668935
$GNGGA,040013.00,3359.17949961,N,11926.30507985,W,2,12,0.8,9.540,M,-37.452,M,5.0,0131*6C
$PYRTM,2024,127.166817258796,18.276464668935
$GNHDT,273.026,T*29
$PYRTM,2024,127.166823001516,18.276470411655
$GNGGA,040013.50,3359.17959836,N,11926.30650496,W,2,12,0.8,9.415,M,-37.452,M,5.4,0131*60
$PYRTM,2024,127.166823001516,18.276470411655
$GNHDT,273.118,T*25
$PYRTM,2024,127.166828836331,18.276476246470
$GNGGA,040014.00,3359.17970516,N,11926.30788373,W,2,12,0.8,9.428,M,-37.452,M,6.0,0131*67
$PYRTM,2024,127.166828836331,18.276476246470
$GNHDT,273.224,T*29
$PYRTM,2024,127.166834574722,18.276481984861
$GNGGA,040014.50,3359.17983056,N,11926.30925214,W,2,12,0.8,9.530,M,-37.452,M,6.4,0131*6A
$PYRTM,2024,127.166834574722,18.276481984861
$GNHDT,273.321,T*2D
$PYRTM,2024,127.166840412917,18.276487823056
$GNGGA,040015.00,3359.17997726,N,11926.31064734,W,2,12,0.8,9.677,M,-37.452,M,7.0,0131*64
$PYRTM,2024,127.166840412917,18.276487823056
$GNHDT,273.550,T*2D
$PYRTM,2024,127.166846151123,18.276493561262
$GNGGA,040015.50,3359.18015923,N,11926.31206295,W,2,12,0.8,9.768,M,-37.452,M,7.4,0131*65
$PYRTM,2024,127.166846151123,18.276493561262
$GNHDT,273.578,T*27
$PYRTM,2024,127.166851986030,18.276499396157
$GNGGA,040016.00,3359.18035776,N,11926.31348810,W,2,12,0.8,9.785,M,-37.452,M,7.0,0131*64
$PYRTM,2024,127.166851986030,18.276499396157
$GNHDT,273.898,T*24
$PYRTM,2024,127.166857721412,18.276505131551
$GNGGA,040016.50,3359.18052822,N,11926.31494067,W,2,12,0.8,9.718,M,-37.452,M,7.4,0131*60
$PYRTM,2024,127.166857721412,18.276505131551
$GNHDT,273.871,T*23
$PYRTM,2024,127.166863557627,18.276510967766
$GNGGA,040017.00,3359.18065056,N,11926.31639556,W,2,12,0.8,9.631,M,-37.452,M,7.0,0131*67
$PYRTM,2024,127.166863557627,18.276510967766
$GNHDT,273.977,T*24
$PYRTM,2024,127.166869298785,18.276516708924
$GNGGA,040017.50,3359.18073549,N,11926.31783795,W,2,12,0.8,9.567,M,-37.452,M,7.4,0131*67
$PYRTM,2024,127.166869298785,18.276516708924
$GNHDT,274.082,T*20
$PYRTM,2024,127.166875130162,18.276522540301
$GNGGA,040018.00,3359.18078009,N,11926.31929496,W,2,12,0.8,9.521,M,-37.452,M,4.0,0131*6C
$PYRTM,2024,127.166875130162,18.276522540301
$GNHDT,273.926,T*20
$PYRTM,2024,127.166880873935,18.276528284074
$GNGGA,040018.50,3359.18083265,N,11926.32074333,W,2,12,0.8,9.512,M,-37.452,M,4.4,0131*6B
$PYRTM,2024,127.166880873935,18.276528284074
$GNHDT,274.085,T*27
$PYRTM,2024,127.166886711910,18.276534122060
$GNGGA,040019.00,3359.18091962,N,11926.32217330,W,2,12,0.8,9.521,M,-37.452,M,5.0,0131*61
$PYRTM,2024,127.166886711910,18.276534122060
$GNHDT,274.068,T*24
$PYRTM,2024,127.166892443218,18.276539853356
$GNGGA,040019.50,3359.18105346,N,11926.32359519,W,2,12,0.8,9.518,M,-37.452,M,5.4,0131*6C
$PYRTM,2024,127.166892443218,18.276539853356
$GNHDT,274.168,T*25
$PYRTM,2024,127.166898280741,18.276545690880
$GNGGA,040020.00,3359.18123006,N,11926.32501794,W,2,12,0.8,9.483,M,-37.452,M,6.0,0131*68
$PYRTM,2024,127.166898280741,18.276545690880
$GNHDT,273.953,T*22
$PYRTM,2024,127.166904016181,18.276551426319
$GNGGA,040020.50,3359.18141530,N,11926.32646296,W,2,12,0.8,9.417,M,-37.452,M,6.4,0131*67
$PYRTM,2024,127.166904016181,18.276551426319
$GNHDT,273.614,T*2E
$PYRTM,2024,127.166909852488,18.276557262627
$GNGGA,040021.00,3359.18158907,N,11926.32791731,W,2,12,0.8,9.384,M,-37.452,M,7.0,0131*68
$PYRTM,2024,127.166909852488,18.276557262627
$GNHDT,273.388,T*2E
$PYRTM,2024,127.166915590324,18.276563000463
$GNGGA,040021.50,3359.18174653,N,11926.32935701,W,2,12,0.8,9.398,M,-37.452,M,7.4,0131*67
$PYRTM,2024,127.166915590324,18.276563000463
$GNHDT,273.380,T*26
$PYRTM,2024,127.166921427720,18.276568837870
$GNGGA,040022.00,3359.18188159,N,11926.33078461,W,2,12,0.8,9.496,M,-37.452,M,7.0,0131*66
$PYRTM,2024,127.166921427720,18.276568837870
$GNHDT,273.473,T*2D
$PYRTM,2024,127.166927176354,18.276574586493
$GNGGA,040022.50,3359.18200876,N,11926.33219716,W,2,12,0.8,9.640,M,-37.452,M,7.4,0131*6F
$PYRTM,2024,127.166927176354,18.276574586493
$GNHDT,273.446,T*2B
$PYRTM,2024,127.166933004525,18.276580414664
$GNGGA,040023.00,3359.18213521,N,11926.33361215,W,2,12,0.8,9.779,M,-37.452,M,7.0,0131*61
$PYRTM,2024,127.166933004525,18.276580414664
$GNHDT,273.233,T*2F
$PYRTM,2024,127.166938742662,18.276586152801
$GNGGA,040023.50,3359.18226386,N,11926.33504558,W,2,12,0.8,9.854,M,-37.452,M,7.4,0131*66
$PYRTM,2024,127.166938742662,18.276586152801
$GNHDT,273.197,T*22
$PYRTM,2024,127.166944581910,18.276591992049
$GNGGA,040024.00,3359.18237664,N,11926.33651733,W,2,12,0.8,9.824,M,-37.452,M,4.0,0131*61
$PYRTM,2024,127.166944581910,18.276591992049
$GNHDT,272.901,T*24
$PYRTM,2024,127.166950314213,18.276597724363
$GNGGA,040024.50,3359.18247907,N,11926.33801399,W,2,12,0.8,9.671,M,-37.452,M,4.4,0131*6C
$PYRTM,2024,127.166950314213,18.276597724363
$GNHDT,272.811,T*24
$PYRTM,2024,127.166956161782,18.276603571933
$GNGGA,040025.00,3359.18259110,N,11926.33949461,W,2,12,0.8,9.475,M,-37.452,M,5.0,0131*67
$PYRTM,2024,127.166956161782,18.276603571933
$GNHDT,272.617,T*2C
$PYRTM,2024,127.166961891424,18.276609301562
$GNGGA,040025.50,3359.18269609,N,11926.34098719,W,2,12,0.8,9.283,M,-37.452,M,5.4,0131*6B
$PYRTM,2024,127.166961891424,18.276609301562
$GNHDT,272.190,T*24
$PYRTM,2024,127.166967726713,18.276615136852
$GNGGA,040026.00,3359.18282075,N,11926.34242824,W,2,12,0.8,9.207,M,-37.452,M,6.0,0131*6A
$PYRTM,2024,127.166967726713,18.276615136852
$GNHDT,272.088,T*2C
$PYRTM,2024,127.166973463449,18.276620873588
$GNGGA,040026.50,3359.18296242,N,11926.34383957,W,2,12,0.8,9.290,M,-37.452,M,6.4,0131*6F
$PYRTM,2024,127.166973463449,18.276620873588
$GNHDT,272.044,T*2C
$PYRTM,2024,127.166979302870,18.276626713009
$GNGGA,040027.00,3359.18312729,N,11926.34522615,W,2,12,0.8,9.532,M,-37.452,M,7.0,0131*60
$PYRTM,2024,127.166979302870,18.276626713009
$GNHDT,272.233,T*2E
$PYRTM,2024,127.166985039005,18.276632449144
$GNGGA,040027.50,3359.18330002,N,11926.34660768,W,2,12,0.8,9.816,M,-37.452,M,7.4,0131*6A
$PYRTM,2024,127.166985039005,18.276632449144
$GNHDT,272.210,T*2F
$PYRTM,2024,127.166990873970,18.276638284109
$GNGGA,040028.00,3359.18345832,N,11926.34803535,W,2,12,0.8,10.039,M,-37.452,M,7.0,0131*51
$PYRTM,2024,127.166990873970,18.276638284109
$GNHDT,272.230,T*2D
$PYRTM,2024,127.166996608437,18.276644018576
$GNGGA,040028.50,3359.18359396,N,11926.34953032,W,2,12,0.8,10.040,M,-37.452,M,7.4,0131*50
$PYRTM,2024,127.166996608437,18.276644018576
$GNHDT,272.321,T*2C
$PYRTM,2024,127.167002452998,18.276649863137
$GNGGA,040029.00,3359.18369417,N,11926.35105422,W,2,12,0.8,9.873,M,-37.452,M,7.0,0131*62
$PYRTM,2024,127.167002452998,18.276649863137
$GNHDT,272.425,T*2F
$PYRTM,2024,127.167008189236,18.276655599375
$GNGGA,040029.50,3359.18376529,N,11926.35254508,W,2,12,0.8,9.629,M,-37.452,M,7.4,0131*6E
$PYRTM,2024,127.167008189236,18.276655599375
$GNHDT,272.190,T*24
$PYRTM,2024,127.167014024931,18.276661435069
$GNGGA,040030.00,3359.18381932,N,11926.35399062,W,2,12,0.8,9.427,M,-37.452,M,4.0,0131*6F
$PYRTM,2024,127.167014024931,18.276661435069
$GNHDT,272.575,T*2B
$PYRTM,2024,127.167019758553,18.276667168692
$GNGGA,040030.50,3359.18388393,N,11926.35538669,W,2,12,0.8,9.370,M,-37.452,M,4.4,0131*63
$PYRTM,2024,127.167019758553,18.276667168692
$GNHDT,272.738,T*20
$PYRTM,2024,127.167025597245,18.276673007384
$GNGGA,040031.00,3359.18397352,N,11926.35677674,W,2,12,0.8,9.399,M,-37.452,M,5.0,0131*62
$PYRTM,2024,127.167025597245,18.276673007384
$GNHDT,272.814,T*21
$PYRTM,2024,127.167031330243,18.276678740382
$GNGGA,040031.50,3359.18408563,N,11926.35819056,W,2,12,0.8,9.450,M,-37.452,M,5.4,0131*64
$PYRTM,2024,127.167031330243,18.276678740382
$GNHDT,272.754,T*2A
$PYRTM,2024,127.167037172014,18.276684582153
$GNGGA,040032.00,3359.18421163,N,11926.35964908,W,2,12,0.8,9.473,M,-37.452,M,6.0,0131*62
$PYRTM,2024,127.167037172014,18.276684582153
$GNHDT,272.650,T*2F
$PYRTM,2024,127.167042906574,18.276690316713
$GNGGA,040032.50,3359.18436478,N,11926.36111362,W,2,12,0.8,9.470,M,-37.452,M,6.4,0131*66
$PYRTM,2024,127.167042906574,18.276690316713
$GNHDT,272.863,T*21
$PYRTM,2024,127.167048748414,18.276696158553
$GNGGA,040033.00,3359.18451875,N,11926.36255441,W,2,12,0.8,9.472,M,-37.452,M,7.0,0131*60
$PYRTM,2024,127.167048748414,18.276696158553
$GNHDT,273.026,T*29
$PYRTM,2024,127.167054479051,18.276701889190
$GNGGA,040033.50,3359.18467602,N,11926.36396256,W,2,12,0.8,9.537,M,-37.452,M,7.4,0131*64
$PYRTM,2024,127.167054479051,18.276701889190
$GNHDT,273.276,T*2E
$PYRTM,2024,127.167060316019,18.276707726169
$GNGGA,040034.00,3359.18482817,N,11926.36536360,W,2,12,0.8,9.602,M,-37.452,M,7.0,0131*6E
$PYRTM,2024,127.167060316019,18.276707726169
$GNHDT,273.363,T*2B
$PYRTM,2024,127.167066054005,18.276713464144
$GNGGA,040034.50,3359.18497478,N,11926.36677165,W,2,12,0.8,9.656,M,-37.452,M,7.4,0131*6E
$PYRTM,2024,127.167066054005,18.276713464144
$GNHDT,273.350,T*2B
$PYRTM,2024,127.167071890660,18.276719300799
$GNGGA,040035.00,3359.18509759,N,11926.36820662,W,2,12,0.8,9.656,M,-37.452,M,7.0,0131*64
$PYRTM,2024,127.167071890660,18.276719300799
$GNHDT,273.312,T*2D
$PYRTM,2024,127.167077633044,18.276725043183
$GNGGA,040035.50,3359.18520272,N,11926.36964866,W,2,12,0.8,9.603,M,-37.452,M,7.4,0131*69
$PYRTM,2024,127.167077633044,18.276725043183
$GNHDT,273.649,T*26
$PYRTM,2024,127.167083467546,18.276730877685
$GNGGA,040036.00,3359.18530389,N,11926.37107433,W,2,12,0.8,9.544,M,-37.452,M,4.0,0131*6C
$PYRTM,2024,127.167083467546,18.276730877685
$GNHDT,273.910,T*25
$PYRTM,2024,127.167089201725,18.276736611863
$GNGGA,040036.50,3359.18541450,N,11926.37248629,W,2,12,0.8,9.513,M,-37.452,M,4.4,0131*6B
$PYRTM,2024,127.167089201725,18.276736611863
$GNHDT,273.807,T*22
$PYRTM,2024,127.167095042083,18.276742452222
$GNGGA,040037.00,3359.18554584,N,11926.37389446,W,2,12,0.8,9.481,M,-37.452,M,5.0,0131*6B
$PYRTM,2024,127.167095042083,18.276742452222
$GNHDT,273.987,T*2B
$PYRTM,2024,127.167100773495,18.276748183634
$GNGGA,040037.50,3359.18569568,N,11926.37530979,W,2,12,0.8,9.479,M,-37.452,M,5.4,0131*64
$PYRTM,2024,127.167100773495,18.276748183634
$GNHDT,273.912,T*27
$PYRTM,2024,127.167106614178,18.276754024317
$GNGGA,040038.00,3359.18588007,N,11926.37671969,W,2,12,0.8,9.456,M,-37.452,M,6.0,0131*60
$PYRTM,2024,127.167106614178,18.276754024317
$GNHDT,273.871,T*23
$PYRTM,2024,127.167112351586,18.276759761725
$GNGGA,040038.50,3359.18606475,N,11926.37815382,W,2,12,0.8,9.409,M,-37.452,M,6.4,0131*6C
$PYRTM,2024,127.167112351586,18.276759761725
$GNHDT,273.717,T*2C
$PYRTM,2024,127.167118188738,18.276765598877
$GNGGA,040039.00,3359.18624581,N,11926.37959642,W,2,12,0.8,9.330,M,-37.452,M,7.0,0131*6A
$PYRTM,2024,127.167118188738,18.276765598877
$GNHDT,273.483,T*22
$PYRTM,2024,127.167123924375,18.276771334514
$GNGGA,040039.50,3359.18640781,N,11926.38105788,W,2,12,0.8,9.245,M,-37.452,M,7.4,0131*61
$PYRTM,2024,127.167123924375,18.276771334514
$GNHDT,273.359,T*22
$PYRTM,2024,127.167129765243,18.276777175394
$GNGGA,040040.00,3359.18655461,N,11926.38251490,W,2,12,0.8,9.203,M,-37.452,M,7.0,0131*6D
$PYRTM,2024,127.167129765243,18.276777175394
$GNHDT,273.114,T*29
$PYRTM,2024,127.167135497836,18.276782907986
$GNGGA,040040.50,3359.18666822,N,11926.38396607,W,2,12,0.8,9.242,M,-37.452,M,7.4,0131*64
$PYRTM,2024,127.167135497836,18.276782907986
$GNHDT,273.170,T*2B
$PYRTM,2024,127.167141339062,18.276788749201
$GNGGA,040041.00,3359.18675223,N,11926.38538830,W,2,12,0.8,9.407,M,-37.452,M,7.0,0131*62
$PYRTM,2024,127.167141339062,18.276788749201
$GNHDT,273.124,T*2A
$PYRTM,2024,127.167147079236,18.276794489375
$GNGGA,040041.50,3359.18683848,N,11926.38679808,W,2,12,0.8,9.632,M,-37.452,M,7.4,0131*64
$PYRTM,2024,127.167147079236,18.276794489375
$GNHDT,273.061,T*2A
$PYRTM,2024,127.167152914144,18.276800324294
$GNGGA,040042.00,3359.18695239,N,11926.38822901,W,2,12,0.8,9.798,M,-37.452,M,4.0,0131*67
$PYRTM,2024,127.167152914144,18.276800324294
$GNHDT,273.130,T*2F
$PYRTM,2024,127.167158652338,18.276806062477
$GNGGA,040042.50,3359.18710074,N,11926.38969779,W,2,12,0.8,9.819,M,-37.452,M,4.4,0131*68
$PYRTM,2024,127.167158652338,18.276806062477
$GNHDT,273.111,T*2C
$PYRTM,2024,127.167164485035,18.276811895174
$GNGGA,040043.00,3359.18725140,N,11926.39116942,W,2,12,0.8,9.763,M,-37.452,M,5.0,0131*6C
$PYRTM,2024,127.167164485035,18.276811895174
$GNHDT,272.862,T*20
$PYRTM,2024,127.167170222674,18.276817632812
$GNGGA,040043.50,3359.18739917,N,11926.39262224,W,2,12,0.8,9.682,M,-37.452,M,5.4,0131*6F
$PYRTM,2024,127.167170222674,18.276817632812
$GNHDT,272.692,T*21
$PYRTM,2024,127.167176065833,18.276823475972
$GNGGA,040044.00,3359.18754132,N,11926.39406987,W,2,12,0.8,9.599,M,-37.452,M,6.0,0131*61
$PYRTM,2024,127.167176065833,18.276823475972
$GNHDT,272.579,T*27
$PYRTM,2024,127.167181795220,18.276829205359
$GNGGA,040044.50,3359.18768215,N,11926.39551859,W,2,12,0.8,9.525,M,-37.452,M,6.4,0131*6F
$PYRTM,2024,127.167181795220,18.276829205359
$GNHDT,272.509,T*20
$PYRTM,2024,127.167187634178,18.276835044329
$GNGGA,040045.00,3359.18780807,N,11926.39697791,W,2,12,0.8,9.485,M,-37.452,M,7.0,0131*68
$PYRTM,2024,127.167187634178,18.276835044329
$GNHDT,272.398,T*2E
$PYRTM,2024,127.167193373171,18.276840783310
$GNGGA,040045.50,3359.18791255,N,11926.39843811,W,2,12,0.8,9.515,M,-37.452,M,7.4,0131*6C
$PYRTM,2024,127.167193373171,18.276840783310
$GNHDT,272.307,T*28
$PYRTM,2024,127.167199207164,18.276846617303
$GNGGA,040046.00,3359.18799942,N,11926.39989683,W,2,12,0.8,9.615,M,-37.452,M,7.0,0131*6A
$PYRTM,2024,127.167199207164,18.276846617303
$GNHDT,272.249,T*23
$PYRTM,2024,127.167204943507,18.276852353646
$GNGGA,040046.50,3359.18809805,N,11926.40134127,W,2,12,0.8,9.761,M,-37.452,M,7.4,0131*64
$PYRTM,2024,127.167204943507,18.276852353646
$GNHDT,272.283,T*25
$PYRTM,2024,127.167210786424,18.276858196563
$GNGGA,040047.00,3359.18821885,N,11926.40277570,W,2,12,0.8,9.908,M,-37.452,M,7.0,0131*65
$PYRTM,2024,127.167210786424,18.276858196563
$GNHDT,272.352,T*28
$PYRTM,2024,127.167216517523,18.276863927662
$GNGGA,040047.50,3359.18836619,N,11926.40420319,W,2,12,0.8,10.019,M,-37.452,M,7.4,0131*55
$PYRTM,2024,127.167216517523,18.276863927662
$GNHDT,272.449,T*25
$PYRTM,2024,127.167222355914,18.276869766053
$GNGGA,040048.00,3359.18851845,N,11926.40563675,W,2,12,0.8,10.073,M,-37.452,M,4.0,0131*5B
$PYRTM,2024,127.167222355914,18.276869766053
$GNHDT,272.538,T*22
$PYRTM,2024,127.167228096019,18.276875506157
$GNGGA,040048.50,3359.18867573,N,11926.40706602,W,2,12,0.8,10.067,M,-37.452,M,4.4,0131*53
$PYRTM,2024,127.167228096019,18.276875506157
$GNHDT,272.516,T*2E
$PYRTM,2024,127.167233934792,18.276881344931
$GNGGA,040049.00,3359.18881727,N,11926.40849579,W,2,12,0.8,9.980,M,-37.452,M,5.0,0131*6A
$PYRTM,2024,127.167233934792,18.276881344931
$GNHDT,272.682,T*20
$PYRTM,2024,127.167239672431,18.276887082569
$GNGGA,040049.50,3359.18894268,N,11926.40992769,W,2,12,0.8,9.840,M,-37.452,M,5.4,0131*68
$PYRTM,2024,127.167239672431,18.276887082569
$GNHDT,272.690,T*23
$PYRTM,2024,127.167245508819,18.276892918958
$GNGGA,040050.00,3359.18905411,N,11926.41136879,W,2,12,0.8,9.650,M,-37.452,M,6.0,0131*65
$PYRTM,2024,127.167245508819,18.276892918958
$GNHDT,272.894,T*29
$PYRTM,2024,127.167251240787,18.276898650926
$GNGGA,040050.50,3359.18914929,N,11926.41283757,W,2,12,0.8,9.433,M,-37.452,M,6.4,0131*6B
$PYRTM,2024,127.167251240787,18.276898650926
$GNHDT,272.993,T*2F
$PYRTM,2024,127.167257081597,18.276904491748
$GNGGA,040051.00,3359.18924062,N,11926.41429569,W,2,12,0.8,9.273,M,-37.452,M,7.0,0131*64
$PYRTM,2024,127.167257081597,18.276904491748
$GNHDT,272.841,T*21
$PYRTM,2024,127.167262814769,18.276910224907
$GNGGA,040051.50,3359.18934140,N,11926.41572423,W,2,12,0.8,9.220,M,-37.452,M,7.4,0131*63
$PYRTM,2024,127.167262814769,18.276910224907
$GNHDT,273.161,T*2B
$PYRTM,2024,127.167268652778,18.276916062917
$GNGGA,040052.00,3359.18945890,N,11926.41713836,W,2,12,0.8,9.252,M,-37.452,M,7.0,0131*6B
$PYRTM,2024,127.167268652778,18.276916062917
$GNHDT,273.484,T*25
$PYRTM,2024,127.167274397083,18.276921807234
$GNGGA,040052.50,3359.18959386,N,11926.41854667,W,2,12,0.8,9.351,M,-37.452,M,7.4,0131*6F
$PYRTM,2024,127.167274397083,18.276921807234
$GNHDT,273.395,T*22
$PYRTM,2024,127.167280230637,18.276927640787
$GNGGA,040053.00,3359.18975060,N,11926.41994890,W,2,12,0.8,9.460,M,-37.452,M,7.0,0131*64
$PYRTM,2024,127.167280230637,18.276927640787
$GNHDT,273.379,T*20
$PYRTM,2024,127.167285964387,18.276933374525
$GNGGA,040053.50,3359.18990404,N,11926.42139806,W,2,12,0.8,9.490,M,-37.452,M,7.4,0131*64
$PYRTM,2024,127.167285964387,18.276933374525
$GNHDT,273.580,T*20
$PYRTM,2024,127.167291804965,18.276939215104
$GNGGA,040054.00,3359.19004125,N,11926.42288961,W,2,12,0.8,9.425,M,-37.452,M,4.0,0131*65
$PYRTM,2024,127.167291804965,18.276939215104
$GNHDT,273.596,T*27
$PYRTM,2024,127.167297541875,18.276944952014
$GNGGA,040054.50,3359.19016327,N,11926.42439779,W,2,12,0.8,9.289,M,-37.452,M,4.4,0131*6C
$PYRTM,2024,127.167297541875,18.276944952014
$GNHDT,273.265,T*2C
$PYRTM,2024,127.167303386898,18.276950797037
$GNGGA,040055.00,3359.19028183,N,11926.42586993,W,2,12,0.8,9.186,M,-37.452,M,5.0,0131*6F
$PYRTM,2024,127.167303386898,18.276950797037
$GNHDT,273.242,T*29
$PYRTM,2024,127.167309113808,18.276956523947
$GNGGA,040055.50,3359.19040041,N,11926.42730163,W,2,12,0.8,9.175,M,-37.452,M,5.4,0131*6B
$PYRTM,2024,127.167309113808,18.276956523947
$GNHDT,273.382,T*24
$PYRTM,2024,127.167314952187,18.276962362326
$GNGGA,040056.00,3359.19051941,N,11926.42869626,W,2,12,0.8,9.282,M,-37.452,M,6.0,0131*6D
$PYRTM,2024,127.167314952187,18.276962362326
$GNHDT,273.355,T*2E
$PYRTM,2024,127.167320688356,18.276968098495
$GNGGA,040056.50,3359.19063644,N,11926.43009288,W,2,12,0.8,9.489,M,-37.452,M,6.4,0131*65
$PYRTM,2024,127.167320688356,18.276968098495
$GNHDT,273.320,T*2C
$PYRTM,2024,127.167326524051,18.276973934190
$GNGGA,040057.00,3359.19076257,N,11926.43150507,W,2,12,0.8,9.707,M,-37.452,M,7.0,0131*6E
$PYRTM,2024,127.167326524051,18.276973934190
$GNHDT,273.462,T*2D
$PYRTM,2024,127.167332261424,18.276979671563
$GNGGA,040057.50,3359.19091652,N,11926.43292164,W,2,12,0.8,9.854,M,-37.452,M,7.4,0131*62
$PYRTM,2024,127.167332261424,18.276979671563
$GNHDT,273.541,T*2D
$PYRTM,2024,127.167338098542,18.276985508681
$GNGGA,040058.00,3359.19108668,N,11926.43436027,W,2,12,0.8,9.888,M,-37.452,M,7.0,0131*6B
$PYRTM,2024,127.167338098542,18.276985508681
$GNHDT,273.584,T*24
$PYRTM,2024,127.167343834016,18.276991244155
$GNGGA,040058.50,3359.19126149,N,11926.43582291,W,2,12,0.8,9.780,M,-37.452,M,7.4,0131*64
$PYRTM,2024,127.167343834016,18.276991244155
$GNHDT,273.583,T*23
$PYRTM,2024,127.167349673403,18.276997083542
$GNGGA,040059.00,3359.19143394,N,11926.43728972,W,2,12,0.8,9.570,M,-37.452,M,7.0,0131*6C
$PYRTM,2024,127.167349673403,18.276997083542
$GNHDT,273.422,T*29
$PYRTM,2024,127.167355410069,18.277002820208
$GNGGA,040059.50,3359.19158095,N,11926.43877103,W,2,12,0.8,9.349,M,-37.451,M,7.4,0131*61
$PYRTM,2024,127.167355410069,18.277002820208
$GNHDT,273.208,T*27
$PYRTM,2024,127.167361252130,18.277008662269
$GNGGA,040100.00,3359.19170080,N,11926.44024233,W,2,12,0.8,9.195,M,-37.451,M,4.0,0131*6A
$PYRTM,2024,127.167361252130,18.277008662269
$GNHDT,273.180,T*24
$PYRTM,2024,127.167366981678,18.277014391817
$GNGGA,040100.50,3359.19180673,N,11926.44169013,W,2,12,0.8,9.171,M,-37.451,M,4.4,0131*6C
$PYRTM,2024,127.167366981678,18.277014391817
$GNHDT,273.115,T*28
$PYRTM,2024,127.167372821933,18.277020232072
$GNGGA,040101.00,3359.19192297,N,11926.44310835,W,2,12,0.8,9.313,M,-37.451,M,5.0,0131*66
$PYRTM,2024,127.167372821933,18.277020232072
$GNHDT,273.019,T*25
$PYRTM,2024,127.167378558669,18.277025968808
$GNGGA,040101.50,3359.19205203,N,11926.44451425,W,2,12,0.8,9.556,M,-37.451,M,5.4,0131*6F
$PYRTM,2024,127.167378558669,18.277025968808
$GNHDT,273.042,T*2B
$PYRTM,2024,127.167384398056,18.277031808194
$GNGGA,040102.00,3359.19218862,N,11926.44593357,W,2,12,0.8,9.818,M,-37.451,M,6.0,0131*65
$PYRTM,2024,127.167384398056,18.277031808194
$GNHDT,272.854,T*25
$PYRTM,2024,127.167390133935,18.277037544074
$GNGGA,040102.50,3359.19232989,N,11926.44738725,W,2,12,0.8,9.982,M,-37.451,M,6.4,0131*68
$PYRTM,2024,127.167390133935,18.277037544074
$GNHDT,272.536,T*2C
$PYRTM,2024,127.167395970903,18.277043381042
$GNGGA,040103.00,3359.19246506,N,11926.44889700,W,2,12,0.8,9.977,M,-37.451,M,7.0,0131*69
$PYRTM,2024,127.167395970903,18.277043381042
$GNHDT,272.276,T*2F
$PYRTM,2024,127.167401702986,18.277049113125
$GNGGA,040103.50,3359.19260327,N,11926.45040426,W,2,12,0.8,9.844,M,-37.451,M,7.4,0131*63
$PYRTM,2024,127.167401702986,18.277049113125
$GNHDT,272.431,T*2A
$PYRTM,2024,127.167407547164,18.277054957303
$GNGGA,040104.00,3359.19272902,N,11926.45188911,W,2,12,0.8,9.660,M,-37.451,M,7.0,0131*6F
$PYRTM,2024,127.167407547164,18.277054957303
$GNHDT,272.299,T*2E
$PYRTM,2024,127.167413276157,18.277060686296
$GNGGA,040104.50,3359.19283910,N,11926.45334333,W,2,12,0.8,9.507,M,-37.451,M,7.4,0131*6E
$PYRTM,2024,127.167413276157,18.277060686296
$GNHDT,272.313,T*2D
$PYRTM,2024,127.167419114884,18.277066525035
$GNGGA,040105.00,3359.19293377,N,11926.45478380,W,2,12,0.8,9.395,M,-37.451,M,7.0,0131*6E
$PYRTM,2024,127.167419114884,18.277066525035
$GNHDT,272.307,T*28
$PYRTM,2024,127.167424856505,18.277072266655
$GNGGA,040105.50,3359.19303491,N,11926.45621537,W,2,12,0.8,9.370,M,-37.451,M,7.4,0131*67
$PYRTM,2024,127.167424856505,18.277072266655
$GNHDT,272.122,T*2D
$PYRTM,2024,127.167430689896,18.277078100046
$GNGGA,040106.00,3359.19314933,N,11926.45766260,W,2,12,0.8,9.363,M,-37.451,M,4.0,0131*60
$PYRTM,2024,127.167430689896,18.277078100046
$GNHDT,272.049,T*21
$PYRTM,2024,127.167436428044,18.277083838183
$GNGGA,040106.50,3359.19327506,N,11926.45913635,W,2,12,0.8,9.347,M,-37.451,M,4.4,0131*65
$PYRTM,2024,127.167436428044,18.277083838183
$GNHDT,272.166,T*2D
$PYRTM,2024,127.167442274757,18.277089684896
$GNGGA,040107.00,3359.19339755,N,11926.46061695,W,2,12,0.8,9.327,M,-37.451,M,5.0,0131*6C
$PYRTM,2024,127.167442274757,18.277089684896
$GNHDT,272.220,T*2C
$PYRTM,2024,127.167447999294,18.277095409433
$GNGGA,040107.50,3359.19351888,N,11926.46205033,W,2,12,0.8,9.399,M,-37.451,M,5.4,0131*63
$PYRTM,2024,127.167447999294,18.277095409433
$GNHDT,272.418,T*21
$PYRTM,2024,127.167453846065,18.277101256204
$GNGGA,040108.00,3359.19363740,N,11926.46343896,W,2,12,0.8,9.585,M,-37.451,M,6.0,0131*6B
$PYRTM,2024,127.167453846065,18.277101256204
$GNHDT,272.647,T*29
$PYRTM,2024,127.167459573137,18.277106983275
$GNGGA,040108.50,3359.19375077,N,11926.46482805,W,2,12,0.8,9.783,M,-37.451,M,6.4,0131*6A
$PYRTM,2024,127.167459573137,18.277106983275
$GNHDT,272.705,T*2E
$PYRTM,2024,127.167465413935,18.277112824074
$GNGGA,040109.00,3359.19386377,N,11926.46625959,W,2,12,0.8,9.891,M,-37.451,M,7.0,0131*6F
$PYRTM,2024,127.167465413935,18.277112824074
$GNHDT,272.756,T*28
$PYRTM,2024,127.167471147917,18.277118558056
$GNGGA,040109.50,3359.19399291,N,11926.46771148,W,2,12,0.8,9.875,M,-37.451,M,7.4,0131*6B
$PYRTM,2024,127.167471147917,18.277118558056
$GNHDT,272.938,T*2E
$PYRTM,2024,127.167476991609,18.277124401748
$GNGGA,040110.00,3359.19412453,N,11926.46917002,W,2,12,0.8,9.747,M,-37.451,M,7.0,0131*61
$PYRTM,2024,127.167476991609,18.277124401748
$GNHDT,273.083,T*26
$PYRTM,2024,127.167482725683,18.277130135822
$GNGGA,040110.50,3359.19424767,N,11926.47062607,W,2,12,0.8,9.558,M,-37.451,M,7.4,0131*64
$PYRTM,2024,127.167482725683,18.277130135822
$GNHDT,272.934,T*22
$PYRTM,2024,127.167488566412,18.277135976551
$GNGGA,040111.00,3359.19435216,N,11926.47210245,W,2,12,0.8,9.294,M,-37.451,M,7.0,0131*65
$PYRTM,2024,127.167488566412,18.277135976551
$GNHDT,272.827,T*21
$PYRTM,2024,127.167494299919,18.277141710058
$GNGGA,040111.50,3359.19445042,N,11926.47358649,W,2,12,0.8,9.055,M,-37.451,M,7.4,0131*6A
$PYRTM,2024,127.167494299919,18.277141710058
$GNHDT,272.831,T*26
$PYRTM,2024,127.167500147280,18.277147557419
$GNGGA,040112.00,3359.19456836,N,11926.47504761,W,2,12,0.8,8.915,M,-37.451,M,4.0,0131*6A
$PYRTM,2024,127.167500147280,18.277147557419
$GNHDT,272.687,T*25
$PYRTM,2024,127.167505871389,18.277153281528
$GNGGA,040112.50,3359.19470435,N,11926.47645681,W,2,12,0.8,8.980,M,-37.451,M,4.4,0131*65
$PYRTM,2024,127.167505871389,18.277153281528
$GNHDT,272.637,T*2E
$PYRTM,2024,127.167511711701,18.277159121852
$GNGGA,040113.00,3359.19485280,N,11926.47783455,W,2,12,0.8,9.196,M,-37.451,M,5.0,0131*68
$PYRTM,2024,127.167511711701,18.277159121852
$GNHDT,272.748,T*27
$PYRTM,2024,127.167517459028,18.277164869167
$GNGGA,040113.50,3359.19501154,N,11926.47921338,W,2,12,0.8,9.467,M,-37.451,M,5.4,0131*6F
$PYRTM,2024,127.167517459028,18.277164869167
$GNHDT,273.052,T*2A
$PYRTM,2024,127.167523286019,18.277170696157
$GNGGA,040114.00,3359.19519012,N,11926.48062360,W,2,12,0.8,9.698,M,-37.451,M,6.0,0131*6E
$PYRTM,2024,127.167523286019,18.277170696157
$GNHDT,273.084,T*21
$PYRTM,2024,127.167529022141,18.277176432280
$GNGGA,040114.50,3359.19537996,N,11926.48207650,W,2,12,0.8,9.803,M,-37.451,M,6.4,0131*6D
$PYRTM,2024,127.167529022141,18.277176432280
$GNHDT,272.966,T*25
$PYRTM,2024,127.167534863646,18.277182273785
$GNGGA,040115.00,3359.19556188,N,11926.48355168,W,2,12,0.8,9.757,M,-37.451,M,7.0,0131*68
$PYRTM,2024,127.167534863646,18.277182273785
$GNHDT,273.010,T*2C
$PYRTM,2024,127.167540594931,18.277188005069
$GNGGA,040115.50,3359.19570988,N,11926.48503955,W,2,12,0.8,9.590,M,-37.451,M,7.4,0131*6F
$PYRTM,2024,127.167540594931,18.277188005069
$GNHDT,272.932,T*24
$PYRTM,2024,127.167546436331,18.277193846470
$GNGGA,040116.00,3359.19582629,N,11926.48651108,W,2,12,0.8,9.384,M,-37.451,M,7.0,0131*63
$PYRTM,2024,127.167546436331,18.277193846470
$GNHDT,272.949,T*28
$PYRTM,2024,127.167552175359,18.277199585498
$GNGGA,040116.50,3359.19592517,N,11926.48794730,W,2,12,0.8,9.255,M,-37.451,M,7.4,0131*65
$PYRTM,2024,127.167552175359,18.277199585498
$GNHDT,273.050,T*28
$PYRTM,2024,127.167558010266,18.277205420405
$GNGGA,040117.00,3359.19601854,N,11926.48934541,W,2,12,0.8,9.250,M,-37.451,M,7.0,0131*63
$PYRTM,2024,127.167558010266,18.277205420405
$GNHDT,273.050,T*28
$PYRTM,2024,127.167563744363,18.277211154502
$GNGGA,040117.50,3359.19611103,N,11926.49073507,W,2,12,0.8,9.333,M,-37.451,M,7.4,0131*65
$PYRTM,2024,127.167563744363,18.277211154502
$GNHDT,272.965,T*26
$PYRTM,2024,127.167569582002,18.277216992141
$GNGGA,040118.00,3359.19621804,N,11926.49215372,W,2,12,0.8,9.398,M,-37.451,M,4.0,0131*62
$PYRTM,2024,127.167569582002,18.277216992141
$GNHDT,272.941,T*20
$PYRTM,2024,127.167575317870,18.277222728009
$GNGGA,040118.50,3359.19635473,N,11926.49362195,W,2,12,0.8,9.356,M,-37.451,M,4.4,0131*62
$PYRTM,2024,127.167575317870,18.277222728009
$GNHDT,272.893,T*2E
$PYRTM,2024,127.167581162639,18.277228572789
$GNGGA,040119.00,3359.19652356,N,11926.49510511,W,2,12,0.8,9.221,M,-37.451,M,5.0,0131*68
$PYRTM,2024,127.167581162639,18.277228572789
$GNHDT,272.843,T*23
$PYRTM,2024,127.167586892905,18.277234303056
$GNGGA,040119.50,3359.19670266,N,11926.49654945,W,2,12,0.8,9.139,M,-37.451,M,5.4,0131*6F
$PYRTM,2024,127.167586892905,18.277234303056
$GNHDT,272.906,T*23
$PYRTM,2024,127.167592736794,18.277240146933
$GNGGA,040120.00,3359.19687618,N,11926.49793703,W,2,12,0.8,9.184,M,-37.451,M,6.0,0131*62
$PYRTM,2024,127.167592736794,18.277240146933
$GNHDT,273.102,T*2E
$PYRTM,2024,127.167598465162,18.277245875301
$GNGGA,040120.50,3359.19701497,N,11926.49931261,W,2,12,0.8,9.336,M,-37.451,M,6.4,0131*65
$PYRTM,2024,127.167598465162,18.277245875301
$GNHDT,272.901,T*24
$PYRTM,2024,127.167604308252,18.277251718391
$GNGGA,040121.00,3359.19711824,N,11926.50070586,W,2,12,0.8,9.512,M,-37.451,M,7.0,0131*6B
$PYRTM,2024,127.167604308252,18.277251718391
$GNHDT,272.869,T*2B
$PYRTM,2024,127.167610043125,18.277257453264
$GNGGA,040121.50,3359.19719878,N,11926.50213609,W,2,12,0.8,9.638,M,-37.451,M,7.4,0131*63
$PYRTM,2024,127.167610043125,18.277257453264
$GNHDT,272.807,T*23
$PYRTM,2024,127.167615892384,18.277263302523
$GNGGA,040122.00,3359.19725931,N,11926.50359317,W,2,12,0.8,9.650,M,-37.451,M,7.0,0131*69
$PYRTM,2024,127.167615892384,18.277263302523
$GNHDT,272.875,T*26
$PYRTM,2024,127.167621614815,18.277269024954
$GNGGA,040122.50,3359.19732200,N,11926.50505524,W,2,12,0.8,9.572,M,-37.451,M,7.4,0131*6D
$PYRTM,2024,127.167621614815,18.277269024954
$GNHDT,272.963,T*20
$PYRTM,2024,127.167627456123,18.277274866262
$GNGGA,040123.00,3359.19740299,N,11926.50649792,W,2,12,0.8,9.438,M,-37.451,M,7.0,0131*63
$PYRTM,2024,127.167627456123,18.277274866262
$GNHDT,273.150,T*29
$PYRTM,2024,127.167633189711,18.277280599861
$GNGGA,040123.50,3359.19751691,N,11926.50791467,W,2,12,0.8,9.317,M,-37.451,M,7.4,0131*69
$PYRTM,2024,127.167633189711,18.277280599861
$GNHDT,272.930,T*26
$PYRTM,2024,127.167639030602,18.277286440752
$GNGGA,040124.00,3359.19766737,N,11926.50932102,W,2,12,0.8,9.251,M,-37.451,M,4.0,0131*67
$PYRTM,2024,127.167639030602,18.277286440752
$GNHDT,272.835,T*22
$PYRTM,2024,127.167644762025,18.277292172164
$GNGGA,040124.50,3359.19784514,N,11926.51072760,W,2,12,0.8,9.256,M,-37.451,M,4.4,0131*60
$PYRTM,2024,127.167644762025,18.277292172164
$GNHDT,272.790,T*22
$PYRTM,2024,127.167650604907,18.277298015046
$GNGGA,040125.00,3359.19803816,N,11926.51213830,W,2,12,0.8,9.325,M,-37.451,M,5.0,0131*64
$PYRTM,2024,127.167650604907,18.277298015046
$GNHDT,272.868,T*2A
$PYRTM,2024,127.167656341123,18.277303751273
$GNGGA,040125.50,3359.19821095,N,11926.51359415,W,2,12,0.8,9.406,M,-37.451,M,5.4,0131*64
$PYRTM,2024,127.167656341123,18.277303751273
$GNHDT,272.996,T*2A
$PYRTM,2024,127.167662182361,18.277309592500
$GNGGA,040126.00,3359.19836812,N,11926.51508020,W,2,12,0.8,9.461,M,-37.451,M,6.0,0131*65
$PYRTM,2024,127.167662182361,18.277309592500
$GNHDT,272.893,T*2E
$PYRTM,2024,127.167667910428,18.277315320579
$GNGGA,040126.50,3359.19851055,N,11926.51654130,W,2,12,0.8,9.560,M,-37.451,M,6.4,0131*64
$PYRTM,2024,127.167667910428,18.277315320579
$GNHDT,272.949,T*28
$PYRTM,2024,127.167673758981,18.277321169120
$GNGGA,040127.00,3359.19863836,N,11926.51795430,W,2,12,0.8,9.738,M,-37.451,M,7.0,0131*6F
$PYRTM,2024,127.167673758981,18.277321169120
$GNHDT,273.164,T*2E
$PYRTM,2024,127.167679483854,18.277326893993
$GNGGA,040127.50,3359.19876509,N,11926.51933562,W,2,12,0.8,9.983,M,-37.451,M,7.4,0131*61
$PYRTM,2024,127.167679483854,18.277326893993
$GNHDT,273.177,T*2C
$PYRTM,2024,127.167685326840,18.277332736979
$GNGGA,040128.00,3359.19889190,N,11926.52072646,W,2,12,0.8,10.178,M,-37.451,M,7.0,0131*55
$PYRTM,2024,127.167685326840,18.277332736979
$GNHDT,273.360,T*28
$PYRTM,2024,127.167691056759,18.277338466898
$GNGGA,040128.50,3359.19903034,N,11926.52217184,W,2,12,0.8,10.192,M,-37.451,M,7.4,0131*54
$PYRTM,2024,127.167691056759,18.277338466898
$GNHDT,273.374,T*2D
$PYRTM,2024,127.167696903796,18.277344313935
$GNGGA,040129.00,3359.19918784,N,11926.52364437,W,2,12,0.8,10.035,M,-37.451,M,7.0,0131*56
$PYRTM,2024,127.167696903796,18.277344313935
$GNHDT,273.354,T*2F
$PYRTM,2024,127.167702634884,18.277350045035
$GNGGA,040129.50,3359.19936175,N,11926.52509405,W,2,12,0.8,9.798,M,-37.451,M,7.4,0131*67
$PYRTM,2024,127.167702634884,18.277350045035
$GNHDT,273.589,T*29
$PYRTM,2024,127.167708478692,18.277355888831
$GNGGA,040130.00,3359.19953426,N,11926.52653058,W,2,12,0.8,9.551,M,-37.451,M,4.0,0131*6A
$PYRTM,2024,127.167708478692,18.277355888831
$GNHDT,273.424,T*2F
$PYRTM,2024,127.167714204931,18.277361615069
$GNGGA,040130.50,3359.19971284,N,11926.52793807,W,2,12,0.8,9.345,M,-37.451,M,4.4,0131*69
$PYRTM,2024,127.167714204931,18.277361615069
$GNHDT,273.393,T*24
$PYRTM,2024,127.167720047743,18.277367457894
$GNGGA,040131.00,3359.19988850,N,11926.52936187,W,2,12,0.8,9.205,M,-37.451,M,5.0,0131*68
$PYRTM,2024,127.167720047743,18.277367457894
$GNHDT,273.229,T*24
$PYRTM,2024,127.167725783634,18.277373193773
$GNGGA,040131.50,3359.20004933,N,11926.53080694,W,2,12,0.8,9.135,M,-37.451,M,5.4,0131*6A
$PYRTM,2024,127.167725783634,18.277373193773
$GNHDT,273.208,T*27
$PYRTM,2024,127.167731630324,18.277379040463
$GNGGA,040132.00,3359.20020114,N,11926.53224519,W,2,12,0.8,9.167,M,-37.451,M,6.0,0131*6D
$PYRTM,2024,127.167731630324,18.277379040463
$GNHDT,273.051,T*29
$PYRTM,2024,127.167737359167,18.277384769317
$GNGGA,040132.50,3359.20034619,N,11926.53365756,W,2,12,0.8,9.307,M,-37.451,M,6.4,0131*6A
$PYRTM,2024,127.167737359167,18.277384769317
$GNHDT,273.312,T*2D
$PYRTM,2024,127.167743195301,18.277390605451
$GNGGA,040133.00,3359.20049596,N,11926.53505280,W,2,12,0.8,9.505,M,-37.451,M,7.0,0131*6F
$PYRTM,2024,127.167743195301,18.277390605451
$GNHDT,273.535,T*2E
$PYRTM,2024,127.167748930255,18.277396340405
$GNGGA,040133.50,3359.20066238,N,11926.53645041,W,2,12,0.8,9.671,M,-37.451,M,7.4,0131*68
$PYRTM,2024,127.167748930255,18.277396340405
$GNHDT,273.379,T*20
$PYRTM,2024,127.167754770729,18.277402180868
$GNGGA,040134.00,3359.20081685,N,11926.53790255,W,2,12,0.8,9.745,M,-37.451,M,7.0,0131*6D
$PYRTM,2024,127.167754770729,18.277402180868
$GNHDT,273.193,T*26
$PYRTM,2024,127.167760501620,18.277407911759
$GNGGA,040134.50,3359.20094826,N,11926.53938084,W,2,12,0.8,9.703,M,-37.451,M,7.4,0131*6F
$PYRTM,2024,127.167760501620,18.277407911759
$GNHDT,273.044,T*2D
$PYRTM,2024,127.167766342743,18.277413752870
$GNGGA,040135.00,3359.20104993,N,11926.54085313,W,2,12,0.8,9.587,M,-37.451,M,7.0,0131*63
$PYRTM,2024,127.167766342743,18.277413752870
$GNHDT,273.109,T*25
$PYRTM,2024,127.167772078519,18.277419488657
$GNGGA,040135.50,3359.20113706,N,11926.54232581,W,2,12,0.8,9.443,M,-37.451,M,7.4,0131*6C
$PYRTM,2024,127.167772078519,18.277419488657
$GNHDT,273.280,T*27
$PYRTM,2024,127.167777923241,18.277425333391
$GNGGA,040136.00,3359.20122335,N,11926.54379625,W,2,12,0.8,9.301,M,-37.451,M,4.0,0131*69
$PYRTM,2024,127.167777923241,18.277425333391
$GNHDT,273.208,T*27
$PYRTM,2024,127.167783652245,18.277431062384
$GNGGA,040136.50,3359.20134108,N,11926.54522222,W,2,12,0.8,9.228,M,-37.451,M,4.4,0131*62
$PYRTM,2024,127.167783652245,18.277431062384
$GNHDT,273.060,T*2B
$PYRTM,2024,127.167789496968,18.277436907118
$GNGGA,040137.00,3359.20147801,N,11926.54661753,W,2,12,0.8,9.285,M,-37.451,M,5.0,0131*67
$PYRTM,2024,127.167789496968,18.277436907118
$GNHDT,272.842,T*22
$PYRTM,2024,127.167795227604,18.277442637743
$GNGGA,040137.50,3359.20164625,N,11926.54798551,W,2,12,0.8,9.425,M,-37.451,M,5.4,0131*64
$PYRTM,2024,127.167795227604,18.277442637743
$GNHDT,272.972,T*20
$PYRTM,2024,127.167801067662,18.277448477801
$GNGGA,040138.00,3359.20182945,N,11926.54937553,W,2,12,0.8,9.547,M,-37.451,M,6.0,0131*64
$PYRTM,2024,127.167801067662,18.277448477801
$GNHDT,273.044,T*2D
$PYRTM,2024,127.167806806852,18.277454216991
$GNGGA,040138.50,3359.20199841,N,11926.55083194,W,2,12,0.8,9.560,M,-37.451,M,6.4,0131*67
$PYRTM,2024,127.167806806852,18.277454216991
$GNHDT,273.088,T*2D
$PYRTM,2024,127.167812645718,18.277460055856
$GNGGA,040139.00,3359.20214872,N,11926.55232259,W,2,12,0.8,9.500,M,-37.451,M,7.0,0131*6C
$PYRTM,2024,127.167812645718,18.277460055856
$GNHDT,273.041,T*28
$PYRTM,2024,127.167818374225,18.277465784375
$GNGGA,040139.50,3359.20227330,N,11926.55381370,W,2,12,0.8,9.428,M,-37.451,M,7.4,0131*68
$PYRTM,2024,127.167818374225,18.277465784375
$GNHDT,272.928,T*2F
$PYRTM,2024,127.167824211215,18.277471621354
$GNGGA,040140.00,3359.20236440,N,11926.55526781,W,2,12,0.8,9.442,M,-37.451,M,7.0,0131*6A
$PYRTM,2024,127.167824211215,18.277471621354
$GNHDT,272.964,T*27
$PYRTM,2024,127.167829947639,18.277477357789
$GNGGA,040140.50,3359.20243660,N,11926.55667356,W,2,12,0.8,9.573,M,-37.451,M,7.4,0131*62
$PYRTM,2024,127.167829947639,18.277477357789
$GNHDT,272.999,T*25
$PYRTM,2024,127.167835790509,18.277483200648
$GNGGA,040141.00,3359.20249718,N,11926.55809239,W,2,12,0.8,9.760,M,-37.451,M,7.0,0131*68
$PYRTM,2024,127.167835790509,18.277483200648
$GNHDT,272.928,T*2F
$PYRTM,2024,127.167841520856,18.277488930995
$GNGGA,040141.50,3359.20257585,N,11926.55952153,W,2,12,0.8,9.922,M,-37.451,M,7.4,0131*68
$PYRTM,2024,127.167841520856,18.277488930995
$GNHDT,272.903,T*26
$PYRTM,2024,127.167847363160,18.277494773310
$GNGGA,040142.00,3359.20268901,N,11926.56097159,W,2,12,0.8,9.957,M,-37.451,M,4.0,0131*6E
$PYRTM,2024,127.167847363160,18.277494773310
$GNHDT,272.736,T*2E
$PYRTM,2024,127.167853098299,18.277500508437
$GNGGA,040142.50,3359.20285147,N,11926.56243019,W,2,12,0.8,9.859,M,-37.451,M,4.4,0131*67
$PYRTM,2024,127.167853098299,18.277500508437
$GNHDT,272.700,T*2B
$PYRTM,2024,127.167858942662,18.277506352801
$GNGGA,040143.00,3359.20303854,N,11926.56391846,W,2,12,0.8,9.610,M,-37.451,M,5.0,0131*6D
$PYRTM,2024,127.167858942662,18.277506352801
$GNHDT,272.729,T*20
$PYRTM,2024,127.167864669815,18.277512079954
$GNGGA,040143.50,3359.20322926,N,11926.56539730,W,2,12,0.8,9.356,M,-37.451,M,5.4,0131*66
$PYRTM,2024,127.167864669815,18.277512079954
$GNHDT,272.575,T*2B
$PYRTM,2024,127.167870507639,18.277517917778
$GNGGA,040144.00,3359.20340579,N,11926.56684547,W,2,12,0.8,9.211,M,-37.451,M,6.0,0131*64
$PYRTM,2024,127.167870507639,18.277517917778
$GNHDT,272.519,T*21
$PYRTM,2024,127.167876246030,18.277523656169
$GNGGA,040144.50,3359.20357955,N,11926.56821096,W,2,12,0.8,9.270,M,-37.451,M,6.4,0131*6E
$PYRTM,2024,127.167876246030,18.277523656169
$GNHDT,272.696,T*25
$PYRTM,2024,127.167882081910,18.277529492049
$GNGGA,040145.00,3359.20374079,N,11926.56953172,W,2,12,0.8,9.516,M,-37.451,M,7.0,0131*61
$PYRTM,2024,127.167882081910,18.277529492049
$GNHDT,272.851,T*20
$PYRTM,2024,127.167887819780,18.277535229919
$GNGGA,040145.50,3359.20387699,N,11926.57088358,W,2,12,0.8,9.777,M,-37.451,M,7.4,0131*65
$PYRTM,2024,127.167887819780,18.277535229919
$GNHDT,272.989,T*24
$PYRTM,2024,127.167893662488,18.277541072627
$GNGGA,040146.00,3359.20399599,N,11926.57228063,W,2,12,0.8,9.961,M,-37.451,M,7.0,0131*61
$PYRTM,2024,127.167893662488,18.277541072627
$GNHDT,273.053,T*2B
$PYRTM,2024,127.167899406366,18.277546816505
$GNGGA,040146.50,3359.20408725,N,11926.57375666,W,2,12,0.8,9.950,M,-37.451,M,7.4,0131*62
$PYRTM,2024,127.167899406366,18.277546816505
$GNHDT,273.171,T*2A
$PYRTM,2024,127.167905239109,18.277552649248
$GNGGA,040147.00,3359.20416483,N,11926.57528126,W,2,12,0.8,9.740,M,-37.451,M,7.0,0131*60
$PYRTM,2024,127.167905239109,18.277552649248
$GNHDT,273.209,T*26
$PYRTM,2024,127.167910966956,18.277558377106
$GNGGA,040147.50,3359.20427995,N,11926.57677736,W,2,12,0.8,9.425,M,-37.451,M,7.4,0131*67
$PYRTM,2024,127.167910966956,18.277558377106
$GNHDT,273.193,T*26
$PYRTM,2024,127.167916809086,18.277564219225
$GNGGA,040148.00,3359.20444151,N,11926.57822243,W,2,12,0.8,9.178,M,-37.451,M,4.0,0131*6B
$PYRTM,2024,127.167916809086,18.277564219225
$GNHDT,273.200,T*2F
$PYRTM,2024,127.167922545509,18.277569955648
$GNGGA,040148.50,3359.20464753,N,11926.57959328,W,2,12,0.8,9.122,M,-37.451,M,4.4,0131*62
$PYRTM,2024,127.167922545509,18.277569955648
$GNHDT,273.166,T*2C
$PYRTM,2024,127.167928384873,18.277575795012
$GNGGA,040149.00,3359.20486885,N,11926.58095297,W,2,12,0.8,9.250,M,-37.451,M,5.0,0131*6E
$PYRTM,2024,127.167928384873,18.277575795012
$GNHDT,273.190,T*25
$PYRTM,2024,127.167934119398,18.277581529537
$GNGGA,040149.50,3359.20508260,N,11926.58232797,W,2,12,0.8,9.477,M,-37.451,M,5.4,0131*60
$PYRTM,2024,127.167934119398,18.277581529537
$GNHDT,273.099,T*2D
$PYRTM,2024,127.167939960266,18.277587370417
$GNGGA,040150.00,3359.20525958,N,11926.58376120,W,2,12,0.8,9.703,M,-37.451,M,6.0,0131*6E
$PYRTM,2024,127.167939960266,18.277587370417
$GNHDT,273.062,T*29
$PYRTM,2024,127.167945688970,18.277593099109
$GNGGA,040150.50,3359.20539309,N,11926.58525033,W,2,12,0.8,9.812,M,-37.451,M,6.4,0131*60
$PYRTM,2024,127.167945688970,18.277593099109
$GNHDT,272.980,T*2D
$PYRTM,2024,127.167951530833,18.277598940972
$GNGGA,040151.00,3359.20550120,N,11926.58675086,W,2,12,0.8,9.819,M,-37.451,M,7.0,0131*64
$PYRTM,2024,127.167951530833,18.277598940972
$GNHDT,273.111,T*2C
$PYRTM,2024,127.167957261840,18.277604671979
$GNGGA,040151.50,3359.20561544,N,11926.58823147,W,2,12,0.8,9.742,M,-37.451,M,7.4,0131*61
$PYRTM,2024,127.167957261840,18.277604671979
$GNHDT,273.452,T*2E
$PYRTM,2024,127.167963104641,18.277610514780
$GNGGA,040152.00,3359.20574209,N,11926.58968462,W,2,12,0.8,9.620,M,-37.451,M,7.0,0131*60
$PYRTM,2024,127.167963104641,18.277610514780
$GNHDT,273.570,T*2F
$PYRTM,2024,127.167968839201,18.277616249340
$GNGGA,040152.50,3359.20586985,N,11926.59113975,W,2,12,0.8,9.521,M,-37.451,M,7.4,0131*6F
$PYRTM,2024,127.167968839201,18.277616249340
$GNHDT,273.300,T*2E
$PYRTM,2024,127.167974679016,18.277622089155
$GNGGA,040153.00,3359.20601090,N,11926.59257437,W,2,12,0.8,9.480,M,-37.450,M,7.0,0131*6D
$PYRTM,2024,127.167974679016,18.277622089155
$GNHDT,273.212,T*2C
$PYRTM,2024,127.167980415208,18.277627825347
$GNGGA,040153.50,3359.20616427,N,11926.59397653,W,2,12,0.8,9.528,M,-37.450,M,7.4,0131*6C
$PYRTM,2024,127.167980415208,18.277627825347
$GNHDT,273.199,T*2C
$PYRTM,2024,127.167986253206,18.277633663345
$GNGGA,040154.00,3359.20632808,N,11926.59536311,W,2,12,0.8,9.639,M,-37.450,M,4.0,0131*63
$PYRTM,2024,127.167986253206,18.277633663345
$GNHDT,273.260,T*29
$PYRTM,2024,127.167991985000,18.277639395139
$GNGGA,040154.50,3359.20649517,N,11926.59676428,W,2,12,0.8,9.722,M,-37.450,M,4.4,0131*6C
$PYRTM,2024,127.167991985000,18.277639395139
$GNHDT,273.078,T*22
$PYRTM,2024,127.167997827199,18.277645237338
$GNGGA,040155.00,3359.20665465,N,11926.59820769,W,2,12,0.8,9.691,M,-37.450,M,5.0,0131*65
$PYRTM,2024,127.167997827199,18.277645237338
$GNHDT,273.068,T*23
$PYRTM,2024,127.168003557870,18.277650968009
$GNGGA,040155.50,3359.20681659,N,11926.59967972,W,2,12,0.8,9.524,M,-37.450,M,5.4,0131*68
$PYRTM,2024,127.168003557870,18.277650968009
$GNHDT,273.068,T*23
$PYRTM,2024,127.168009404653,18.277656814792
$GNGGA,040156.00,3359.20697632,N,11926.60115109,W,2,12,0.8,9.312,M,-37.450,M,6.0,0131*63
$PYRTM,2024,127.168009404653,18.277656814792
$GNHDT,273.059,T*21
$PYRTM,2024,127.168015133507,18.277662543646
$GNGGA,040156.50,3359.20712764,N,11926.60258298,W,2,12,0.8,9.180,M,-37.450,M,6.4,0131*64
$PYRTM,2024,127.168015133507,18.277662543646
$GNHDT,272.808,T*2C
$PYRTM,2024,127.168020970116,18.277668380243
$GNGGA,040157.00,3359.20725584,N,11926.60396803,W,2,12,0.8,9.187,M,-37.450,M,7.0,0131*61
$PYRTM,2024,127.168020970116,18.277668380243
$GNHDT,272.797,T*25
$PYRTM,2024,127.168026709931,18.277674120069
$GNGGA,040157.50,3359.20735579,N,11926.60533012,W,2,12,0.8,9.366,M,-37.450,M,7.4,0131*6F
$PYRTM,2024,127.168026709931,18.277674120069
$GNHDT,272.771,T*2D
$PYRTM,2024,127.168032552060,18.277679962199
$GNGGA,040158.00,3359.20744899,N,11926.60670792,W,2,12,0.8,9.598,M,-37.450,M,7.0,0131*68
$PYRTM,2024,127.168032552060,18.277679962199
$GNHDT,272.694,T*27
$PYRTM,2024,127.168038283472,18.277685693611
$GNGGA,040158.50,3359.20754959,N,11926.60813630,W,2,12,0.8,9.739,M,-37.450,M,7.4,0131*6E
$PYRTM,2024,127.168038283472,18.277685693611
$GNHDT,272.735,T*2D
$PYRTM,2024,127.168044127558,18.277691537708
$GNGGA,040159.00,3359.20767246,N,11926.60961863,W,2,12,0.8,9.688,M,-37.450,M,7.0,0131*6C
$PYRTM,2024,127.168044127558,18.277691537708
$GNHDT,272.569,T*26
$PYRTM,2024,127.168049856238,18.277697266377
$GNGGA,040159.50,3359.20781917,N,11926.61111612,W,2,12,0.8,9.492,M,-37.450,M,7.4,0131*65
$PYRTM,2024,127.168049856238,18.277697266377
$GNHDT,272.464,T*2A
$PYRTM,2024,127.168055698877,18.277703109028
$GNGGA,040200.00,3359.20797673,N,11926.61256131,W,2,12,0.8,9.302,M,-37.450,M,4.0,0131*6A
$PYRTM,2024,127.168055698877,18.277703109028
$GNHDT,272.241,T*2B
$PYRTM,2024,127.168061439352,18.277708849491
$GNGGA,040200.50,3359.20812027,N,11926.61395020,W,2,12,0.8,9.253,M,-37.450,M,4.4,0131*64
$PYRTM,2024,127.168061439352,18.277708849491
$GNHDT,272.246,T*2C
$PYRTM,2024,127.168067269201,18.277714679352
$GNGGA,040201.00,3359.20824509,N,11926.61532072,W,2,12,0.8,9.327,M,-37.450,M,5.0,0131*67
$PYRTM,2024,127.168067269201,18.277714679352
$GNHDT,272.360,T*29
$PYRTM,2024,127.168073005451,18.277720415590
$GNGGA,040201.50,3359.20834374,N,11926.61673473,W,2,12,0.8,9.428,M,-37.450,M,5.4,0131*60
$PYRTM,2024,127.168073005451,18.277720415590
$GNHDT,272.219,T*26
$PYRTM,2024,127.168078845602,18.277726255741
$GNGGA,040202.00,3359.20843155,N,11926.61821738,W,2,12,0.8,9.452,M,-37.450,M,6.0,0131*68
$PYRTM,2024,127.168078845602,18.277726255741
$GNHDT,272.206,T*28
$PYRTM,2024,127.168084579120,18.277731989271
$GNGGA,040202.50,3359.20852654,N,11926.61970329,W,2,12,0.8,9.422,M,-37.450,M,6.4,0131*69
$PYRTM,2024,127.168084579120,18.277731989271
$GNHDT,272.268,T*20
$PYRTM,2024,127.168090427234,18.277737837384
$GNGGA,040203.00,3359.20864773,N,11926.62109621,W,2,12,0.8,9.461,M,-37.450,M,7.0,0131*66
$PYRTM,2024,127.168090427234,18.277737837384
$GNHDT,272.319,T*27
$PYRTM,2024,127.168096156377,18.277743566516
$GNGGA,040203.50,3359.20876937,N,11926.62245920,W,2,12,0.8,9.554,M,-37.450,M,7.4,0131*68
$PYRTM,2024,127.168096156377,18.277743566516
$GNHDT,272.564,T*2B
$PYRTM,2024,127.168101992072,18.277749402211
$GNGGA,040204.00,3359.20890242,N,11926.62381086,W,2,12,0.8,9.719,M,-37.450,M,7.0,0131*68
$PYRTM,2024,127.168101992072,18.277749402211
$GNHDT,272.859,T*28
$PYRTM,2024,127.168107734398,18.277755144537
$GNGGA,040204.50,3359.20904989,N,11926.62521407,W,2,12,0.8,9.822,M,-37.450,M,7.4,0131*6F
$PYRTM,2024,127.168107734398,18.277755144537
$GNHDT,273.002,T*2F
$PYRTM,2024,127.168113570046,18.277760980185
$GNGGA,040205.00,3359.20919260,N,11926.62668756,W,2,12,0.8,9.801,M,-37.450,M,7.0,0131*67
$PYRTM,2024,127.168113570046,18.277760980185
$GNHDT,273.108,T*24
$PYRTM,2024,127.168119301215,18.277766711354
$GNGGA,040205.50,3359.20932335,N,11926.62816641,W,2,12,0.8,9.725,M,-37.450,M,7.4,0131*67
$PYRTM,2024,127.168119301215,18.277766711354
$GNHDT,272.899,T*24
$PYRTM,2024,127.168125137766,18.277772547905
$GNGGA,040206.00,3359.20944261,N,11926.62961882,W,2,12,0.8,9.645,M,-37.450,M,4.0,0131*60
$PYRTM,2024,127.168125137766,18.277772547905
$GNHDT,273.014,T*28
$PYRTM,2024,127.168130877303,18.277778287442
$GNGGA,040206.50,3359.20957173,N,11926.63103305,W,2,12,0.8,9.631,M,-37.450,M,4.4,0131*69
$PYRTM,2024,127.168130877303,18.277778287442
$GNHDT,273.058,T*20
$PYRTM,2024,127.168136715856,18.277784126007
$GNGGA,040207.00,3359.20973300,N,11926.63243163,W,2,12,0.8,9.674,M,-37.450,M,5.0,0131*6C
$PYRTM,2024,127.168136715856,18.277784126007
$GNHDT,273.248,T*23
$PYRTM,2024,127.168142446458,18.277789856597
$GNGGA,040207.50,3359.20991884,N,11926.63384910,W,2,12,0.8,9.719,M,-37.450,M,5.4,0131*6A
$PYRTM,2024,127.168142446458,18.277789856597
$GNHDT,273.046,T*2F
$PYRTM,2024,127.168148286794,18.277795696933
$GNGGA,040208.00,3359.21011537,N,11926.63530320,W,2,12,0.8,9.746,M,-37.450,M,6.0,0131*68
$PYRTM,2024,127.168148286794,18.277795696933
$GNHDT,272.963,T*20
$PYRTM,2024,127.168154022245,18.277801432384
$GNGGA,040208.50,3359.21031330,N,11926.63676205,W,2,12,0.8,9.739,M,-37.450,M,6.4,0131*65
$PYRTM,2024,127.168154022245,18.277801432384
$GNHDT,272.923,T*24
$PYRTM,2024,127.168159865255,18.277807275394
$GNGGA,040209.00,3359.21047719,N,11926.63823859,W,2,12,0.8,9.703,M,-37.450,M,7.0,0131*6E
$PYRTM,2024,127.168159865255,18.277807275394
$GNHDT,272.909,T*2C
$PYRTM,2024,127.168165600521,18.277813010660
$GNGGA,040209.50,3359.21060625,N,11926.63969201,W,2,12,0.8,9.689,M,-37.450,M,7.4,0131*6F
$PYRTM,2024,127.168165600521,18.277813010660
$GNHDT,273.069,T*22
$PYRTM,2024,127.168171440046,18.277818850185
$GNGGA,040210.00,3359.21073196,N,11926.64109207,W,2,12,0.8,9.726,M,-37.450,M,7.0,0131*60
$PYRTM,2024,127.168171440046,18.277818850185
$GNHDT,273.200,T*2F
$PYRTM,2024,127.168177169769,18.277824579907
$GNGGA,040210.50,3359.21086458,N,11926.64248711,W,2,12,0.8,9.792,M,-37.450,M,7.4,0131*67
$PYRTM,2024,127.168177169769,18.277824579907
$GNHDT,273.570,T*2F
$PYRTM,2024,127.168183016065,18.277830426204
$GNGGA,040211.00,3359.21101398,N,11926.64387112,W,2,12,0.8,9.875,M,-37.450,M,7.0,0131*63
$PYRTM,2024,127.168183016065,18.277830426204
$GNHDT,273.600,T*2B
$PYRTM,2024,127.168188754086,18.277836164225
$GNGGA,040211.50,3359.21118100,N,11926.64527286,W,2,12,0.8,9.922,M,-37.450,M,7.4,0131*68
$PYRTM,2024,127.168188754086,18.277836164225
$GNHDT,273.369,T*21
$PYRTM,2024,127.168194586308,18.277841996447
$GNGGA,040212.00,3359.21135859,N,11926.64670540,W,2,12,0.8,9.897,M,-37.450,M,4.0,0131*60
$PYRTM,2024,127.168194586308,18.277841996447
$GNHDT,273.255,T*2F
$PYRTM,2024,127.168200322616,18.277847732755
$GNGGA,040212.50,3359.21152785,N,11926.64816222,W,2,12,0.8,9.780,M,-37.450,M,4.4,0131*6A
$PYRTM,2024,127.168200322616,18.277847732755
$GNHDT,273.058,T*20
$PYRTM,2024,127.168206162847,18.277853572986
$GNGGA,040213.00,3359.21166747,N,11926.64963847,W,2,12,0.8,9.622,M,-37.450,M,5.0,0131*61
$PYRTM,2024,127.168206162847,18.277853572986
$GNHDT,272.866,T*24
$PYRTM,2024,127.168211893924,18.277859304062
$GNGGA,040213.50,3359.21179585,N,11926.65108731,W,2,12,0.8,9.472,M,-37.450,M,5.4,0131*6F
$PYRTM,2024,127.168211893924,18.277859304062
$GNHDT,272.849,T*29
$PYRTM,2024,127.168217733947,18.277865144086
$GNGGA,040214.00,3359.21191995,N,11926.65251182,W,2,12,0.8,9.408,M,-37.450,M,6.0,0131*6D
$PYRTM,2024,127.168217733947,18.277865144086
$GNHDT,272.924,T*23
$PYRTM,2024,127.168223468461,18.277870878600
$GNGGA,040214.50,3359.21204322,N,11926.65392951,W,2,12,0.8,9.434,M,-37.450,M,6.4,0131*62
$PYRTM,2024,127.168223468461,18.277870878600
$GNHDT,272.971,T*23
$PYRTM,2024,127.168229306516,18.277876716655
$GNGGA,040215.00,3359.21217724,N,11926.65536799,W,2,12,0.8,9.516,M,-37.450,M,7.0,0131*60
$PYRTM,2024,127.168229306516,18.277876716655
$GNHDT,272.823,T*25
$PYRTM,2024,127.168235044630,18.277882454780
$GNGGA,040215.50,3359.21232103,N,11926.65682793,W,2,12,0.8,9.609,M,-37.450,M,7.4,0131*6E
$PYRTM,2024,127.168235044630,18.277882454780
$GNHDT,272.690,T*23
$PYRTM,2024,127.168240885208,18.277888295347
$GNGGA,040216.00,3359.21245934,N,11926.65829612,W,2,12,0.8,9.745,M,-37.450,M,7.0,0131*6E
$PYRTM,2024,127.168240885208,18.277888295347
$GNHDT,272.667,T*2B
$PYRTM,2024,127.168246622269,18.277894032407
$GNGGA,040216.50,3359.21259320,N,11926.65973103,W,2,12,0.8,9.908,M,-37.450,M,7.4,0131*63
$PYRTM,2024,127.168246622269,18.277894032407
$GNHDT,272.632,T*2B
$PYRTM,2024,127.168252458113,18.277899868252
$GNGGA,040217.00,3359.21271162,N,11926.66115492,W,2,12,0.8,10.069,M,-37.450,M,7.0,0131*5D
$PYRTM,2024,127.168252458113,18.277899868252
$GNHDT,272.730,T*28
$PYRTM,2024,127.168258190914,18.277905601053
$GNGGA,040217.50,3359.21283464,N,11926.66259918,W,2,12,0.8,10.109,M,-37.450,M,7.4,0131*51
$PYRTM,2024,127.168258190914,18.277905601053
$GNHDT,272.657,T*28
$PYRTM,2024,127.168264028831,18.277911438981
$GNGGA,040218.00,3359.21296810,N,11926.66409431,W,2,12,0.8,9.978,M,-37.450,M,4.0,0131*64
$PYRTM,2024,127.168264028831,18.277911438981
$GNHDT,272.634,T*2D
$PYRTM,2024,127.168269763356,18.277917173495
$GNGGA,040218.50,3359.21310488,N,11926.66561120,W,2,12,0.8,9.713,M,-37.450,M,4.4,0131*6E
$PYRTM,2024,127.168269763356,18.277917173495
$GNHDT,272.479,T*26
$PYRTM,2024,127.168275609977,18.277923020116
$GNGGA,040219.00,3359.21322259,N,11926.66711485,W,2,12,0.8,9.443,M,-37.450,M,5.0,0131*6D
$PYRTM,2024,127.168275609977,18.277923020116
$GNHDT,272.324,T*29
$PYRTM,2024,127.168281346852,18.277928756991
$GNGGA,040219.50,3359.21332981,N,11926.66856136,W,2,12,0.8,9.302,M,-37.450,M,5.4,0131*60
$PYRTM,2024,127.168281346852,18.277928756991
$GNHDT,272.490,T*21
$PYRTM,2024,127.168287183519,18.277934593669
$GNGGA,040220.00,3359.21343355,N,11926.66995454,W,2,12,0.8,9.329,M,-37.450,M,6.0,0131*6B
$PYRTM,2024,127.168287183519,18.277934593669
$GNHDT,272.566,T*29
$PYRTM,2024,127.168292914248,18.277940324387
$GNGGA,040220.50,3359.21355042,N,11926.67133392,W,2,12,0.8,9.456,M,-37.450,M,6.4,0131*6F
$PYRTM,2024,127.168292914248,18.277940324387
$GNHDT,272.727,T*2E
$PYRTM,2024,127.168298751968,18.277946162106
$GNGGA,040221.00,3359.21367723,N,11926.67272322,W,2,12,0.8,9.645,M,-37.450,M,7.0,0131*62
$PYRTM,2024,127.168298751968,18.277946162106
$GNHDT,272.879,T*2A
$PYRTM,2024,127.168304489618,18.277951899757
$GNGGA,040221.50,3359.21379645,N,11926.67413651,W,2,12,0.8,9.797,M,-37.450,M,7.4,0131*63
$PYRTM,2024,127.168304489618,18.277951899757
$GNHDT,272.790,T*22
$PYRTM,2024,127.168310332049,18.277957742187
$GNGGA,040222.00,3359.21390967,N,11926.67556667,W,2,12,0.8,9.877,M,-37.450,M,7.0,0131*6D
$PYRTM,2024,127.168310332049,18.277957742187
$GNHDT,272.827,T*21
$PYRTM,2024,127.168316070914,18.277963481053
$GNGGA,040222.50,3359.21402872,N,11926.67701652,W,2,12,0.8,9.837,M,-37.450,M,7.4,0131*67
$PYRTM,2024,127.168316070914,18.277963481053
$GNHDT,272.800,T*24
$PYRTM,2024,127.168321901181,18.277969311319
$GNGGA,040223.00,3359.21415843,N,11926.67847754,W,2,12,0.8,9.674,M,-37.450,M,7.0,0131*60
$PYRTM,2024,127.168321901181,18.277969311319
$GNHDT,272.924,T*23
$PYRTM,2024,127.168327637037,18.277975047176
$GNGGA,040223.50,3359.21429156,N,11926.67995795,W,2,12,0.8,9.448,M,-37.450,M,7.4,0131*6D
$PYRTM,2024,127.168327637037,18.277975047176
$GNHDT,273.102,T*2E
$PYRTM,2024,127.168333478507,18.277980888646
$GNGGA,040224.00,3359.21441297,N,11926.68144995,W,2,12,0.8,9.222,M,-37.450,M,4.0,0131*67
$PYRTM,2024,127.168333478507,18.277980888646
$GNHDT,273.029,T*26
$PYRTM,2024,127.168339213472,18.277986623611
$GNGGA,040224.50,3359.21451574,N,11926.68292401,W,2,12,0.8,9.114,M,-37.450,M,4.4,0131*63
$PYRTM,2024,127.168339213472,18.277986623611
$GNHDT,272.895,T*28
$PYRTM,2024,127.168345052095,18.277992462234
$GNGGA,040225.00,3359.21461456,N,11926.68435971,W,2,12,0.8,9.181,M,-37.450,M,5.0,0131*6D
$PYRTM,2024,127.168345052095,18.277992462234
$GNHDT,272.922,T*25
$PYRTM,2024,127.168350791493,18.277998201632
$GNGGA,040225.50,3359.21472682,N,11926.68576519,W,2,12,0.8,9.388,M,-37.450,M,5.4,0131*6A
$PYRTM,2024,127.168350791493,18.277998201632
$GNHDT,273.007,T*2A
$PYRTM,2024,127.168356625150,18.278004035289
$GNGGA,040226.00,3359.21486305,N,11926.68716276,W,2,12,0.8,9.687,M,-37.450,M,6.0,0131*6A
$PYRTM,2024,127.168356625150,18.278004035289
$GNHDT,273.020,T*2F
$PYRTM,2024,127.168362356829,18.278009766968
$GNGGA,040226.50,3359.21501691,N,11926.68857775,W,2,12,0.8,9.952,M,-37.450,M,6.4,0131*66
$PYRTM,2024,127.168362356829,18.278009766968
$GNHDT,273.079,T*23
$PYRTM,2024,127.168368198819,18.278015608958
$GNGGA,040227.00,3359.21517945,N,11926.69003509,W,2,12,0.8,10.104,M,-37.450,M,7.0,0131*54
$PYRTM,2024,127.168368198819,18.278015608958
$GNHDT,272.928,T*2F
$PYRTM,2024,127.168373930394,18.278021340532
$GNGGA,040227.50,3359.21534773,N,11926.69153648,W,2,12,0.8,10.091,M,-37.450,M,7.4,0131*50
$PYRTM,2024,127.168373930394,18.278021340532
$GNHDT,272.846,T*26
$PYRTM,2024,127.168379779988,18.278027190127
$GNGGA,040228.00,3359.21552480,N,11926.69303429,W,2,12,0.8,9.954,M,-37.450,M,7.0,0131*6B
$PYRTM,2024,127.168379779988,18.278027190127
$GNHDT,272.979,T*2B
$PYRTM,2024,127.168385513102,18.278032923241
$GNGGA,040228.50,3359.21570708,N,11926.69448688,W,2,12,0.8,9.809,M,-37.450,M,7.4,0131*61
$PYRTM,2024,127.168385513102,18.278032923241
$GNHDT,272.964,T*27
$PYRTM,2024,127.168391346655,18.278038756794
